soc_id,lat,lng,Preferred_name,line_1,line_2,line_3,line_4,line_5,line_6,line_7,line_8,line_9,line_10,line_11,line_12,line_13,line_14,line_15,line_16,line_17,line_18,line_19,line_20,line_21,line_22,line_23,line_24,line_25,line_26,line_27,line_28,line_29,line_30,line_31,line_32,line_33,line_34,line_35,line_36,line_37
10000,-9.0,161.0,'Are'are,1.0,0.0,0.0,1.0,0.75,0.75,0.0,0.0,0.0,0.5,0.43,1.0,0.0,0.0,0.67,0.33,0.33,0.7,0.0,0.75,1.0,1.0,1.0,0.67,0.25,0.4,1.0,0.4,0.5,0.5,1.0,0.75,0.71,0.5,1.0,1.0,0.75
10027,-1.29,36.82,Abaluhya,0.58,0.12,0.82,0.5,0.5,0.75,1.0,0.5,1.0,0.5,0.86,0.14,0.5,0.86,0.67,0.17,0.67,0.0,0.33,0.5,0.4,0.0,1.0,0.83,0.5,1.0,1.0,1.0,1.0,0.5,1.0,0.75,0.71,1.0,0.25,0.8,0.75
10033,-5.55,150.14,Abelam,0.58,0.0,0.0,0.5,0.5,1.0,0.0,0.0,0.0,0.5,1.0,0.14,0.0,0.0,0.67,0.0,0.0,0.0,0.0,0.5,0.6,0.0,1.0,0.0,0.75,0.0,1.0,0.0,1.0,0.5,1.0,0.5,0.43,0.83,0.25,0.8,1.0
10055,43.0,41.02,Abkhazia,0.67,0.25,0.36,1.0,1.0,1.0,0.5,1.0,1.0,0.5,0.43,0.14,0.17,0.14,0.67,0.92,0.83,0.9,0.33,0.75,0.4,0.8,1.0,0.67,0.75,1.0,1.0,1.0,1.0,0.5,1.0,0.75,0.86,1.0,0.75,0.2,0.25
10077,28.21,95.53,Adi,0.58,0.12,0.36,1.0,0.75,0.75,0.5,0.0,0.75,0.25,0.43,0.14,0.17,0.14,0.67,0.75,0.67,1.0,0.0,0.5,0.6,0.0,0.25,0.33,0.75,1.0,1.0,0.4,0.5,0.25,1.0,0.75,0.43,0.33,0.5,0.6,0.5
10099,2.95,32.93,Acoli,0.92,1.0,0.27,0.5,0.75,1.0,1.0,0.75,1.0,0.75,0.86,0.14,0.5,0.86,0.67,0.75,0.33,1.0,0.0,0.75,0.6,0.0,1.0,0.83,0.5,1.0,1.0,0.8,0.5,0.75,1.0,0.5,0.71,0.5,0.5,0.6,0.75
10137,9.31,42.12,Harari,0.75,0.0,0.0,1.0,1.0,1.0,0.0,0.0,0.0,0.25,1.0,1.0,0.0,0.0,0.67,0.25,0.33,0.6,0.0,0.5,0.4,0.2,0.5,,1.0,0.0,1.0,0.4,0.0,0.25,0.0,0.5,0.43,0.5,0.5,0.2,0.5
10140,-6.8,146.56,Adzera,0.42,0.25,0.36,0.5,0.5,0.5,0.5,0.5,0.5,0.75,0.86,0.14,0.17,0.57,0.67,0.42,0.67,0.6,0.33,0.5,0.2,0.0,1.0,0.33,0.5,1.0,1.0,0.4,1.0,0.75,1.0,0.5,0.71,0.33,0.25,0.2,1.0
10143,11.75,40.95,Afar,0.75,0.25,0.36,0.5,0.75,1.0,0.5,1.0,0.75,0.5,0.43,0.14,0.17,0.14,0.67,0.92,0.83,1.0,0.0,0.5,0.6,0.0,0.75,0.67,0.5,1.0,1.0,0.8,0.5,0.5,0.33,0.75,0.71,0.33,0.5,0.6,0.75
10176,34.01,71.52,Afridi,0.5,0.62,0.45,0.75,0.25,0.25,0.75,0.25,0.5,0.0,1.0,0.43,0.83,0.57,0.0,0.33,0.0,0.9,0.33,0.5,0.4,0.0,0.5,0.17,0.75,0.0,0.4,0.0,0.5,0.0,1.0,0.0,0.0,0.0,0.25,0.6,0.25
10209,44.08,144.02,Sakhalin Ainu,1.0,0.0,0.0,1.0,0.5,1.0,0.0,0.0,0.0,0.75,0.43,1.0,0.0,0.0,0.67,1.0,0.83,1.0,1.0,0.25,0.4,1.0,1.0,0.33,0.25,1.0,1.0,1.0,0.5,0.75,0.0,0.75,0.14,0.33,0.5,0.8,0.75
10220,-3.15,142.36,Aitape,0.08,0.0,0.0,0.25,0.0,0.0,0.0,0.0,0.0,0.5,0.86,0.0,0.0,0.0,0.67,0.83,0.67,0.9,0.0,0.25,0.6,0.0,0.5,0.17,0.25,0.2,1.0,0.8,0.5,0.5,1.0,0.75,0.71,0.5,0.5,1.0,1.0
10231,-20.68,164.94,Ajie,1.0,1.0,1.0,1.0,0.75,1.0,1.0,1.0,0.75,0.75,0.43,1.0,0.5,0.71,0.67,0.83,0.83,1.0,0.67,1.0,0.6,0.0,1.0,0.83,0.75,0.4,0.8,0.8,1.0,0.75,1.0,0.5,0.71,0.5,0.5,0.2,1.0
10247,7.0,43.0,Ajuran,0.92,0.62,0.36,0.75,0.5,0.5,0.5,1.0,0.25,1.0,0.43,0.86,0.17,0.14,0.67,0.83,0.83,1.0,0.0,0.25,0.4,0.4,1.0,0.83,0.75,1.0,1.0,0.8,0.5,1.0,0.33,0.5,0.71,0.5,0.25,0.2,0.25
10264,-49.13,-74.45,Kawésqar,0.42,0.0,0.0,0.5,0.25,0.25,0.0,0.0,0.0,0.75,0.86,0.14,0.0,0.0,0.0,0.83,0.17,0.9,0.0,0.0,0.0,0.0,1.0,0.33,0.25,0.2,1.0,1.0,1.0,0.75,1.0,0.75,0.43,0.5,0.25,1.0,0.5
10286,-49.13,-74.45,Yup'ik,0.08,0.0,0.0,0.25,0.0,0.0,0.0,0.0,0.0,0.75,0.86,0.0,0.0,0.0,0.67,0.25,0.33,0.3,0.33,0.5,0.6,0.0,0.75,0.33,0.5,1.0,1.0,0.8,1.0,0.75,0.33,0.5,0.43,0.33,0.25,0.2,0.75
10297,41.87,19.59,Ghegs,0.08,0.0,0.0,0.25,0.0,0.0,0.0,0.0,0.0,0.5,0.86,0.0,0.0,0.0,0.67,0.83,0.33,1.0,0.33,0.5,0.4,0.0,0.5,0.33,0.5,0.2,1.0,0.8,0.5,0.5,0.33,0.5,0.43,0.5,0.75,0.8,0.5
10374,46.62,8.04,Alpine Swiss,1.0,0.0,0.0,1.0,1.0,1.0,0.0,0.0,0.0,1.0,0.43,0.14,0.0,0.0,0.67,0.42,0.17,1.0,0.67,0.75,0.4,1.0,1.0,0.17,0.25,0.2,1.0,0.0,0.5,1.0,1.0,0.5,1.0,1.0,1.0,0.8,0.5
10396,3.03,29.54,Alur,0.08,0.62,0.91,0.25,0.0,0.0,1.0,1.0,1.0,0.0,0.86,0.0,0.5,0.86,1.0,0.75,0.83,1.0,0.0,0.25,0.4,0.0,1.0,0.33,0.25,0.4,1.0,0.4,1.0,0.0,1.0,0.5,0.71,0.5,0.5,0.8,0.5
10407,-9.82,-73.08,Amahuaca,0.58,0.0,0.0,1.0,0.5,0.25,0.0,0.0,0.0,0.75,0.86,0.43,0.0,0.0,0.67,0.83,0.67,1.0,0.0,0.25,0.2,1.0,1.0,0.67,0.5,0.4,1.0,0.4,0.0,0.75,0.33,0.5,0.71,0.33,0.25,0.2,0.75
10418,27.7,128.82,Amami,0.08,0.12,0.09,0.25,0.0,0.0,1.0,0.0,0.0,0.0,0.43,0.0,0.5,0.0,0.67,0.0,0.33,0.0,0.0,0.75,0.2,0.0,0.5,0.33,0.5,1.0,1.0,0.4,0.0,0.0,0.33,0.5,0.0,0.0,0.5,0.6,0.75
10442,6.73,38.4,Koorete,0.75,0.0,0.0,1.0,0.25,0.75,0.5,1.0,0.75,1.0,1.0,0.14,0.17,0.14,0.67,0.83,0.67,0.9,0.0,0.75,0.2,0.2,0.75,0.83,0.5,1.0,1.0,1.0,1.0,1.0,0.0,1.0,0.43,0.0,0.0,0.6,1.0
10445,-13.2,49.05,Antankarana,0.92,0.25,0.36,1.0,0.75,1.0,0.5,0.75,0.75,0.75,0.43,1.0,0.5,0.14,0.0,0.58,0.33,1.0,0.33,0.5,0.4,1.0,1.0,0.83,0.75,1.0,1.0,0.8,0.5,0.75,1.0,0.75,0.43,0.33,0.25,0.8,0.75
10495,14.03,38.31,Amhara,0.58,0.25,0.27,0.25,0.0,0.0,1.0,0.5,0.75,0.5,0.43,0.0,0.5,0.57,0.67,0.58,0.67,0.0,0.33,0.5,0.2,0.0,0.5,0.67,0.75,1.0,1.0,0.8,0.5,0.5,0.33,0.5,0.14,0.33,0.5,0.6,0.25
10506,23.98,121.6,Ami,0.58,0.0,0.0,0.5,0.75,1.0,0.0,0.0,0.0,1.0,0.86,0.14,0.0,0.0,0.67,0.42,0.17,0.9,0.0,0.75,0.6,0.0,1.0,0.67,0.75,1.0,1.0,0.8,0.5,1.0,1.0,0.5,0.71,0.5,1.0,0.2,0.75
10528,9.89,8.85,Anaguta,0.08,0.12,0.09,1.0,0.0,0.0,1.0,0.0,1.0,1.0,0.43,0.0,0.5,0.86,0.67,0.83,0.83,1.0,0.0,0.5,0.4,1.0,1.0,0.83,0.25,0.4,1.0,0.8,1.0,1.0,1.0,0.5,0.86,0.5,0.25,0.8,1.0
10555,39.62,66.97,Bukharan Jews,0.08,0.12,0.36,0.25,0.0,0.0,0.5,0.25,0.5,0.0,0.43,0.0,0.5,0.14,0.67,0.0,0.33,0.0,0.0,0.5,0.2,0.0,0.0,0.33,0.75,0.2,0.8,0.0,0.0,0.0,0.33,0.0,0.0,0.0,0.25,0.2,0.25
10572,36.52,-6.28,Cadiz,0.08,0.25,0.36,0.25,0.0,0.0,1.0,0.75,1.0,0.0,0.43,0.0,0.5,0.57,0.67,0.33,0.33,0.2,0.0,0.75,0.2,0.0,0.25,0.83,0.75,0.2,1.0,0.8,1.0,0.0,1.0,0.0,0.0,0.0,0.75,0.2,0.5
10583,11.62,92.72,Jarawa,0.75,0.0,0.0,1.0,0.25,0.25,0.0,0.0,0.0,0.75,0.86,0.14,0.0,0.0,0.67,0.75,0.33,0.9,1.0,0.75,0.2,0.2,0.75,0.67,1.0,0.4,1.0,0.4,1.0,0.75,0.33,0.25,0.14,0.33,0.75,0.2,0.75
10594,19.63,78.05,Andh,0.42,0.0,0.0,1.0,0.25,0.5,0.0,0.0,0.0,0.25,0.86,0.14,0.0,0.0,0.67,0.42,0.33,0.0,0.33,0.5,0.4,0.4,0.5,0.67,0.5,0.4,1.0,0.8,0.5,0.25,1.0,0.5,0.71,0.5,0.75,0.6,0.75
10605,24.7,-78.01,Andros,0.75,0.0,0.0,1.0,0.75,0.75,0.0,0.0,0.0,0.0,0.43,1.0,0.0,0.0,0.67,0.33,0.33,0.4,0.67,0.75,0.4,1.0,1.0,0.33,0.75,1.0,1.0,0.8,1.0,0.0,1.0,1.0,0.71,0.33,0.25,0.6,0.75
10627,26.2,92.93,Angami Naga,0.42,0.62,0.55,0.5,0.25,0.25,0.75,0.25,0.25,0.25,0.86,0.14,0.17,0.29,0.67,0.75,0.17,1.0,0.0,0.25,0.4,0.0,0.25,0.67,0.75,0.2,0.8,0.0,0.0,0.25,1.0,0.5,0.14,0.83,0.25,0.2,0.75
10649,9.89,8.85,Angas,0.08,0.62,0.09,0.25,0.0,0.0,0.25,0.0,0.0,0.75,0.43,0.0,1.0,0.0,1.0,0.92,0.67,1.0,0.0,0.25,1.0,0.0,0.75,0.67,0.75,1.0,1.0,1.0,1.0,0.75,1.0,0.5,0.71,0.5,0.5,0.2,0.75
10671,18.21,-62.98,Anguilla,0.75,0.25,0.36,1.0,0.75,0.75,0.5,0.5,0.0,0.75,0.43,0.14,0.17,0.14,0.67,0.92,0.83,1.0,0.67,0.25,0.6,0.0,1.0,0.67,0.5,1.0,1.0,1.0,1.0,0.75,1.0,0.5,0.71,0.83,0.5,0.2,0.5
10682,-0.49,30.49,Ankole,0.75,0.12,0.09,1.0,1.0,1.0,0.25,0.0,0.0,0.5,0.43,0.14,0.17,0.0,0.67,0.42,0.33,0.4,0.0,0.5,0.4,0.8,1.0,0.67,0.5,1.0,1.0,1.0,1.0,0.5,1.0,0.5,0.71,0.5,0.5,0.6,0.5
10771,33.31,44.36,Iraq,0.08,0.62,0.55,0.25,0.0,0.0,0.75,0.5,0.25,0.0,1.0,0.0,1.0,0.57,0.67,0.75,0.0,0.0,0.0,0.5,0.2,0.0,0.0,0.0,0.75,0.0,1.0,0.4,0.0,0.0,0.0,0.25,0.43,0.33,0.25,0.6,1.0
10814,-38.94,-72.33,Mapuche,0.08,0.0,0.0,0.25,0.0,0.0,0.0,0.0,0.0,0.75,1.0,0.0,0.0,0.0,0.33,0.75,0.0,0.9,0.0,0.5,0.6,0.0,1.0,0.33,0.5,0.0,1.0,0.0,1.0,0.75,0.33,0.75,0.71,0.33,0.75,0.8,0.75
10825,-6.16,149.01,Arawe,0.08,0.0,0.0,0.25,0.0,0.0,0.0,0.0,0.0,0.5,0.43,0.0,0.0,0.0,0.67,0.83,0.33,0.9,0.67,0.5,0.6,0.0,0.75,0.67,0.25,0.4,1.0,1.0,0.5,0.5,1.0,0.5,0.71,0.33,0.25,0.8,0.25
10827,57.11,49.99,Kirovskaya,0.75,0.0,0.0,1.0,0.5,0.75,0.0,0.0,0.0,0.25,0.43,1.0,0.0,0.0,0.67,0.42,0.67,0.4,0.67,0.5,0.4,1.0,0.5,0.67,0.75,1.0,1.0,0.4,0.0,0.25,0.33,0.5,0.86,0.5,0.5,0.2,0.5
10847,57.11,49.99,Tucuman Gaucho,0.08,0.12,0.09,0.25,0.0,0.0,0.25,0.0,0.0,0.0,0.86,0.0,0.83,0.0,0.67,0.83,0.67,1.0,0.0,0.25,0.4,0.0,1.0,0.33,0.75,0.4,1.0,0.8,1.0,0.0,1.0,0.5,0.43,0.33,0.25,0.6,0.75
10858,44.43,24.37,Arges,0.08,0.0,0.0,0.25,0.0,0.0,0.0,0.0,0.0,0.0,1.0,0.0,0.0,0.0,0.67,0.42,0.67,0.0,0.33,0.5,0.4,0.0,0.25,0.17,0.5,0.0,1.0,0.8,0.5,0.0,0.33,0.75,0.86,0.83,0.75,0.8,0.5
10885,40.18,44.51,Armenia,0.58,0.12,0.27,0.5,0.75,0.75,0.5,0.5,0.5,0.0,0.43,0.14,0.5,0.57,0.0,0.0,0.33,0.0,0.33,0.5,0.4,0.0,0.5,0.83,0.75,1.0,1.0,0.4,1.0,0.0,1.0,0.5,0.14,0.5,0.75,0.2,0.25
10891,-3.15,129.38,Aru,0.58,0.75,0.36,0.5,0.25,0.25,0.5,0.5,0.75,0.0,1.0,0.14,0.5,0.14,0.67,0.33,0.33,0.6,0.0,0.25,0.6,0.0,0.25,0.67,1.0,0.0,1.0,0.0,0.0,0.0,1.0,0.25,0.0,0.33,0.25,0.6,0.5
10902,43.81,28.21,Aromanian,0.75,0.0,0.0,1.0,0.5,0.25,0.0,0.0,0.0,0.25,0.86,0.43,0.0,0.0,0.67,0.75,0.33,1.0,0.0,0.5,0.4,1.0,0.25,0.67,0.75,0.4,0.0,0.4,0.5,0.25,0.33,0.75,0.71,0.5,0.5,0.2,0.25
10929,7.93,39.65,Arsi,0.08,0.0,0.0,0.25,0.0,0.0,0.0,0.0,0.0,0.75,0.86,0.0,0.0,0.0,0.67,0.83,0.33,0.9,1.0,0.75,1.0,0.0,0.75,0.83,0.75,0.4,0.0,1.0,0.0,0.75,0.0,0.75,0.71,0.5,0.25,0.6,0.5
10962,-1.33,133.17,Coastal Asmat,0.08,0.0,0.36,0.5,0.75,0.75,0.5,1.0,0.75,0.5,0.86,0.14,0.17,0.14,0.67,0.83,0.67,0.9,0.0,0.25,0.4,0.0,1.0,0.83,0.75,0.4,0.4,0.8,1.0,0.5,1.0,0.25,0.71,0.5,0.5,0.2,0.75
10973,43.53,-5.66,Asturias,0.08,0.0,0.0,0.25,0.0,0.0,0.0,0.0,0.0,0.25,0.43,0.14,0.0,0.0,0.67,0.83,0.17,1.0,0.33,0.5,0.4,0.0,1.0,0.67,0.75,1.0,1.0,1.0,0.0,0.25,1.0,0.25,0.71,0.5,0.25,0.6,0.5
10979,61.95,-145.3,Ahtna,0.33,0.12,0.09,0.5,0.25,0.5,0.5,1.0,0.75,0.5,0.43,0.14,0.17,0.14,0.67,0.42,0.67,0.7,0.0,0.5,0.6,0.0,0.75,0.67,0.5,1.0,1.0,0.8,1.0,0.5,0.33,0.75,0.71,0.5,0.5,0.2,0.75
11067,-11.18,28.88,Aushi Bemba,0.58,0.0,0.0,1.0,1.0,1.0,0.0,0.0,0.0,0.25,0.86,0.14,0.0,0.0,0.0,0.0,0.33,0.0,0.33,0.25,0.4,0.6,1.0,0.83,0.75,1.0,1.0,1.0,1.0,0.25,1.0,0.5,0.86,1.0,0.5,0.2,0.5
11078,-13.12,130.28,Wadjiginy,0.08,0.25,0.36,0.25,0.0,0.0,0.5,0.5,1.0,0.75,0.43,0.0,0.5,0.57,1.0,0.83,0.33,1.0,0.0,0.5,0.2,0.0,1.0,0.17,0.25,0.4,1.0,0.8,0.5,0.75,1.0,0.75,0.14,0.0,0.0,0.6,1.0
11080,-32.96,151.6,Anglo Australians,0.08,0.0,0.0,0.25,0.0,0.0,0.0,0.0,0.0,0.0,0.43,0.0,0.0,0.0,0.67,0.42,0.33,0.4,0.0,0.5,0.4,0.0,0.75,0.33,0.5,0.2,1.0,0.8,1.0,0.0,1.0,0.5,0.71,0.5,0.75,0.6,0.25
11133,-15.92,-69.33,Aymara,0.42,0.0,0.0,0.5,0.5,0.25,1.0,0.0,0.0,0.75,0.86,0.14,0.0,0.0,0.67,0.42,0.83,1.0,0.0,0.5,0.6,0.0,1.0,0.67,0.5,1.0,1.0,1.0,1.0,0.75,1.0,0.5,0.71,0.33,0.25,0.6,0.5
11144,-17.81,-63.15,Ayoréo,0.08,0.62,0.09,0.25,0.0,0.0,0.25,0.0,0.0,0.5,0.86,0.0,0.83,0.0,0.67,0.75,0.67,0.9,1.0,0.25,0.2,0.0,0.0,0.83,0.75,0.2,0.4,1.0,1.0,0.5,0.0,0.5,0.43,0.5,0.5,0.2,0.75
11155,1.64,26.41,Azande,0.75,0.12,0.09,1.0,1.0,1.0,1.0,0.0,0.0,0.5,0.43,0.14,0.5,0.0,0.67,0.75,0.67,1.0,0.0,0.5,0.6,0.8,0.75,0.83,0.5,1.0,1.0,0.8,0.5,0.5,1.0,0.75,0.86,0.33,0.75,0.6,0.75
11160,40.4,49.86,Azerbaijani,0.08,0.62,0.09,0.25,0.0,0.0,1.0,0.5,0.75,0.25,1.0,0.0,1.0,0.29,0.67,0.75,0.67,0.0,0.0,0.25,0.2,0.0,0.0,0.33,0.75,0.0,0.0,0.4,0.0,0.25,0.0,0.0,0.86,0.5,0.5,0.8,0.75
11210,-7.89,129.69,Babarisla,0.58,0.12,0.36,1.0,0.75,0.5,0.5,0.25,0.5,0.5,0.86,0.14,0.5,0.14,1.0,0.0,0.0,0.0,0.0,0.25,0.6,0.4,0.5,0.67,1.0,0.0,0.4,0.0,0.5,0.5,1.0,0.75,0.86,0.83,0.25,0.0,0.5
11215,1.61,16.04,Mbendjele,0.08,0.0,0.0,0.25,0.0,0.0,0.0,0.0,0.0,1.0,0.43,0.0,0.0,0.0,0.67,0.83,0.67,1.0,0.0,0.75,1.0,0.0,1.0,0.67,0.5,1.0,1.0,1.0,0.0,1.0,1.0,0.0,1.0,1.0,1.0,1.0,1.0
11281,-8.94,160.9,Baegu,0.08,0.0,1.0,0.25,0.0,0.0,1.0,0.0,0.0,1.0,0.43,0.0,0.5,0.0,0.67,0.83,0.0,1.0,0.33,0.75,0.4,0.0,1.0,0.67,0.25,1.0,0.0,0.8,0.5,1.0,0.33,0.75,0.71,0.83,0.75,1.0,0.25
11309,14.37,24.9,Baggara,0.75,1.0,0.82,0.5,0.5,0.5,0.0,1.0,0.75,0.5,0.43,0.14,0.5,0.71,0.67,0.58,0.67,0.9,0.0,0.5,0.4,0.0,0.75,0.83,0.75,0.0,1.0,0.8,1.0,0.5,1.0,0.5,0.71,0.33,0.25,0.6,0.75
11342,-0.49,30.49,Bahima,0.75,0.0,0.0,0.75,0.5,0.5,0.0,0.0,0.0,0.5,1.0,0.14,0.0,0.0,0.0,0.5,0.0,1.0,0.0,0.25,0.2,0.0,0.25,0.33,0.5,0.0,1.0,0.8,0.5,0.5,0.33,0.5,0.14,0.0,0.25,0.6,0.5
11364,-0.49,30.49,Bahinda,0.08,0.62,0.09,0.25,0.0,0.0,0.25,0.0,0.0,0.5,1.0,0.0,0.5,0.0,0.0,0.83,0.67,1.0,0.0,0.25,0.2,0.0,0.25,0.33,0.0,0.0,0.8,0.8,0.5,0.5,1.0,0.75,0.14,0.33,0.0,1.0,1.0
11375,-2.58,29.68,Hutu,0.08,0.12,0.09,0.25,0.0,0.0,0.25,0.0,0.0,0.0,0.86,0.0,0.67,0.0,1.0,0.75,0.67,1.0,0.0,0.5,0.6,0.0,1.0,0.67,0.5,1.0,1.0,1.0,1.0,0.0,1.0,0.5,0.71,1.0,1.0,0.8,0.75
11377,26.25,50.6,Al-Buainain,0.92,0.62,0.09,0.25,0.0,0.0,0.25,0.0,0.0,0.5,0.43,0.14,0.5,0.0,0.67,0.75,0.83,0.9,0.33,0.25,0.6,0.0,0.5,0.67,1.0,1.0,0.0,1.0,0.5,0.5,0.33,0.5,0.43,0.33,0.5,0.2,0.75
11380,24.88,102.83,Bai,0.08,0.0,0.0,0.25,0.0,0.0,0.0,0.0,0.0,0.25,0.14,0.0,0.0,0.0,0.67,0.42,0.33,0.6,0.33,0.75,0.6,0.0,0.5,0.67,0.5,0.2,1.0,0.4,0.5,0.25,0.0,0.5,1.0,0.83,0.75,0.2,0.5
11397,0.96,114.55,Bajau Laut,0.08,0.0,0.0,0.25,0.0,0.0,0.0,0.0,0.0,0.0,1.0,0.0,0.0,0.0,0.67,0.0,0.0,0.0,0.0,0.5,0.2,0.0,0.0,0.17,0.5,0.0,1.0,0.4,0.0,0.0,0.0,0.5,0.71,0.33,0.5,0.6,0.25
11402,-4.66,152.0,Baining,0.42,0.25,0.27,0.5,0.75,1.0,0.5,0.5,1.0,0.5,0.86,0.14,0.5,0.57,0.67,0.83,0.17,1.0,0.83,0.25,0.6,0.0,1.0,0.83,0.75,1.0,1.0,0.8,0.5,0.5,1.0,0.5,0.71,0.33,0.5,0.2,0.5
11490,6.76,40.3,Bale Oromo,0.58,0.12,0.82,0.25,0.0,0.0,1.0,1.0,0.75,0.75,0.57,0.14,0.5,1.0,1.0,0.83,0.67,1.0,0.33,0.25,0.4,0.0,0.5,0.67,0.5,0.4,1.0,1.0,1.0,0.75,0.33,0.5,0.43,0.33,0.25,0.8,0.5
11496,-3.93,138.82,Lani,0.92,0.0,0.0,1.0,0.75,0.5,0.0,0.0,0.0,0.75,0.43,0.14,0.0,0.0,0.67,0.92,0.83,0.9,0.0,0.25,0.4,0.2,1.0,0.33,1.0,0.4,1.0,0.8,1.0,0.75,0.33,0.5,0.86,0.5,0.75,0.2,1.0
11507,-8.5,115.24,Balinese,0.08,0.0,0.0,0.25,0.0,0.0,0.0,0.0,0.0,0.0,1.0,0.0,0.0,0.0,0.67,0.0,0.17,0.0,0.0,0.5,0.2,0.0,0.0,0.17,0.5,0.0,1.0,0.0,0.5,0.0,0.0,0.75,0.14,0.0,0.25,0.6,0.25
11518,43.39,43.56,Balkar,0.75,0.0,0.0,1.0,1.0,1.0,0.0,0.0,0.0,1.0,0.43,0.14,0.0,0.0,0.67,0.42,0.67,0.4,0.33,0.75,0.4,1.0,1.0,0.83,0.75,0.4,1.0,1.0,1.0,1.0,1.0,0.5,0.71,0.83,0.75,0.8,0.75
11529,12.63,-8.0,Bambara,0.58,1.0,0.27,0.5,0.75,0.75,1.0,1.0,1.0,0.25,0.86,0.14,0.5,0.86,0.67,0.75,0.67,0.0,0.33,0.5,0.4,0.0,1.0,0.67,0.5,1.0,1.0,0.8,0.5,0.25,1.0,0.5,0.71,0.33,0.75,0.6,0.75
11584,6.76,19.66,Banda,0.58,0.25,0.36,0.5,1.0,1.0,0.5,1.0,1.0,0.5,0.43,0.14,0.17,0.14,0.67,0.67,,0.9,0.33,0.5,0.6,0.0,1.0,0.83,0.5,1.0,1.0,0.8,1.0,0.5,1.0,0.5,0.86,0.5,1.0,0.8,0.75
11600,2.72,30.64,BaNguana,0.08,0.12,0.09,0.25,0.0,0.0,1.0,0.0,0.0,0.75,0.43,0.0,0.5,0.0,0.67,0.83,0.67,1.0,0.0,0.5,0.6,0.0,1.0,0.83,0.25,1.0,1.0,0.8,0.5,0.75,1.0,0.25,1.0,0.83,0.5,1.0,0.75
11606,-9.78,149.88,Dawawa,0.42,0.25,0.36,0.5,0.5,0.75,0.5,0.5,0.5,0.5,0.43,0.14,0.67,0.14,0.67,0.83,0.67,0.9,0.67,0.5,0.6,0.0,1.0,0.67,0.5,0.4,0.8,1.0,1.0,0.5,0.33,0.5,0.71,0.5,0.25,0.6,0.75
11617,19.89,75.3,Banjara,0.75,0.88,0.64,0.75,0.5,0.5,1.0,0.5,0.75,0.5,0.43,0.43,0.5,0.71,0.67,0.67,0.83,0.9,0.33,0.25,0.2,0.0,0.0,0.83,0.5,1.0,1.0,1.0,0.5,0.5,0.33,0.25,0.14,0.33,0.25,0.8,0.75
11639,37.13,-113.65,Shoshone-Bannock,0.08,0.62,0.09,0.25,0.0,0.0,0.25,0.0,0.0,1.0,0.86,0.0,1.0,0.0,0.33,0.33,0.33,0.3,0.0,0.75,0.6,0.0,0.25,0.33,0.25,0.2,0.0,0.4,0.0,1.0,0.0,1.0,0.86,0.83,1.0,0.6,0.5
11672,-22.4,46.12,Bara,0.83,0.62,0.27,0.5,0.75,0.75,1.0,0.5,1.0,0.75,0.43,0.14,0.5,0.57,1.0,0.75,0.67,1.0,0.0,0.5,0.2,0.0,1.0,0.67,0.75,1.0,1.0,0.8,0.5,0.75,1.0,0.5,0.14,0.0,0.25,0.8,1.0
11683,-22.4,46.12,Kenuzi-Dongola Nubians,0.08,0.12,0.36,0.25,0.0,0.0,1.0,0.5,0.75,0.25,0.43,0.0,0.5,0.57,0.67,0.83,0.67,1.0,0.0,0.75,0.4,0.0,0.25,0.67,0.75,1.0,1.0,0.8,1.0,0.25,0.33,0.5,0.14,0.33,0.75,0.2,0.5
11760,54.23,56.16,Bashkirs,0.08,0.0,0.0,0.25,0.0,0.0,0.0,0.0,0.0,0.0,0.86,0.0,0.0,0.0,0.67,0.17,0.33,0.0,0.0,0.75,0.4,0.0,1.0,0.33,0.75,0.4,1.0,1.0,0.5,0.0,1.0,0.75,0.86,0.5,1.0,0.6,0.5
11793,0.31,32.57,Basoga,0.75,1.0,0.91,0.5,0.75,1.0,1.0,1.0,1.0,0.75,0.86,0.14,0.5,0.86,0.67,0.5,0.67,1.0,0.0,0.5,0.6,0.0,1.0,0.83,0.75,1.0,1.0,0.8,0.5,0.75,0.33,0.5,0.71,0.5,0.25,0.6,0.75
11804,43.03,-1.91,Spanish Basques,0.42,0.0,0.0,1.0,0.75,1.0,0.0,0.0,0.0,0.0,0.86,0.14,0.0,0.0,0.67,0.42,0.33,0.4,0.0,0.5,0.4,0.0,1.0,0.33,0.5,1.0,1.0,1.0,1.0,0.0,1.0,0.5,0.71,0.83,0.5,0.6,0.5
11826,30.61,53.19,Basseri,0.08,0.62,0.09,0.25,0.0,0.0,0.25,0.0,0.0,0.75,1.0,0.0,1.0,0.0,1.0,0.08,0.0,0.7,0.0,0.25,0.2,0.0,0.0,0.17,0.75,0.0,0.0,0.4,0.5,0.75,0.33,0.25,0.0,0.0,0.5,0.2,0.25
11859,3.1,98.49,Karo,0.25,1.0,0.91,0.25,0.0,0.0,1.0,0.25,1.0,0.0,0.43,0.0,0.5,0.86,0.67,0.33,0.33,0.3,,0.5,0.4,0.0,0.75,0.67,0.5,1.0,1.0,0.8,0.5,0.0,1.0,0.5,0.43,0.33,0.75,0.6,0.25
11870,7.44,-5.28,Baoulé,0.92,1.0,0.91,1.0,1.0,1.0,1.0,0.0,1.0,0.75,0.43,0.14,0.5,0.86,0.67,0.67,0.67,1.0,0.33,0.25,0.4,0.6,1.0,0.67,1.0,1.0,1.0,0.8,1.0,0.75,1.0,0.25,0.71,0.5,0.25,0.2,0.75
11881,48.79,11.49,Bayern (Bavarians),0.58,0.12,0.09,1.0,1.0,1.0,1.0,0.0,0.0,0.5,0.43,0.14,0.5,0.0,0.67,0.17,0.33,0.0,1.0,0.75,0.4,0.6,1.0,0.67,0.5,1.0,1.0,1.0,1.0,0.5,1.0,0.5,1.0,1.0,1.0,0.6,0.5
11892,1.61,16.04,Baya,0.75,1.0,0.36,1.0,0.75,0.75,1.0,0.75,1.0,0.75,0.43,1.0,0.5,0.86,1.0,0.83,0.67,1.0,0.67,0.75,0.4,0.6,1.0,0.83,0.75,1.0,1.0,0.8,1.0,0.75,1.0,0.5,0.71,0.5,0.75,0.6,0.75
11925,13.83,29.41,Bedaria,0.58,0.25,0.36,0.75,0.5,0.75,1.0,1.0,0.75,0.75,0.43,0.43,0.5,0.71,0.67,0.58,0.33,0.9,0.0,0.5,0.4,0.0,0.5,0.67,0.75,0.4,1.0,0.8,1.0,0.75,0.33,0.5,0.71,0.5,0.5,0.6,0.75
11936,12.8,45.03,Kathiri Bedouin,0.58,0.25,0.36,0.5,0.25,0.5,0.5,1.0,0.75,0.75,0.43,0.14,0.17,0.14,0.67,0.83,0.67,1.0,0.0,0.25,0.4,0.0,0.5,0.67,0.75,1.0,1.0,0.4,0.5,0.75,1.0,0.5,0.14,0.0,0.25,0.6,0.5
11958,50.41,4.45,Walloon,0.08,0.0,0.0,0.25,0.0,0.0,0.0,0.0,0.0,0.0,0.43,0.0,0.0,0.0,0.67,0.83,0.33,0.9,0.0,0.5,0.6,0.0,1.0,0.33,0.5,0.2,1.0,1.0,1.0,0.0,1.0,0.75,0.71,0.33,0.25,0.6,0.25
12002,-10.53,31.07,Bemba,0.58,0.12,0.27,1.0,1.0,1.0,1.0,1.0,1.0,0.25,0.43,0.14,0.5,0.86,1.0,0.42,0.67,0.9,0.0,0.75,0.4,0.8,0.75,0.67,0.5,1.0,1.0,0.8,1.0,0.25,1.0,0.75,0.86,0.33,0.25,0.6,0.75
12024,-10.53,31.07,Varanasi Monastics,0.08,0.88,0.09,0.25,0.0,0.0,1.0,0.0,0.0,0.5,0.86,0.0,0.5,0.0,0.67,0.08,0.33,0.0,0.67,0.75,0.4,0.0,0.25,0.67,0.75,0.2,0.8,0.4,0.5,0.5,0.33,0.75,0.14,0.33,0.25,0.8,0.25
12046,22.57,88.36,Bengal,0.08,0.75,0.45,0.25,0.0,0.0,1.0,0.5,1.0,0.0,0.43,0.0,0.5,0.71,0.67,0.08,0.67,0.0,0.0,0.5,0.2,0.0,0.0,0.67,0.5,0.4,1.0,0.4,0.5,0.0,0.33,0.75,0.14,0.33,0.75,0.6,0.25
12084,29.26,0.22,Gourara Berbers,0.75,1.0,0.91,1.0,0.5,0.75,1.0,0.5,0.75,0.75,0.43,0.86,0.5,0.86,0.67,1.0,0.83,0.9,0.33,0.75,0.6,1.0,1.0,0.67,0.5,0.4,1.0,0.8,0.5,0.75,1.0,0.5,0.71,0.5,0.5,0.8,0.75
12112,-21.32,46.93,Betsileo,0.42,0.25,0.27,1.0,0.5,0.75,1.0,0.5,1.0,0.5,0.43,0.14,0.5,0.86,0.67,0.67,0.67,1.0,0.0,0.75,0.4,0.6,1.0,0.83,0.75,1.0,1.0,0.0,0.5,0.5,1.0,0.5,0.86,0.33,0.25,0.0,0.5
12134,18.94,81.9,Bhatra Sikh,0.08,0.0,0.0,0.75,0.0,0.5,0.0,0.0,0.0,0.5,0.86,0.14,0.0,0.0,0.67,0.5,0.67,0.9,0.0,0.75,0.4,0.0,0.5,0.83,0.75,0.4,1.0,0.8,0.5,0.5,1.0,0.5,0.71,0.33,0.5,0.6,0.75
12145,22.97,78.65,Bhil,0.67,0.12,0.27,0.5,0.25,0.5,1.0,0.5,0.75,0.75,0.43,0.14,0.5,0.71,0.67,0.83,0.67,1.0,0.0,0.5,0.4,0.0,0.5,0.83,0.5,1.0,1.0,0.8,0.5,0.75,1.0,0.5,0.43,0.5,0.5,0.6,0.75
12156,28.82,83.73,Bhotiyas,0.42,0.25,0.0,0.25,0.0,0.25,0.0,0.0,0.0,0.5,0.43,0.0,0.0,0.0,0.67,0.33,0.33,0.0,0.0,0.25,0.4,0.0,0.5,0.83,0.25,0.4,0.8,1.0,0.5,0.5,1.0,0.5,0.86,1.0,1.0,0.8,0.5
12178,22.5,85.5,Bhumij,0.08,0.0,0.0,0.25,0.0,0.0,0.0,0.0,0.0,0.25,0.86,0.0,0.0,0.0,0.67,0.42,0.67,0.2,0.33,0.5,0.4,0.0,0.25,0.67,0.5,0.4,1.0,0.8,0.5,0.25,0.33,0.5,0.71,0.33,0.5,0.8,0.5
12205,-3.71,141.68,Biami,0.58,0.0,0.0,1.0,0.75,0.75,0.0,0.0,0.0,0.75,0.86,0.14,0.0,0.0,0.67,0.33,0.83,0.6,0.0,0.5,0.6,0.6,1.0,0.83,0.5,0.4,0.0,0.8,0.5,0.75,1.0,0.75,0.71,0.5,0.75,0.6,0.75
12260,-8.37,141.53,Bine,0.08,0.62,0.09,0.25,0.0,0.0,0.25,0.0,0.0,0.75,0.86,0.0,0.17,0.0,0.67,0.33,0.67,1.0,0.33,0.5,0.6,0.0,1.0,0.67,0.75,0.2,1.0,0.8,0.5,0.75,1.0,0.5,0.71,0.33,0.25,0.6,0.25
12321,15.91,-85.95,Garifuna,0.83,1.0,1.0,1.0,0.5,0.75,1.0,1.0,1.0,0.5,0.86,0.14,0.5,0.86,1.0,0.75,0.33,0.9,0.0,0.25,0.6,0.4,1.0,0.83,0.75,1.0,1.0,0.8,1.0,0.5,1.0,0.25,0.14,0.33,0.25,0.2,0.75
12337,22.0,100.79,Blang,0.08,0.12,0.09,0.25,0.0,0.0,1.0,0.0,0.0,0.25,0.86,0.0,0.83,0.0,0.67,0.5,0.17,0.9,0.33,0.5,0.4,0.0,1.0,0.67,0.5,1.0,1.0,0.8,0.5,0.25,0.33,0.5,0.14,0.33,0.25,0.6,0.25
12343,49.19,-113.3,Káínawa,0.42,0.12,0.09,0.5,0.5,0.5,0.5,0.0,0.0,0.75,0.43,0.14,0.17,0.0,0.33,0.42,0.33,0.2,0.0,0.75,0.6,0.0,0.5,0.67,0.75,1.0,1.0,0.8,0.5,0.75,0.33,0.75,0.43,0.33,0.25,0.0,0.5
12365,49.19,-113.3,Sundanese,0.08,0.62,0.27,0.25,0.0,0.0,1.0,0.5,1.0,0.0,0.86,0.0,0.5,0.57,0.67,0.0,0.33,0.0,0.33,0.75,0.2,0.0,0.0,0.33,0.25,0.0,0.0,0.4,0.5,0.0,0.33,0.5,0.14,0.0,1.0,0.6,0.0
12387,-4.27,144.96,Kire,0.42,0.38,0.36,0.5,0.5,0.25,0.5,0.75,0.25,0.75,0.86,0.14,0.83,0.14,0.67,0.75,0.33,1.0,0.0,0.25,0.4,0.0,0.75,0.33,0.25,0.2,0.4,0.8,1.0,0.75,1.0,0.5,0.71,0.33,0.25,0.6,0.75
12409,49.73,13.37,Bohemian,0.08,0.25,0.36,0.25,0.0,0.0,1.0,0.0,0.0,0.0,0.43,0.0,0.5,0.0,0.67,0.42,0.33,0.4,0.67,0.5,0.4,0.0,1.0,0.33,0.5,1.0,1.0,1.0,1.0,0.0,1.0,0.5,0.86,1.0,1.0,0.2,0.25
12480,0.54,16.62,Bongili,0.83,0.25,0.36,1.0,1.0,1.0,0.5,1.0,1.0,0.75,0.43,0.14,0.17,0.14,1.0,0.5,0.67,1.0,0.0,0.5,1.0,0.4,0.75,0.67,0.75,1.0,1.0,0.4,0.5,0.75,1.0,0.5,0.86,0.83,0.5,0.2,0.75
12483,18.55,82.73,Bonda,0.25,0.12,0.09,0.75,0.5,0.75,0.25,0.0,0.0,0.75,0.43,0.14,0.17,0.0,0.67,0.83,0.33,1.0,0.0,0.25,0.6,0.0,0.75,0.83,0.5,0.4,0.0,0.4,0.5,0.75,1.0,0.5,0.14,0.5,0.5,0.6,0.5
12530,-3.31,-71.86,Bora Witoto,0.42,0.0,0.0,0.5,0.25,0.75,0.0,0.0,0.0,0.5,0.86,0.14,0.0,0.0,0.67,0.17,0.33,0.0,0.33,0.5,0.6,0.0,1.0,0.33,0.25,0.4,1.0,1.0,1.0,0.5,1.0,0.75,0.43,0.0,0.25,0.8,0.5
12546,7.54,40.63,Borana,0.75,0.25,0.73,1.0,0.75,0.75,0.5,0.75,0.75,0.75,0.43,0.71,0.17,0.57,0.67,0.75,0.67,0.9,0.0,0.75,1.0,1.0,1.0,0.83,0.75,0.4,1.0,0.8,1.0,0.75,1.0,0.75,0.71,0.5,0.5,0.2,1.0
12563,44.24,17.73,Bosnia,0.08,0.62,0.09,0.25,0.0,0.0,0.25,0.0,0.0,0.0,1.0,0.0,1.0,0.0,0.67,0.0,0.0,0.0,0.67,0.25,0.2,0.0,0.0,0.17,0.5,0.0,0.0,0.0,0.0,0.0,1.0,0.5,0.71,0.33,0.5,0.6,0.5
12591,-7.71,-42.72,Piaui,0.08,0.0,0.82,0.25,0.0,0.0,1.0,0.25,0.75,0.5,,0.0,0.5,,1.0,0.83,0.33,1.0,0.0,0.5,0.4,0.0,1.0,0.83,0.75,1.0,1.0,1.0,1.0,0.5,1.0,0.5,0.43,0.33,0.0,0.2,0.25
12594,-23.55,-46.63,São Paulo,0.25,0.25,0.36,0.25,0.0,0.0,1.0,0.5,0.75,0.25,0.43,0.0,0.5,0.71,0.67,0.83,0.33,1.0,0.33,0.5,0.4,0.0,1.0,0.83,0.5,1.0,1.0,1.0,1.0,0.25,1.0,0.5,0.43,0.5,0.5,0.6,0.25
12596,-12.57,-41.7,Salvador,0.58,0.88,0.27,0.5,0.5,1.0,1.0,0.75,1.0,0.5,0.43,0.14,0.5,0.71,0.67,0.75,0.67,1.0,0.0,0.5,0.6,0.0,0.75,0.83,0.5,1.0,1.0,0.8,1.0,0.5,1.0,0.5,0.71,0.5,0.5,0.8,0.75
12607,47.21,-1.55,Brittany,0.08,0.0,0.0,0.25,0.0,0.0,0.0,0.0,0.0,0.0,0.86,0.0,0.0,0.0,0.67,0.17,0.33,0.6,0.67,0.5,0.4,0.0,0.75,0.83,0.5,0.4,1.0,1.0,1.0,0.0,1.0,0.5,0.43,0.33,0.5,0.6,0.25
12640,44.5,26.65,Bucharest,0.08,0.0,0.0,0.25,0.0,0.0,0.0,0.0,0.0,0.25,1.0,0.0,0.0,0.0,0.67,0.92,0.33,1.0,0.0,0.25,0.2,0.0,0.25,0.33,0.25,0.0,1.0,0.4,1.0,0.25,0.0,0.5,0.43,0.5,0.5,0.6,0.25
12662,2.72,30.64,Budu,0.08,0.12,0.09,0.25,0.0,0.0,0.25,0.0,0.0,0.0,0.43,0.0,0.5,0.0,0.67,1.0,0.67,0.9,0.0,0.25,0.6,0.0,1.0,0.67,0.25,1.0,0.8,1.0,1.0,0.0,1.0,0.5,0.71,0.33,0.25,0.8,0.5
12698,-6.0,155.0,Buin,0.42,0.0,0.0,0.5,1.0,0.75,0.0,0.0,0.0,0.5,0.86,0.14,0.0,0.0,0.67,0.83,0.33,1.0,0.33,0.5,0.6,0.0,1.0,0.67,0.25,1.0,1.0,0.4,0.5,0.5,1.0,0.5,0.71,0.5,0.75,0.6,0.25
12739,41.61,23.97,Pirin,0.42,0.0,0.0,1.0,1.0,1.0,0.0,0.0,0.0,0.25,1.0,0.14,0.0,0.0,0.67,0.83,0.33,1.0,0.33,0.25,0.4,0.4,0.75,0.17,0.75,0.0,1.0,0.0,1.0,0.25,1.0,0.5,0.71,1.0,1.0,0.2,0.5
12750,41.57,24.7,Rhodope,0.08,0.0,0.0,0.25,0.0,0.0,1.0,0.0,0.0,0.0,0.43,0.0,0.0,0.57,0.67,0.92,0.33,1.0,0.0,0.5,0.4,0.0,0.5,0.33,0.5,1.0,1.0,0.8,0.5,0.0,1.0,0.5,0.71,0.83,1.0,0.6,0.25
12761,42.33,23.08,Sofia District,0.42,0.0,0.0,1.0,1.0,1.0,0.0,0.0,0.0,0.5,1.0,0.14,0.0,0.0,0.67,0.92,0.33,0.9,0.33,0.25,0.4,0.2,1.0,0.67,0.75,0.0,1.0,1.0,1.0,0.5,1.0,0.5,0.71,1.0,1.0,0.2,0.25
12772,41.93,25.55,Thrace,0.08,0.0,0.0,0.25,0.0,0.0,0.0,0.0,0.0,0.0,1.0,0.0,0.0,0.0,0.67,0.33,0.17,0.7,0.0,0.25,0.4,0.0,0.5,0.17,0.5,0.0,1.0,1.0,0.0,0.0,1.0,0.75,0.71,0.83,1.0,0.6,0.25
12783,2.92,11.15,Bulu,0.75,0.0,0.0,1.0,1.0,1.0,0.0,0.75,1.0,0.75,0.43,0.14,0.5,0.0,0.67,0.75,0.33,0.9,0.0,0.5,0.4,0.6,1.0,0.67,0.5,1.0,1.0,1.0,1.0,0.75,1.0,0.5,0.71,0.5,0.5,0.6,0.5
12794,-8.98,14.89,Northern Mbundu,1.0,0.0,0.0,1.0,0.5,0.75,0.0,0.0,0.0,0.75,0.57,1.0,0.0,0.0,1.0,1.0,0.83,1.0,0.0,0.75,0.4,1.0,1.0,1.0,1.0,1.0,1.0,1.0,1.0,0.75,1.0,0.75,0.14,0.5,0.25,0.2,0.5
12816,-15.75,168.18,Bunlap,0.58,0.0,0.0,1.0,0.75,0.75,0.0,0.0,0.0,0.5,0.86,1.0,0.0,0.0,0.67,0.25,0.67,0.3,0.67,0.5,0.6,0.0,1.0,0.67,1.0,1.0,1.0,0.8,1.0,0.5,1.0,0.25,0.86,0.5,0.5,0.8,0.75
12838,5.82,37.57,Burji,0.92,0.25,0.36,1.0,0.75,0.75,0.5,0.75,0.75,0.5,0.43,1.0,0.5,0.57,1.0,0.75,0.83,0.9,0.0,0.5,0.6,1.0,1.0,0.67,0.75,0.4,1.0,0.8,0.5,0.5,1.0,0.75,0.71,0.5,0.75,0.2,1.0
12849,21.95,96.08,Burmese,0.08,0.62,0.27,0.25,0.0,0.0,0.75,0.5,1.0,0.0,0.86,0.0,0.83,0.57,0.67,0.0,0.67,0.0,0.67,0.75,0.4,0.0,0.5,0.33,0.5,0.0,0.8,0.4,0.5,0.0,0.33,0.5,0.14,0.33,0.5,0.6,0.5
12860,36.0,76.0,Burusho,0.08,0.88,0.09,0.25,0.0,0.0,1.0,0.0,0.0,0.5,0.57,0.0,0.67,0.0,0.67,0.17,0.67,0.3,0.67,0.5,0.2,0.0,0.25,0.83,0.5,1.0,1.0,0.8,0.5,0.5,0.0,0.5,0.43,0.5,0.25,0.2,0.75
12871,54.83,112.4,Buryat,0.08,0.12,0.27,0.25,0.0,0.0,1.0,0.5,1.0,0.0,1.0,0.0,0.5,0.29,0.67,0.42,0.67,0.6,0.0,0.25,0.6,0.0,0.25,0.17,0.75,0.0,1.0,0.8,0.5,0.0,0.0,0.5,0.86,0.83,0.75,0.6,0.25
12904,-6.7,147.62,Butala,0.08,0.62,0.09,0.25,0.0,0.0,0.25,0.0,0.0,0.5,0.86,0.0,0.17,0.0,0.67,0.0,0.17,0.3,0.67,0.5,0.6,0.0,1.0,0.33,0.25,0.4,0.8,0.4,0.5,0.5,1.0,0.5,0.71,0.83,0.5,0.8,0.5
12920,22.81,108.36,Bouyei,0.75,0.0,0.0,1.0,0.5,0.75,0.0,0.0,0.0,0.25,0.86,1.0,0.0,0.0,0.67,0.75,0.33,0.9,0.67,0.5,0.4,0.8,1.0,0.67,0.75,0.2,1.0,0.8,0.5,0.25,0.33,0.25,0.43,0.33,0.25,0.2,0.0
12923,-9.87,142.58,Buzi,0.42,0.25,0.36,0.5,0.75,0.75,0.5,0.0,0.75,0.75,0.86,0.14,0.17,0.14,0.67,0.92,0.33,1.0,0.0,0.5,0.6,0.0,1.0,0.67,0.75,1.0,1.0,0.8,0.5,0.75,1.0,0.5,0.71,0.83,0.75,0.2,0.75
12931,-9.36,150.25,Bwaidoka,0.75,0.0,0.0,1.0,0.5,0.75,0.0,0.0,0.0,1.0,0.14,0.14,0.0,0.0,1.0,0.83,0.33,0.9,0.0,0.5,0.6,0.2,1.0,0.83,0.5,1.0,0.0,0.8,1.0,1.0,1.0,0.5,0.43,0.5,0.25,0.8,1.0
12948,57.81,28.33,Belarus,0.08,0.0,0.0,1.0,0.0,0.0,0.0,0.0,0.0,0.0,0.43,0.0,0.0,0.0,0.67,0.83,0.17,1.0,0.0,0.5,0.4,0.0,0.75,0.33,0.75,0.4,1.0,0.4,0.0,0.0,1.0,0.5,0.71,0.83,0.75,0.6,0.5
13025,-26.72,-52.17,Kaingang,0.5,0.75,0.36,0.5,0.5,0.25,0.5,1.0,0.5,0.75,0.86,0.57,1.0,0.57,0.67,0.83,0.83,1.0,0.0,0.0,0.2,0.0,1.0,0.33,0.5,0.4,1.0,0.4,1.0,0.75,1.0,0.75,0.43,0.5,0.5,0.2,0.75
13036,-31.77,-60.49,Guaraní,0.58,0.62,0.09,0.5,0.25,0.5,1.0,0.0,0.0,0.75,0.86,0.14,0.5,0.0,0.67,0.75,0.67,0.9,0.0,0.25,0.6,0.0,1.0,0.83,0.75,0.4,1.0,0.8,0.5,0.75,1.0,0.75,0.71,0.83,0.75,0.2,0.75
13080,12.57,-81.7,San Andrés,0.08,0.88,0.82,0.25,0.0,0.0,1.0,1.0,1.0,0.0,0.43,0.0,0.5,0.71,1.0,0.42,0.33,0.4,0.0,0.25,0.4,0.0,1.0,0.67,0.5,1.0,1.0,1.0,1.0,0.0,1.0,0.5,0.43,0.33,0.25,0.6,0.25
13102,-12.27,-53.47,Kamayurá,0.42,0.0,0.0,0.5,0.25,0.5,0.0,0.0,0.0,0.75,0.86,0.14,0.17,0.0,0.67,0.17,0.67,0.0,0.33,0.5,0.6,0.0,1.0,0.33,0.5,1.0,1.0,1.0,1.0,0.75,1.0,0.5,0.14,0.33,0.25,0.6,0.75
13124,12.56,104.99,Khmer,0.08,,0.55,0.25,0.0,0.0,0.75,,0.75,0.25,0.86,0.0,1.0,0.57,0.67,0.75,0.17,0.9,0.0,0.5,0.6,0.0,0.25,0.33,0.5,0.2,0.8,0.4,0.5,0.25,0.33,0.5,1.0,0.5,0.5,0.6,0.5
13135,-10.44,-75.15,Asháninka,1.0,0.62,0.09,1.0,0.5,0.25,0.25,0.0,0.0,0.5,0.86,1.0,0.17,0.57,0.67,1.0,0.17,1.0,0.0,0.5,0.6,1.0,0.75,0.33,0.25,0.4,1.0,0.4,0.5,0.5,1.0,0.5,0.71,0.5,0.25,0.6,1.0
13140,46.24,-60.85,Nova Scotia,0.08,0.0,0.0,0.25,0.0,0.0,0.0,0.0,0.0,0.0,0.43,0.0,0.0,0.0,0.67,0.42,0.67,0.4,0.33,0.5,0.4,0.0,0.75,0.33,0.5,0.4,1.0,0.8,1.0,0.0,1.0,0.75,0.43,0.5,0.25,0.6,0.5
13157,23.12,113.26,Cantonese Folk,0.08,0.0,0.0,0.25,0.0,0.0,0.0,0.0,0.0,0.25,0.43,0.0,0.0,0.0,0.67,0.0,0.33,0.6,0.67,0.5,0.4,0.0,0.5,0.67,0.5,0.0,1.0,0.8,1.0,0.25,1.0,0.5,0.14,0.33,0.75,0.2,0.25
13168,-10.92,-50.18,Karajá,0.08,0.0,0.0,0.25,0.0,0.0,0.0,0.0,0.0,0.75,0.86,0.0,0.0,0.0,1.0,0.17,0.67,0.0,0.33,0.75,1.0,0.0,1.0,0.33,0.0,1.0,1.0,0.4,0.5,0.75,0.33,1.0,0.71,0.33,0.5,0.0,0.75
13190,64.59,-84.13,Kivallirmiut,0.42,0.0,0.0,0.5,0.25,0.0,0.0,0.0,0.0,0.75,0.86,0.14,0.0,0.0,0.67,0.42,0.17,0.9,0.67,0.5,0.6,0.0,0.75,0.33,0.25,0.4,1.0,0.8,1.0,0.75,0.33,0.75,0.43,0.33,0.25,0.8,0.75
13223,12.47,-61.44,Carriacou,0.75,0.0,1.0,1.0,0.75,1.0,1.0,0.0,1.0,0.75,0.43,0.14,0.5,0.0,0.67,0.75,0.67,1.0,0.0,0.5,0.4,0.0,1.0,0.67,0.5,1.0,1.0,1.0,1.0,0.75,1.0,0.5,0.71,0.5,0.5,0.6,0.5
13234,55.25,-127.67,Dakelh,0.08,0.0,0.0,0.25,0.0,0.0,0.0,0.0,0.0,0.75,0.86,0.0,0.0,0.0,0.33,0.83,0.33,1.0,0.0,0.5,0.4,0.0,1.0,0.33,0.25,0.4,1.0,0.8,1.0,0.75,0.33,0.75,0.43,0.33,0.5,0.8,0.75
13256,16.56,121.26,Casiguran,0.08,0.0,0.0,0.25,0.0,0.0,0.0,0.0,0.0,0.5,1.0,0.0,0.0,0.0,0.67,0.58,0.17,0.9,0.0,0.5,0.2,0.0,0.5,0.83,0.75,0.0,1.0,0.0,0.0,0.5,0.0,0.75,0.14,0.0,0.25,0.8,0.75
13289,-15.6,-72.08,Qulla,0.42,0.75,0.45,0.5,0.5,0.75,0.75,0.25,0.5,0.25,0.86,0.14,0.83,0.29,0.0,0.42,0.67,0.6,0.33,0.5,0.6,0.0,0.75,0.33,0.5,0.4,0.4,0.4,1.0,0.25,1.0,0.5,0.43,0.5,0.25,0.8,0.75
13300,-1.46,-78.51,Chachi,0.08,0.0,0.0,0.25,0.0,0.0,0.0,0.0,0.0,0.0,1.0,0.0,0.0,0.0,0.0,0.08,0.33,0.0,0.0,0.75,0.6,0.0,0.75,0.17,0.5,0.0,1.0,0.4,0.5,0.0,0.0,0.75,0.43,0.0,0.0,0.6,1.0
13321,52.58,32.75,Bryanskaya,0.58,0.0,0.0,1.0,0.5,0.75,0.0,0.0,0.0,0.0,0.86,0.14,0.0,0.0,0.67,0.83,0.33,0.9,1.0,0.75,0.4,0.8,0.5,0.33,0.75,1.0,1.0,0.4,0.5,0.0,0.33,0.0,0.86,0.5,0.5,0.2,0.5
13322,52.64,41.42,Urals,0.42,0.0,0.0,1.0,0.75,0.75,0.0,0.0,0.0,0.5,0.86,0.14,0.0,0.0,0.67,0.42,0.33,0.3,0.33,1.0,0.4,0.6,1.0,0.33,0.5,0.4,1.0,0.8,0.5,0.5,,0.75,0.71,0.5,1.0,0.6,0.25
13333,22.97,78.65,C Indian Folk,0.42,0.38,0.36,0.5,0.25,0.5,0.75,0.25,0.5,0.0,0.57,0.14,0.67,0.71,0.0,0.08,0.67,0.0,0.83,0.5,0.2,0.0,0.0,0.83,0.5,1.0,1.0,0.4,1.0,0.0,1.0,0.25,0.0,0.0,0.5,0.6,0.75
13388,-3.28,37.51,Chagga,0.75,0.12,0.09,1.0,0.75,0.75,0.25,0.0,0.0,0.5,0.43,0.14,0.17,0.0,0.67,0.17,0.67,0.0,0.33,0.5,0.6,0.4,1.0,0.67,0.5,1.0,1.0,0.4,1.0,0.5,0.33,0.5,0.71,0.33,0.25,0.6,0.75
13399,40.84,111.73,Chahar,0.75,0.0,0.0,1.0,0.5,0.25,0.0,0.5,0.0,1.0,1.0,0.43,0.0,0.0,0.67,0.08,0.17,0.0,0.0,1.0,,0.2,0.0,0.0,0.75,0.0,1.0,0.4,0.5,1.0,0.0,0.0,0.43,0.33,0.25,0.6,1.0
13476,43.4,45.71,Chechen,0.08,0.12,0.09,0.25,0.0,0.0,0.25,0.0,0.0,0.25,0.43,0.0,0.5,0.0,0.67,0.42,0.33,0.3,0.33,0.5,0.4,0.0,0.5,0.67,0.75,0.4,0.8,0.8,1.0,0.25,1.0,0.5,0.71,0.83,0.75,0.6,0.25
13520,56.63,47.86,Mari,0.08,0.0,0.0,0.25,0.0,0.0,0.0,0.0,0.0,0.0,0.43,0.0,0.0,0.0,0.67,0.42,0.67,0.4,0.0,0.75,0.6,0.0,1.0,0.67,0.5,1.0,1.0,0.8,0.5,0.0,1.0,0.5,0.43,0.33,0.25,0.6,0.25
13553,35.07,-98.24,Heévâhetaneo'o,0.08,0.0,0.0,0.25,0.0,0.0,0.0,0.0,0.0,0.5,0.86,0.0,0.0,0.0,0.0,0.33,0.17,0.3,0.0,0.25,0.6,0.0,0.5,0.33,0.0,0.4,1.0,0.8,0.5,0.5,0.0,0.75,0.43,0.83,0.75,1.0,0.75
13597,35.07,-98.24,Atanquez,0.08,0.88,0.36,0.25,0.0,0.0,1.0,0.75,1.0,0.25,0.43,0.0,0.5,1.0,0.67,0.83,0.67,1.0,0.0,0.5,0.6,0.0,1.0,0.67,0.75,1.0,1.0,0.8,1.0,0.25,0.33,0.5,0.14,0.33,0.5,0.2,0.5
13630,35.07,-98.24,Chileno,0.08,0.12,0.09,0.25,0.0,0.0,1.0,0.0,0.0,0.0,0.86,0.0,0.5,0.0,0.67,0.42,0.67,0.3,0.33,0.5,0.4,0.0,1.0,0.67,0.5,1.0,1.0,0.8,1.0,0.0,1.0,0.75,0.43,0.33,0.5,0.6,0.25
13663,35.89,117.92,Chinese Urban Elite,0.08,0.75,0.55,0.25,0.0,0.0,0.75,0.25,0.25,0.0,1.0,0.0,0.5,0.29,0.67,0.0,0.33,0.0,0.33,0.75,0.6,0.0,0.25,0.67,0.5,0.0,0.0,0.0,0.5,0.0,0.33,0.75,0.14,0.0,0.5,0.6,0.5
13665,30.27,120.15,Hangzhou,0.75,0.0,0.0,0.5,0.75,0.75,0.0,0.0,0.0,1.0,0.43,0.14,0.0,0.0,0.67,0.75,0.83,1.0,0.0,0.5,0.6,0.0,0.25,0.83,0.75,1.0,1.0,0.4,0.5,1.0,0.33,0.5,0.71,0.33,0.5,0.2,1.0
13668,33.24,119.36,Lower Yangtze,0.08,0.0,0.0,0.25,0.0,0.0,0.0,0.0,0.0,0.25,0.43,0.0,0.0,0.0,0.67,0.33,0.17,0.6,0.0,0.75,0.4,0.0,0.25,0.67,0.75,1.0,1.0,0.8,0.0,0.25,0.0,0.5,0.14,0.33,0.5,0.2,0.25
13701,-19.02,-68.11,Chipaya,0.67,0.75,0.36,0.5,0.5,0.5,1.0,0.5,0.25,1.0,0.57,0.14,0.5,0.57,1.0,0.83,0.33,1.0,0.0,0.5,0.4,0.0,1.0,0.33,0.75,1.0,1.0,0.4,0.0,1.0,1.0,0.5,0.86,0.33,0.75,0.8,1.0
13718,-19.02,-68.11,Minnesota Ojibwa,0.08,0.0,0.0,0.25,0.0,0.0,0.0,0.0,0.0,0.25,0.86,0.0,0.0,0.0,0.33,0.33,0.17,0.2,0.0,1.0,0.4,0.0,0.75,0.17,0.5,0.2,1.0,0.0,0.5,0.25,0.0,0.5,0.0,0.0,0.0,0.6,0.5
13773,32.77,-89.11,Choctaw,0.33,0.0,0.0,0.5,0.5,0.75,0.0,0.0,0.0,0.75,0.86,0.14,0.0,0.0,0.67,0.17,0.67,0.0,0.0,0.5,0.4,0.0,1.0,0.33,0.75,1.0,1.0,0.8,0.5,0.75,0.33,0.5,0.71,0.5,0.75,0.2,0.75
13784,-7.05,156.95,Choiseul,0.33,0.0,0.0,1.0,1.0,1.0,0.0,0.0,0.0,0.25,1.0,0.0,0.0,0.0,0.67,0.08,0.17,0.6,0.67,0.75,0.6,0.0,0.75,0.17,0.0,0.0,1.0,0.4,0.0,0.25,1.0,1.0,0.86,0.83,0.75,1.0,1.0
13795,-9.79,22.87,Chokwe,0.58,1.0,0.36,1.0,1.0,1.0,1.0,1.0,1.0,0.5,0.43,0.14,0.5,0.86,0.67,0.75,0.83,1.0,0.33,0.5,0.4,0.8,1.0,0.67,0.75,1.0,1.0,0.8,0.5,0.5,1.0,0.5,0.71,0.33,0.25,0.6,0.75
13806,-24.71,34.74,Chopi,0.75,0.12,0.09,1.0,1.0,1.0,1.0,1.0,1.0,0.25,0.43,0.14,0.5,0.0,1.0,0.75,0.67,1.0,0.0,0.75,0.4,0.0,1.0,0.83,0.5,1.0,1.0,0.8,1.0,0.25,1.0,0.75,0.71,0.5,0.5,0.2,0.75
13850,68.73,177.49,Chaunsky Chuckchi,0.08,0.0,0.0,0.25,0.0,0.0,0.0,0.0,0.0,0.75,0.86,0.0,0.0,0.0,0.67,0.92,0.67,1.0,0.0,0.25,0.6,0.0,0.75,0.67,0.5,0.4,1.0,0.8,0.5,0.75,0.33,0.75,0.43,0.33,0.5,0.6,0.25
13883,53.69,54.27,Chuvash,0.42,0.0,0.0,1.0,0.75,0.75,0.0,0.0,0.0,0.25,0.86,0.14,0.0,0.0,0.67,0.42,0.67,0.6,0.0,0.75,0.4,0.4,1.0,0.83,0.75,1.0,1.0,0.8,0.5,0.25,1.0,0.5,0.86,0.83,0.75,0.6,0.25
13894,47.31,24.75,Cluj,0.08,0.0,0.0,0.25,0.0,0.0,0.0,0.0,0.0,0.0,0.86,0.0,0.0,0.0,0.67,0.42,0.33,0.4,0.67,0.5,0.4,0.0,0.5,0.17,0.5,0.0,1.0,0.4,0.5,0.0,0.33,0.5,0.86,0.83,1.0,0.6,0.5
13971,47.31,24.75,Afro-Ecuadorian,0.92,1.0,0.27,1.0,0.75,0.75,1.0,0.75,1.0,0.75,0.43,1.0,0.5,0.86,0.67,0.5,0.67,0.9,0.67,0.5,0.6,0.8,1.0,0.67,0.5,1.0,1.0,1.0,1.0,0.75,1.0,0.5,0.71,0.33,0.5,0.6,0.75
13982,11.24,-74.21,Costeño,0.42,0.12,0.27,1.0,0.5,0.75,1.0,0.5,1.0,0.0,0.43,0.14,0.5,0.71,0.67,0.42,0.67,0.0,0.33,0.5,0.6,0.6,1.0,0.67,0.5,1.0,1.0,1.0,1.0,0.0,1.0,0.5,0.43,0.5,0.5,0.6,0.5
13993,34.6,-98.39,Nʉmʉnʉʉ,0.58,0.12,0.09,0.5,0.5,0.75,0.25,0.0,0.0,0.5,0.86,0.14,0.17,0.0,0.33,0.17,0.33,0.0,0.0,0.75,0.6,0.0,0.75,0.67,0.5,1.0,1.0,0.8,1.0,0.5,0.33,0.75,0.43,0.33,0.25,0.8,0.5
14004,-18.87,47.5,Comoros,0.58,0.75,0.27,0.5,0.5,0.5,0.5,0.5,0.75,0.25,0.43,0.14,0.5,0.57,0.67,0.42,0.33,0.0,0.0,0.5,0.2,0.0,0.25,0.33,0.5,0.4,1.0,0.8,0.5,0.25,1.0,0.5,0.14,0.0,0.5,0.6,0.5
14026,-18.87,47.5,Conibo,0.33,0.0,0.0,1.0,0.5,0.75,0.0,0.0,0.0,0.75,0.86,0.14,0.0,0.0,1.0,0.83,0.33,1.0,0.33,0.75,0.6,0.0,0.75,0.33,0.25,1.0,1.0,0.8,1.0,0.75,1.0,0.5,0.43,0.33,0.5,0.2,0.5
14037,-18.87,47.5,Cook Islands Maori,0.42,0.0,0.0,1.0,1.0,1.0,1.0,0.0,0.0,0.25,0.86,0.14,0.0,0.0,0.67,0.17,0.67,0.0,0.0,1.0,0.4,0.6,1.0,0.83,0.75,1.0,1.0,1.0,1.0,0.25,1.0,0.5,0.71,0.5,0.75,0.6,0.25
14070,68.83,-101.5,Inuinnait,0.08,0.0,0.0,0.25,0.0,0.0,0.0,0.0,0.0,0.75,0.86,0.0,0.0,0.0,0.67,0.42,0.33,0.6,0.67,0.5,0.6,0.0,0.75,0.33,0.5,0.4,1.0,0.8,0.5,0.75,1.0,0.5,0.43,0.33,0.5,0.8,0.75
14081,22.03,-104.93,Cora,0.08,0.12,0.09,0.25,0.0,0.0,0.25,0.0,0.0,0.5,0.86,0.0,0.5,0.0,0.67,0.42,0.33,0.3,0.0,0.5,0.4,0.0,0.75,0.83,0.5,1.0,1.0,0.8,0.5,0.5,1.0,0.5,0.43,0.33,0.5,0.6,0.5
14103,42.36,9.26,Haute Corse,0.08,0.0,0.0,0.25,0.0,0.0,0.0,0.0,0.0,0.0,1.0,0.0,0.0,0.0,0.0,0.33,0.17,0.3,0.0,0.5,0.4,0.0,0.25,0.17,0.75,0.0,1.0,0.8,0.5,0.0,1.0,0.5,0.14,0.33,0.5,0.2,0.25
14125,53.45,-108.91,Nehiyaw (Plains Cree),0.08,0.62,0.09,0.5,0.0,0.0,0.25,0.0,0.0,0.75,0.86,0.14,0.5,0.0,0.33,0.42,0.33,0.6,0.0,0.75,0.6,0.0,0.5,0.67,0.75,1.0,1.0,0.8,0.5,0.75,0.0,0.75,0.14,0.33,0.25,0.0,0.75
14136,38.93,-95.23,Mvskoke,0.58,0.12,0.27,0.5,0.75,0.75,0.5,0.75,0.75,0.75,0.86,0.14,0.17,0.14,0.67,0.42,0.67,1.0,0.33,0.5,0.6,0.0,0.75,0.67,0.5,1.0,1.0,0.8,0.5,0.75,0.33,0.75,0.71,0.33,0.25,0.2,0.5
14147,35.27,24.28,Crete,0.08,0.0,0.0,0.25,0.0,0.0,0.0,0.0,0.0,0.5,1.0,0.0,0.0,0.0,0.67,0.25,0.33,0.6,0.33,0.5,0.2,0.0,0.0,0.17,0.5,0.0,1.0,0.8,0.5,0.5,1.0,0.5,0.43,0.33,0.25,0.6,0.25
14158,44.22,17.64,N Croatia,0.58,0.0,0.0,1.0,1.0,0.75,0.0,0.0,0.0,0.5,1.0,0.43,0.0,0.0,0.67,0.25,0.0,0.6,0.0,0.25,0.2,0.8,0.25,0.17,1.0,0.0,1.0,0.0,0.0,0.5,0.0,0.75,0.86,1.0,1.0,0.6,0.5
14180,23.1,-82.24,Afro-Cuban,0.75,1.0,0.82,1.0,1.0,1.0,1.0,1.0,1.0,0.0,0.43,0.14,0.5,0.86,0.67,0.0,0.33,0.0,0.83,0.5,0.4,0.6,0.75,0.67,0.75,0.4,1.0,0.8,1.0,0.0,1.0,0.5,0.71,1.0,0.75,0.6,0.5
14191,23.11,-82.36,Havana Folk,0.25,0.12,0.27,0.25,0.0,0.0,1.0,0.75,0.75,0.0,0.86,0.0,0.83,0.57,1.0,0.08,0.33,0.0,0.0,0.75,0.4,0.0,0.75,0.33,0.75,0.2,1.0,0.8,0.5,0.0,1.0,0.5,0.43,0.5,0.75,0.2,0.25
14224,-3.69,-61.46,Kulina,0.5,0.0,0.0,1.0,0.75,0.75,0.0,0.0,0.0,1.0,0.86,0.43,0.0,0.0,0.67,0.67,0.67,1.0,0.0,0.75,0.4,0.6,1.0,0.83,0.5,0.2,1.0,0.4,0.0,1.0,1.0,0.75,0.71,0.5,0.75,0.6,0.75
14235,9.57,-78.82,Guna,0.08,0.0,0.0,0.25,0.0,0.0,0.0,0.0,0.0,0.5,0.86,0.0,0.0,0.0,0.67,0.75,0.0,1.0,0.0,0.25,0.4,0.0,0.75,0.67,0.5,1.0,1.0,0.8,1.0,0.5,1.0,0.5,0.14,0.0,0.25,0.6,0.5
14328,22.0,100.79,Tai Lue,0.08,0.0,0.0,0.25,0.0,0.0,0.0,0.0,0.0,0.25,0.86,0.0,0.0,0.0,0.67,0.75,0.17,0.9,0.0,0.75,0.4,0.0,0.75,0.67,0.5,0.2,1.0,0.8,0.5,0.25,0.33,0.75,0.0,0.33,0.25,0.6,0.25
14378,-4.02,138.89,Dani,1.0,0.0,0.0,1.0,0.75,1.0,0.0,0.0,0.0,0.5,1.0,0.14,0.0,0.0,0.67,0.83,0.83,1.0,0.0,0.25,0.4,0.0,1.0,0.33,0.25,1.0,1.0,1.0,0.5,0.5,1.0,0.5,0.71,0.83,0.75,0.8,0.75
14422,36.79,-95.93,Lenape,0.42,0.12,0.09,0.5,0.25,0.5,0.5,0.75,1.0,0.75,0.86,0.0,0.0,0.0,0.67,0.83,0.0,0.9,0.67,0.5,0.6,0.0,0.5,0.67,0.5,1.0,1.0,0.8,1.0,0.75,1.0,0.75,0.71,0.83,0.75,0.2,0.5
14444,56.65,9.97,Danish,0.08,0.12,0.09,0.25,0.0,0.0,1.0,0.0,0.0,0.0,0.43,0.0,0.5,0.0,0.67,0.42,0.33,0.2,0.67,0.5,0.6,0.0,1.0,0.67,0.5,1.0,1.0,1.0,1.0,0.0,1.0,0.5,0.71,0.83,0.75,0.6,0.25
14466,37.87,32.49,Dervish,0.5,0.0,0.0,0.5,0.5,0.0,0.0,0.0,0.0,0.0,1.0,0.0,0.0,0.0,0.0,0.83,0.17,1.0,0.0,0.25,0.2,0.0,0.5,1.0,0.75,0.0,1.0,0.4,0.5,0.0,0.33,0.5,0.14,0.0,0.25,0.6,0.25
14477,18.75,81.78,Dhurwa Gond,0.33,0.0,0.0,0.75,0.75,0.75,0.0,0.0,0.0,0.5,0.86,0.14,0.0,0.0,0.67,0.92,0.67,0.6,0.33,0.5,0.2,0.0,0.75,0.67,0.75,0.4,1.0,0.4,0.5,0.5,1.0,0.5,0.86,0.83,0.75,0.6,0.75
14521,32.71,-117.16,Kumeyaay,0.42,0.88,0.09,0.5,0.5,0.5,0.25,0.0,0.0,0.5,0.43,0.14,0.5,0.0,0.67,0.33,0.33,0.3,0.33,0.5,0.4,0.0,1.0,0.67,0.5,1.0,0.8,0.8,0.5,0.5,1.0,1.0,0.71,0.33,0.25,0.8,0.75
14562,48.34,8.5,Baden-Württemberg,0.42,0.0,0.0,1.0,0.75,0.75,0.0,0.0,0.0,0.25,0.43,0.14,0.0,0.0,0.0,0.17,0.33,1.0,0.67,0.75,0.6,0.0,1.0,0.33,0.5,1.0,1.0,1.0,1.0,0.25,1.0,0.5,0.71,0.83,0.5,0.6,0.5
14576,7.78,33.0,Dinka,0.08,0.0,0.0,0.5,0.0,0.0,0.0,0.0,0.0,0.75,0.86,0.14,0.0,0.0,0.67,0.0,0.67,1.0,0.33,0.75,0.6,0.0,1.0,0.67,0.75,1.0,1.0,0.8,1.0,0.75,1.0,0.5,0.71,0.5,0.5,0.6,0.25
14598,12.56,-16.26,Jola-Fonyi,0.75,0.0,0.0,1.0,0.75,1.0,0.0,0.0,0.0,0.5,0.86,0.14,0.0,0.0,0.67,0.92,0.33,0.2,0.33,0.75,0.4,0.4,0.75,0.67,0.75,1.0,1.0,0.8,0.5,0.5,1.0,0.5,0.86,0.83,0.75,0.6,0.75
14653,43.53,28.53,Dobrudzha,0.08,0.0,0.0,0.25,0.0,0.0,0.0,0.0,0.0,0.0,1.0,0.0,0.0,0.0,0.0,0.33,0.0,0.4,0.0,0.5,0.4,0.0,0.25,0.17,0.5,0.0,1.0,0.8,0.0,0.0,0.33,0.75,0.86,0.83,1.0,0.2,0.25
14664,-9.64,150.69,Dobu,0.42,0.0,0.0,0.5,0.75,0.75,0.0,0.0,0.0,0.5,0.86,0.14,0.0,0.0,0.67,0.92,0.67,0.9,0.0,0.5,0.6,0.0,1.0,0.67,0.5,1.0,0.0,0.8,0.5,0.5,1.0,0.75,0.43,0.5,0.5,0.6,0.75
14675,14.42,-3.32,Dogon,0.58,0.12,0.36,0.5,0.75,0.75,0.5,1.0,1.0,0.75,0.86,0.14,0.5,0.57,0.67,0.08,0.33,0.0,0.0,0.5,0.4,0.0,1.0,0.67,0.5,1.0,1.0,0.8,1.0,0.75,1.0,0.5,0.71,0.33,0.25,0.2,0.25
14694,6.3,36.56,Basketo,1.0,0.25,0.91,1.0,0.75,1.0,1.0,1.0,0.75,0.75,0.43,0.71,0.17,0.57,0.67,0.75,0.83,1.0,0.67,0.5,1.0,1.0,1.0,0.83,0.75,1.0,1.0,0.8,1.0,0.75,1.0,0.5,0.71,0.5,0.5,0.6,0.75
14697,15.36,-61.39,Dominica,0.58,0.0,0.0,0.5,0.5,0.75,0.0,0.0,0.0,0.75,0.43,0.14,0.0,0.0,0.67,0.42,0.67,1.0,0.0,0.5,0.4,0.0,1.0,0.67,0.5,1.0,1.0,1.0,1.0,0.75,1.0,0.5,0.71,0.33,0.25,0.6,0.5
14702,26.64,106.63,Dong,0.92,0.0,0.0,1.0,0.5,0.75,0.0,0.0,0.0,0.5,0.86,0.14,0.0,0.0,0.67,0.17,0.17,0.0,0.67,0.5,0.4,0.2,0.75,0.33,0.75,0.2,1.0,0.8,0.5,0.5,0.33,0.75,0.14,0.33,0.75,0.6,0.25
14708,24.61,80.48,Dorla,0.33,0.0,0.0,0.75,0.75,0.5,0.0,0.0,0.0,0.5,0.86,0.14,0.0,0.0,0.67,0.92,0.33,0.9,0.0,0.5,0.4,0.0,0.75,0.67,0.5,0.4,1.0,0.4,0.5,0.5,1.0,0.5,0.71,0.5,0.5,0.6,0.5
14752,42.06,20.65,Dragas,0.42,0.25,0.36,1.0,0.5,1.0,0.5,0.0,0.0,0.5,0.43,0.14,0.5,0.57,0.67,0.42,0.67,0.6,0.33,0.5,0.4,0.8,0.75,0.67,0.75,1.0,1.0,0.8,0.5,0.5,0.33,0.5,0.86,0.5,0.75,0.2,0.5
14774,6.25,37.0,Dorze,0.75,0.0,0.0,1.0,0.75,0.75,0.0,0.0,0.0,0.75,0.43,1.0,0.0,0.0,0.67,0.75,0.83,1.0,0.67,0.75,1.0,1.0,1.0,0.83,0.75,0.4,0.0,0.8,0.5,0.75,0.0,0.5,0.71,0.5,0.0,0.2,0.75
14785,31.8,35.1,Al-Muwaḥḥidūn,0.75,0.75,0.45,0.5,0.25,0.75,0.75,0.25,1.0,0.0,0.43,0.14,1.0,0.71,0.67,0.83,0.33,1.0,0.0,0.25,0.2,0.0,0.5,0.67,0.75,1.0,1.0,0.8,0.5,0.5,0.33,0.5,0.14,0.0,0.5,0.2,0.25
14801,-4.16,152.46,Duke of York,0.42,0.25,0.36,0.5,0.75,0.75,0.5,0.75,0.75,0.75,0.86,0.14,0.83,0.29,0.67,0.75,0.17,1.0,0.0,0.75,0.4,0.0,0.75,0.83,0.75,0.4,0.8,0.8,0.5,0.75,1.0,0.75,0.71,0.5,0.75,0.6,0.5
14807,-0.76,12.84,Adouma,0.83,0.0,0.0,1.0,1.0,1.0,0.0,0.0,0.0,0.5,0.86,0.14,0.0,0.0,0.67,0.75,0.33,0.9,0.83,0.25,0.4,0.6,0.75,0.67,0.75,0.2,1.0,0.4,0.5,0.5,0.33,0.5,0.86,0.5,0.5,0.6,0.5
14818,54.89,-1.57,Durham Pitmen,0.42,0.0,0.0,0.5,0.5,0.75,0.0,0.0,0.0,0.25,0.43,0.14,0.0,0.0,0.67,0.42,0.67,0.4,0.67,0.5,0.6,0.0,1.0,0.67,0.5,1.0,1.0,1.0,1.0,0.25,1.0,0.75,0.71,0.83,0.5,0.6,0.25
14840,0.96,114.55,Dusun,0.08,0.0,0.0,0.25,0.0,0.0,0.0,0.0,0.0,0.0,0.43,0.0,0.0,0.0,1.0,0.83,0.17,1.0,0.0,0.75,0.6,0.0,0.75,0.17,0.25,0.2,1.0,0.4,0.5,0.0,1.0,0.75,0.71,0.5,0.5,0.8,0.75
14851,51.92,4.47,Nederlanders,0.42,0.0,0.0,0.5,0.75,0.75,0.0,0.0,0.0,0.25,0.43,0.14,0.0,0.0,0.67,0.42,0.33,0.4,0.0,0.5,0.4,0.0,1.0,0.67,0.5,1.0,1.0,1.0,1.0,0.25,1.0,0.5,0.71,0.83,0.75,0.6,0.5
14862,-2.07,110.87,Dayak,0.5,0.0,0.0,0.75,0.75,0.25,0.0,0.0,0.0,0.25,1.0,0.43,0.0,0.0,0.0,0.75,0.0,1.0,0.0,0.25,0.4,0.0,0.25,0.0,0.25,0.0,1.0,0.4,0.0,0.25,1.0,0.75,0.43,0.5,0.5,0.8,0.75
14994,30.9,31.11,Egypt,0.08,0.62,0.27,0.25,0.5,0.0,1.0,0.5,0.0,0.25,1.0,0.14,0.5,0.0,0.67,0.08,0.67,0.0,0.33,0.5,0.2,0.0,0.25,0.67,0.5,0.0,1.0,0.8,0.5,0.25,0.33,0.25,0.14,0.33,0.5,0.2,0.25
14999,-4.41,140.01,Eipo,1.0,0.0,0.0,0.75,0.75,0.25,0.0,0.0,0.0,0.75,0.86,1.0,0.0,0.0,0.67,0.83,0.83,0.9,0.0,0.25,0.4,1.0,1.0,0.83,0.5,0.4,0.0,0.8,1.0,0.75,1.0,0.5,0.43,0.33,0.5,0.8,0.75
15027,-0.74,18.11,Ekonda Mongo,0.75,0.12,0.36,1.0,1.0,1.0,1.0,0.0,1.0,0.75,0.86,0.14,0.5,0.0,0.67,0.75,0.67,1.0,0.0,0.75,0.6,0.6,1.0,0.83,0.5,1.0,1.0,0.8,1.0,0.75,1.0,0.5,0.86,0.83,0.75,0.2,0.5
15093,51.45,-2.58,Bristol,0.58,0.12,0.09,0.5,0.25,0.75,1.0,0.0,0.0,0.0,0.43,0.14,0.5,0.0,0.67,0.42,0.33,0.6,0.67,0.5,0.4,0.0,1.0,0.67,0.75,1.0,1.0,0.8,1.0,0.0,1.0,0.5,0.43,1.0,0.5,0.6,0.5
15098,52.74,1.53,Norfolk,0.08,0.0,0.0,0.25,0.0,0.0,0.0,0.0,0.0,0.0,0.43,0.0,0.0,0.0,0.67,0.42,0.33,0.4,0.67,0.5,0.4,0.0,0.5,0.67,0.5,0.4,1.0,0.8,1.0,0.0,1.0,0.5,0.43,0.33,0.25,0.6,0.5
15148,65.62,171.69,Anadysky Chukchi,0.08,0.12,0.09,0.25,0.0,0.0,0.25,0.0,0.0,0.75,0.57,0.0,0.83,0.0,0.67,0.33,0.33,0.2,0.33,0.5,0.6,0.0,1.0,0.67,0.5,1.0,1.0,1.0,1.0,0.75,1.0,0.5,0.43,0.33,0.25,0.8,0.75
15170,-15.3,166.91,Espiritu Santo,0.58,0.75,0.36,1.0,0.75,1.0,0.5,1.0,0.75,0.75,0.86,0.14,0.83,0.14,0.67,0.42,0.67,0.2,0.33,0.5,0.6,0.4,1.0,0.83,0.75,0.4,1.0,1.0,1.0,0.75,1.0,0.75,0.71,0.83,0.5,0.6,0.75
15181,58.36,25.58,Estonian,0.08,0.0,0.0,0.25,0.0,0.0,0.0,0.0,0.0,0.5,0.86,0.0,0.0,0.0,0.67,0.92,0.33,1.0,0.0,0.25,0.4,0.0,0.75,0.67,0.5,0.4,1.0,1.0,1.0,0.5,0.33,0.75,0.71,1.0,0.75,0.2,0.25
15225,62.01,-6.77,Faroe Islands,0.42,0.25,0.36,0.5,0.5,0.75,0.5,1.0,0.75,0.25,0.43,0.14,0.5,0.14,0.67,0.42,0.67,0.2,0.67,0.5,0.4,0.0,1.0,0.67,0.75,1.0,1.0,1.0,1.0,0.25,1.0,0.75,0.71,0.83,0.5,0.0,0.5
15247,-3.09,133.01,Fakfak,0.42,0.0,0.0,0.5,1.0,0.75,0.0,0.0,0.0,0.0,1.0,0.14,0.0,0.0,0.67,0.75,0.17,1.0,0.33,0.75,0.6,0.0,0.5,0.17,0.5,0.0,1.0,0.0,0.0,0.0,1.0,1.0,0.86,1.0,1.0,0.8,1.0
15280,5.13,-1.27,Fante,0.75,0.12,0.91,1.0,1.0,1.0,1.0,1.0,1.0,0.75,0.57,0.14,0.5,0.86,0.67,0.08,0.67,0.0,0.67,0.5,0.6,0.4,1.0,0.83,0.5,1.0,1.0,1.0,1.0,0.75,1.0,0.5,0.71,1.0,1.0,0.6,0.75
15282,-8.94,160.9,Fataleka,0.33,0.62,0.0,1.0,0.75,0.75,0.75,1.0,0.25,0.75,0.43,0.14,0.5,0.29,0.67,0.92,0.17,1.0,0.67,0.75,1.0,1.0,1.0,0.33,0.25,0.4,0.8,0.8,0.5,0.75,0.33,1.0,1.0,0.33,0.5,1.0,1.0
15302,-18.89,178.4,Fiji,0.58,0.25,0.27,1.0,1.0,1.0,0.5,0.75,0.75,0.5,0.43,0.14,0.5,0.57,0.67,0.83,0.67,1.0,0.83,0.75,0.4,0.8,1.0,0.67,0.5,1.0,1.0,0.8,1.0,0.5,1.0,0.75,0.86,0.83,0.75,0.6,0.5
15313,64.12,29.52,Finnish,0.08,0.0,0.0,0.25,0.0,0.0,0.0,0.0,0.0,0.5,0.43,0.0,0.0,0.0,0.67,0.42,0.67,0.6,0.0,0.5,0.6,0.0,1.0,0.67,0.75,1.0,1.0,1.0,1.0,0.5,1.0,0.75,0.86,0.5,0.5,0.6,0.25
15335,-6.59,147.85,Kâte,0.42,0.75,0.36,0.5,0.5,0.75,0.5,1.0,0.5,0.25,0.86,0.14,0.5,0.14,0.33,0.08,0.17,0.0,0.0,0.5,0.6,0.0,1.0,0.33,0.5,0.4,1.0,0.8,1.0,0.25,1.0,0.5,0.14,0.0,0.25,0.2,0.75
15368,47.5,-114.33,Bitterroot Salish,0.33,0.0,0.0,0.5,0.5,0.5,0.0,0.0,0.0,0.75,0.86,0.14,0.17,0.0,0.33,0.17,0.67,0.0,0.0,0.5,0.6,0.0,1.0,0.67,0.75,1.0,1.0,0.8,1.0,0.75,0.0,0.75,0.14,0.0,0.25,0.2,0.75
15379,-8.65,121.07,Nage,0.58,0.0,0.0,1.0,0.75,1.0,0.0,0.0,0.0,0.0,0.86,0.14,0.0,0.0,0.67,0.0,0.67,0.0,1.0,0.75,0.4,0.2,1.0,0.67,0.5,1.0,1.0,1.0,1.0,0.0,1.0,0.75,0.71,1.0,1.0,0.8,0.25
15390,7.18,1.99,Fon,0.58,0.0,0.0,0.5,0.5,0.5,0.0,0.0,0.0,0.5,0.86,0.14,0.0,0.0,0.67,0.58,0.67,1.0,0.33,0.5,0.6,0.0,1.0,0.67,0.75,1.0,1.0,0.8,1.0,0.5,1.0,0.5,0.71,0.33,0.25,0.6,0.75
15401,-6.52,145.61,Fore,0.42,0.0,0.0,0.5,0.0,0.25,0.0,0.0,0.0,0.5,0.86,0.14,0.0,0.0,0.67,0.83,0.33,0.9,0.67,0.5,0.4,0.0,1.0,0.83,0.0,0.4,1.0,1.0,1.0,0.5,1.0,0.75,0.71,0.5,0.5,1.0,0.75
15412,-0.79,29.04,Forest Bira,1.0,0.88,0.91,1.0,0.5,1.0,1.0,0.75,1.0,0.5,0.43,1.0,0.83,0.86,0.67,0.83,0.83,1.0,0.0,0.5,0.6,1.0,1.0,0.83,0.75,1.0,1.0,0.8,0.0,0.5,1.0,0.5,1.0,0.5,0.25,0.2,0.5
15439,45.2,4.03,Auvergne,0.08,0.12,0.09,0.25,0.0,0.0,0.25,0.0,0.0,0.5,0.43,0.0,0.5,0.0,0.67,0.17,0.67,0.4,0.67,0.5,0.4,0.0,1.0,0.83,0.75,1.0,1.0,1.0,1.0,0.5,1.0,0.5,0.43,0.33,0.5,0.2,0.25
15445,47.0,2.0,Berry,0.08,0.0,0.0,0.25,0.0,0.0,0.0,0.0,0.0,0.0,0.86,0.0,0.0,0.0,0.67,0.42,0.67,0.3,0.67,0.5,0.4,0.0,0.75,0.67,0.5,1.0,1.0,1.0,1.0,0.0,0.33,0.5,0.71,0.5,0.75,0.6,0.25
15489,48.83,-64.48,French Canadians,0.08,0.0,0.0,0.25,0.0,0.0,0.0,0.0,0.0,0.0,0.86,0.0,0.0,0.0,0.67,0.42,0.67,0.6,0.67,0.5,0.4,0.0,1.0,0.33,0.5,1.0,1.0,0.8,1.0,0.0,1.0,0.5,0.43,0.33,0.5,0.6,0.5
15497,48.78,-0.68,Normandy,0.08,0.0,0.0,0.25,0.0,0.0,0.0,0.0,0.0,0.25,0.43,0.0,0.0,0.0,0.67,0.42,0.33,0.3,0.67,0.5,0.4,0.0,1.0,0.17,0.5,0.4,1.0,1.0,1.0,0.25,1.0,0.75,0.43,0.33,0.25,0.6,0.5
15500,43.31,-1.58,French Basques,0.08,0.0,0.0,0.25,0.0,0.0,0.0,0.0,0.0,1.0,0.43,0.0,0.0,0.0,0.67,0.33,0.33,0.2,0.0,0.25,0.4,0.0,1.0,0.33,0.25,1.0,1.0,1.0,1.0,1.0,1.0,0.5,0.86,1.0,1.0,0.8,0.5
15522,46.07,13.23,Friuli,0.42,0.0,0.0,1.0,0.75,0.75,0.0,0.0,0.0,0.0,0.43,0.14,0.0,0.0,0.67,0.42,0.67,0.4,0.83,1.0,0.4,0.8,1.0,0.67,0.5,0.4,1.0,0.8,1.0,0.0,1.0,0.75,0.71,0.83,0.5,0.6,0.25
15533,17.91,-62.85,St. Barthélemy,0.08,0.0,0.0,0.25,0.0,0.0,0.0,0.0,0.0,0.0,0.43,0.0,0.0,0.0,0.67,0.42,0.33,0.4,0.33,0.5,0.4,0.0,1.0,0.33,0.5,0.2,1.0,1.0,1.0,0.0,1.0,0.5,0.43,0.0,0.25,0.6,0.25
15544,13.8,8.98,Wodaabe,1.0,0.0,0.0,1.0,0.75,1.0,0.0,0.0,0.0,0.75,0.43,1.0,0.0,0.0,0.67,0.92,0.83,1.0,0.0,0.5,1.0,0.0,0.75,0.67,0.75,1.0,1.0,0.4,0.0,0.75,1.0,0.75,0.86,0.5,0.5,0.6,0.75
15566,12.89,23.47,Fur,0.75,0.12,0.09,0.75,0.25,0.25,0.25,0.0,0.0,0.5,0.43,0.43,0.5,0.0,1.0,0.83,0.67,1.0,0.33,0.75,0.4,0.0,0.5,0.83,0.75,0.4,1.0,0.4,1.0,0.5,1.0,0.75,0.43,0.33,0.25,0.2,0.75
15577,6.09,10.3,Fut,0.08,0.12,0.36,1.0,0.0,1.0,0.5,0.0,0.0,0.75,0.43,0.0,0.5,0.0,0.67,0.83,0.83,1.0,0.33,0.5,0.6,0.0,1.0,0.67,0.25,1.0,1.0,0.8,1.0,0.75,1.0,0.75,0.86,0.5,0.75,0.8,0.75
15610,-8.81,146.53,Fuyuge,0.08,0.0,0.0,0.25,0.0,0.0,0.0,0.0,0.0,0.5,1.0,0.0,0.0,0.0,0.33,0.33,0.17,0.7,0.33,0.75,0.6,0.0,0.5,0.17,0.25,0.0,1.0,0.0,0.5,0.5,1.0,0.0,0.86,0.5,1.0,0.8,0.5
15643,21.77,84.36,Gadaba,0.42,0.0,0.0,1.0,0.25,0.5,0.0,0.0,0.0,0.5,0.86,0.43,0.0,0.0,0.67,0.92,0.67,1.0,0.0,0.5,0.6,0.4,0.5,0.83,0.75,0.4,1.0,0.8,1.0,0.5,1.0,0.75,0.71,0.33,0.5,0.8,0.5
15676,42.94,-9.19,Galicia,0.42,0.0,0.0,0.5,0.75,0.75,0.0,0.0,0.0,0.25,0.86,0.14,0.0,0.0,0.0,0.42,0.33,0.2,0.33,0.5,0.4,0.0,0.75,0.67,0.75,1.0,1.0,0.8,1.0,0.25,1.0,0.5,0.71,0.83,0.75,0.6,0.25
15687,9.31,42.19,Kottu,0.75,0.0,0.0,0.5,0.75,1.0,0.5,0.0,0.0,0.5,0.43,0.14,0.0,0.0,0.67,0.75,0.67,1.0,0.0,0.5,0.6,0.0,0.5,0.67,0.75,1.0,1.0,0.4,0.5,0.5,1.0,0.25,0.43,0.33,0.5,0.6,0.75
15703,6.25,37.0,Gamo,1.0,1.0,0.82,1.0,0.75,0.75,1.0,1.0,0.75,1.0,0.43,0.71,0.5,0.0,0.67,0.75,0.83,1.0,0.67,0.5,0.6,1.0,1.0,0.83,0.75,1.0,1.0,1.0,1.0,1.0,1.0,0.5,0.71,0.5,0.5,0.2,0.5
15709,24.68,90.09,A·chik Mande,0.08,0.25,0.91,0.25,0.0,0.0,1.0,0.0,0.75,0.25,1.0,0.0,0.5,0.0,0.67,0.5,0.67,0.9,0.0,0.5,0.4,0.0,1.0,0.67,0.25,0.4,0.8,0.4,0.5,0.25,1.0,0.5,0.14,0.33,0.25,0.6,0.25
15720,30.21,78.92,Garhwal,0.58,0.12,0.09,0.5,0.5,0.5,0.25,0.0,0.0,0.5,0.57,0.14,0.67,0.0,0.67,0.92,0.67,1.0,0.83,0.5,0.2,0.0,0.5,0.67,0.5,0.4,0.8,0.8,0.5,0.5,1.0,0.5,0.71,0.33,0.25,0.6,0.0
15725,7.54,40.63,Garre,0.75,0.25,0.27,0.5,0.75,0.75,0.5,1.0,0.75,0.75,0.43,0.14,0.5,0.71,0.67,0.75,0.83,1.0,0.0,0.5,0.6,0.0,1.0,0.67,0.75,0.4,0.8,0.8,1.0,0.75,1.0,0.75,0.71,0.5,0.5,0.8,1.0
15731,22.25,71.19,Saurashtra,0.67,0.38,0.36,0.5,0.5,0.5,0.5,0.25,0.25,0.25,0.57,0.14,0.67,0.14,0.0,0.08,0.33,0.0,0.0,0.5,0.4,0.0,0.5,0.67,0.5,0.2,1.0,0.4,0.5,0.25,1.0,0.5,0.0,0.5,0.5,0.6,0.5
15780,22.81,108.36,Gelao,0.67,0.0,0.0,1.0,0.5,0.75,0.0,0.0,0.0,0.25,0.86,0.14,0.0,0.0,0.67,0.33,0.33,0.6,0.67,0.5,0.4,0.4,0.75,0.83,0.75,0.2,1.0,0.8,0.5,0.25,1.0,0.5,0.14,0.5,0.75,0.2,0.5
15797,41.69,44.8,Kakheti,0.75,0.0,0.0,1.0,0.75,1.0,0.0,0.0,0.0,0.25,1.0,0.57,0.0,0.0,0.67,0.0,0.33,0.6,0.67,0.75,0.4,0.0,0.5,0.17,0.75,0.0,1.0,0.8,0.5,0.25,1.0,0.75,0.86,0.33,0.25,0.2,0.5
15798,39.78,30.52,Adjari,0.75,0.0,0.0,1.0,0.75,1.0,0.0,0.0,0.0,0.75,0.43,1.0,0.0,0.0,0.67,0.75,0.33,1.0,0.33,1.0,0.4,1.0,1.0,0.83,1.0,1.0,0.0,0.8,1.0,0.75,1.0,1.0,0.71,0.5,0.5,0.0,1.0
15819,48.22,16.35,Bavaria Munich High Germany,0.08,0.88,0.73,0.25,0.0,0.0,1.0,0.0,0.75,0.5,0.43,0.0,0.5,1.0,0.67,0.0,0.33,0.0,0.67,0.75,0.4,0.0,0.5,0.83,0.5,1.0,0.8,1.0,0.5,0.5,0.33,0.25,0.71,1.0,1.0,0.6,1.0
15830,54.29,10.88,Schleswig-Holstein,0.42,0.12,0.0,0.5,0.75,0.75,0.0,0.0,0.0,0.5,0.43,0.14,0.5,0.0,0.67,0.42,0.33,0.6,0.67,0.75,0.4,0.0,1.0,0.67,0.5,1.0,1.0,1.0,1.0,0.5,1.0,0.75,0.71,0.83,0.5,0.6,0.5
15841,51.88,6.91,Rhine-Westphalia,0.25,0.0,0.0,0.25,0.0,0.0,0.0,0.0,0.0,0.75,0.86,0.0,0.0,0.0,0.67,0.0,0.17,0.0,0.83,0.5,0.4,0.0,1.0,0.33,0.25,1.0,1.0,1.0,1.0,0.75,1.0,0.5,1.0,1.0,1.0,0.6,0.5
15852,51.33,12.37,Urban E Germans,1.0,1.0,0.0,1.0,0.5,0.75,1.0,0.0,0.75,0.0,0.43,1.0,0.5,1.0,0.67,0.0,0.17,0.0,0.67,0.75,0.4,1.0,0.5,0.67,0.75,0.4,0.8,1.0,0.0,0.0,1.0,0.5,0.43,0.83,0.5,0.2,0.5
15868,6.66,-1.61,Ghana: Urban,0.75,,1.0,1.0,,,1.0,,1.0,0.25,0.43,0.14,0.5,0.86,1.0,0.33,0.67,0.2,0.67,,0.4,0.6,1.0,0.83,0.5,1.0,1.0,0.8,1.0,0.25,1.0,0.5,0.71,0.33,0.75,0.2,0.5
15871,6.99,35.58,Bench-Maji,1.0,0.0,0.0,1.0,1.0,1.0,0.0,0.0,0.0,0.75,0.43,1.0,0.0,0.0,0.67,1.0,0.83,1.0,0.0,0.5,1.0,1.0,1.0,0.83,0.25,1.0,1.0,1.0,1.0,0.75,1.0,0.75,0.71,0.33,0.25,0.8,0.5
15890,6.25,37.0,Gidole,0.75,0.0,0.0,1.0,0.75,0.75,0.0,0.0,0.0,0.75,0.86,1.0,0.0,0.0,0.67,0.92,0.83,0.9,0.33,0.5,0.4,0.8,1.0,0.67,0.75,0.4,1.0,0.4,0.0,0.75,0.33,0.5,0.43,0.5,0.75,0.2,0.75
15896,-8.1,156.83,I-Kiribati,0.33,0.0,0.0,1.0,0.5,1.0,0.0,0.0,0.0,0.25,0.86,0.14,0.0,0.0,0.67,0.0,0.33,0.0,0.67,0.5,0.4,0.0,1.0,0.67,0.5,0.4,1.0,1.0,1.0,0.25,1.0,0.5,0.43,0.33,0.25,0.6,0.25
15907,43.22,142.86,Nivkh,0.08,0.0,0.0,0.25,0.0,0.0,0.0,0.0,0.0,0.25,0.43,0.0,0.0,0.0,0.67,0.83,0.83,1.0,0.67,0.5,0.4,0.0,0.75,0.33,0.25,0.0,1.0,0.8,0.5,0.25,0.0,0.5,0.14,0.33,0.25,0.6,0.5
15929,6.41,-10.75,Dan,1.0,0.88,0.91,1.0,1.0,0.75,1.0,0.75,1.0,0.75,0.43,1.0,0.5,0.86,0.67,1.0,0.83,1.0,1.0,1.0,1.0,1.0,1.0,0.67,0.75,1.0,1.0,0.8,1.0,0.75,1.0,1.0,1.0,0.5,0.75,0.2,0.75
15973,12.0,-71.5,Wayuu,0.08,0.0,0.0,0.25,0.0,0.0,0.0,0.0,0.0,0.5,0.86,0.0,0.0,0.0,0.67,0.83,0.67,1.0,0.0,0.5,0.4,0.0,1.0,0.83,0.25,0.4,1.0,0.8,1.0,0.5,0.33,0.5,0.43,0.0,0.5,0.8,0.75
15978,-9.07,143.2,Gizra,0.42,0.0,0.0,1.0,0.75,0.75,0.0,0.0,0.0,0.75,0.86,0.14,0.0,0.0,0.67,0.92,0.33,1.0,0.0,0.5,0.6,1.0,1.0,0.83,0.25,1.0,0.0,0.8,1.0,0.75,1.0,0.5,0.71,0.5,0.5,0.8,0.25
15984,-8.86,143.4,Kerewo,0.33,0.0,0.0,1.0,0.75,0.5,0.0,0.0,0.0,0.25,1.0,0.43,0.0,0.0,1.0,0.83,0.33,0.9,0.0,0.25,0.2,0.2,0.5,0.17,0.25,0.0,1.0,0.8,0.5,0.25,1.0,1.0,0.86,0.33,0.25,1.0,0.75
15995,-6.16,35.75,Gogo,0.83,0.12,0.36,1.0,1.0,1.0,1.0,1.0,1.0,0.75,0.57,0.14,0.67,0.0,0.67,0.83,0.67,1.0,0.0,0.5,0.6,0.6,1.0,0.33,0.5,1.0,1.0,1.0,1.0,0.75,1.0,0.5,0.86,1.0,1.0,0.8,0.75
16028,-6.16,35.75,Maria Gond,0.33,0.0,0.0,0.5,0.5,0.75,0.0,0.0,0.0,0.75,0.43,0.14,0.0,0.0,0.67,0.42,0.67,0.9,0.33,0.75,0.4,0.0,1.0,0.83,0.5,1.0,0.0,1.0,0.5,0.75,1.0,0.5,0.43,0.5,0.5,0.6,0.75
16039,23.7,86.94,Kanyapur,0.08,0.75,0.27,0.25,0.25,0.0,0.5,0.5,0.75,0.0,0.86,0.0,0.5,0.57,0.67,0.0,0.67,1.0,0.0,0.75,0.2,0.0,0.0,0.17,0.75,0.0,1.0,0.4,0.5,0.0,1.0,0.5,0.14,0.0,0.5,0.8,0.25
16083,39.57,20.76,Greek Epirus,0.08,0.62,0.45,0.25,0.0,0.0,0.75,0.5,0.75,0.0,1.0,0.0,1.0,0.29,0.67,0.25,0.0,0.0,0.0,0.5,0.2,0.0,0.0,0.17,0.5,0.0,0.0,0.0,0.0,0.0,1.0,0.75,0.14,0.33,0.25,0.6,0.25
16094,37.34,22.35,Kalamata,0.08,0.62,0.45,0.25,0.0,0.0,0.75,0.5,0.75,0.0,0.43,0.0,1.0,0.57,0.67,0.75,0.0,1.0,0.0,0.75,0.2,0.0,0.0,0.67,0.5,0.4,0.8,0.0,0.0,0.0,1.0,0.75,0.14,0.33,0.5,0.6,0.25
16100,42.18,2.91,Pontos,0.08,0.62,0.09,0.25,0.0,0.0,1.0,0.0,0.0,0.0,0.57,0.0,0.67,0.0,0.67,0.92,0.33,0.9,0.33,0.5,0.2,0.0,0.5,0.67,0.5,1.0,1.0,0.8,0.5,0.0,1.0,0.75,0.43,0.33,0.75,0.6,0.25
16127,65.61,-37.63,Tunumiit,0.08,0.62,0.09,0.75,0.25,0.25,0.25,0.0,0.0,0.75,1.0,0.14,0.67,0.0,0.67,0.75,0.33,0.9,0.0,0.25,0.6,0.0,1.0,0.33,0.5,0.0,0.4,0.8,1.0,0.75,1.0,0.75,0.71,0.33,0.25,0.6,0.75
16138,12.22,-61.61,Grenada,0.75,0.0,1.0,1.0,0.75,1.0,1.0,1.0,1.0,0.75,0.43,0.14,0.5,0.0,0.67,0.83,0.83,1.0,0.0,0.5,0.6,0.0,1.0,0.67,0.5,1.0,1.0,1.0,1.0,0.75,1.0,0.5,0.71,0.5,0.5,0.6,0.5
16170,-9.57,160.14,Guale,0.92,0.0,0.0,1.0,0.75,0.75,0.0,0.0,0.0,1.0,1.0,1.0,0.0,0.0,0.67,0.92,0.67,0.6,0.83,0.75,0.4,1.0,1.0,0.33,0.5,0.4,0.0,0.8,0.0,1.0,0.33,0.75,0.71,0.83,0.5,0.8,1.0
16182,16.31,-61.43,Guadeloupe,0.75,0.88,1.0,0.5,0.75,1.0,1.0,1.0,1.0,0.75,0.43,0.14,0.5,0.86,0.67,0.75,0.83,0.9,0.67,0.5,0.4,0.0,1.0,0.67,0.5,1.0,1.0,1.0,1.0,0.75,1.0,0.5,0.71,0.5,0.5,0.6,0.5
16193,8.74,-66.23,Guahibo,0.33,0.0,0.0,0.75,0.5,0.25,0.0,0.0,0.0,0.75,0.57,0.43,0.0,0.0,0.67,0.92,0.67,1.0,0.0,0.5,0.6,0.0,0.75,0.67,0.5,0.4,1.0,0.8,1.0,0.75,1.0,0.75,0.43,0.33,0.75,0.6,0.75
16292,1.61,16.04,Ngundi,1.0,1.0,0.91,1.0,1.0,1.0,1.0,1.0,1.0,0.75,0.43,1.0,0.5,0.86,0.67,0.5,0.67,1.0,0.67,0.25,0.4,1.0,1.0,0.83,0.25,1.0,1.0,0.4,0.0,0.75,1.0,0.75,0.86,0.5,0.5,0.8,0.75
16363,48.29,20.69,Hungarian Roma,0.08,0.25,0.0,0.25,0.0,0.0,0.5,0.0,0.0,0.75,0.43,0.0,0.5,0.57,0.67,0.33,0.67,0.3,0.33,0.75,0.4,0.0,1.0,0.83,0.5,0.4,0.8,0.8,1.0,0.75,1.0,0.75,0.43,0.33,0.5,0.2,0.5
16402,48.29,20.69,Zanzibar Swahili,0.58,1.0,0.27,1.0,0.5,0.5,0.5,0.75,1.0,0.25,0.43,0.14,0.5,0.57,0.67,0.08,0.83,1.0,0.33,0.5,0.6,0.0,1.0,0.67,0.5,1.0,1.0,0.4,0.5,0.25,0.33,0.5,0.14,0.0,0.25,0.6,0.75
16424,53.0,-132.0,Haida,0.42,0.12,0.36,0.5,0.5,0.5,0.5,0.0,0.0,0.75,0.86,0.14,0.17,0.0,0.33,0.42,0.33,0.0,0.0,0.75,0.6,0.0,0.75,0.67,0.5,0.4,1.0,0.8,1.0,0.75,0.33,0.75,0.43,0.33,0.5,0.8,0.75
16429,-9.47,147.2,Hahon,0.92,0.25,0.36,1.0,0.5,0.75,0.5,0.75,0.75,0.5,0.86,0.14,0.17,0.14,0.67,0.92,0.0,1.0,,1.0,0.6,0.8,1.0,0.83,0.75,1.0,0.0,0.8,0.5,0.5,1.0,0.5,0.43,0.5,0.5,0.2,0.75
16446,18.59,-72.3,Haiti,0.58,1.0,0.27,0.5,0.75,1.0,1.0,1.0,1.0,0.5,0.43,0.14,0.5,0.86,0.67,0.83,0.67,1.0,0.33,0.75,0.4,0.0,1.0,0.67,0.75,1.0,1.0,0.8,1.0,0.5,1.0,0.75,0.71,0.5,0.5,0.6,0.5
16457,23.37,113.76,Hakka,0.08,0.0,0.0,0.25,0.0,0.0,0.0,0.0,0.0,0.25,0.86,0.0,0.0,0.0,0.67,0.83,0.33,0.9,0.0,0.5,0.2,0.0,0.5,0.67,0.5,0.0,1.0,0.4,0.5,0.25,1.0,0.5,0.14,0.33,0.5,0.6,0.25
16473,-9.47,147.2,Halia,0.92,0.0,0.0,1.0,0.75,0.75,0.0,0.0,0.0,1.0,0.43,1.0,0.0,0.0,0.67,0.42,0.33,0.6,,0.75,0.6,1.0,1.0,0.33,0.75,0.4,0.0,0.4,0.0,1.0,1.0,0.5,0.71,0.5,0.5,0.6,1.0
16479,13.83,29.41,Hamar,0.92,0.25,0.36,1.0,0.75,0.75,1.0,1.0,0.75,1.0,0.43,0.71,0.5,0.71,0.67,0.67,0.83,1.0,0.33,0.75,0.4,1.0,0.75,0.67,0.75,1.0,1.0,0.8,1.0,1.0,0.33,1.0,0.71,0.5,0.5,0.6,1.0
16517,-6.8,146.56,Anga,0.83,0.0,0.0,1.0,0.75,0.5,0.0,0.0,0.0,0.5,0.86,1.0,0.0,0.0,0.67,0.83,0.67,0.9,0.33,0.25,0.4,0.2,1.0,0.83,0.5,0.2,0.0,0.8,0.0,0.5,1.0,0.5,0.43,0.33,0.5,0.2,0.75
16545,16.56,121.26,Hanunoo,0.08,0.62,0.09,0.25,0.0,0.0,0.0,0.0,0.0,0.0,1.0,0.0,0.0,0.0,0.67,0.0,0.33,1.0,0.67,0.5,0.2,0.0,0.5,0.33,0.25,0.0,1.0,0.8,1.0,0.0,1.0,0.75,0.71,0.0,0.25,1.0,0.0
16578,-3.58,35.0,Hadza,0.42,0.12,0.36,1.0,0.75,0.75,0.5,0.0,0.0,1.0,0.43,0.14,0.17,0.14,0.67,0.67,0.67,1.0,0.0,0.75,0.6,0.8,1.0,0.67,0.5,1.0,1.0,1.0,1.0,1.0,1.0,0.75,0.71,0.5,0.75,0.6,0.75
16589,11.74,8.52,Hausa Kanawa,0.08,0.12,0.27,0.25,0.0,0.0,0.5,1.0,1.0,0.25,0.43,0.0,0.5,0.57,0.67,0.92,0.67,1.0,0.33,0.75,0.6,0.0,0.5,0.83,0.5,1.0,1.0,0.4,1.0,0.25,1.0,0.75,0.71,0.5,0.5,0.2,0.75
16600,38.98,-114.3,Havsuwʼ Baaja,0.08,0.12,0.09,0.25,0.0,0.0,0.25,0.0,0.0,0.25,0.86,0.0,0.17,0.0,0.33,0.42,0.67,0.2,0.33,0.25,0.6,0.0,0.75,0.67,0.5,1.0,1.0,1.0,0.5,0.25,1.0,0.75,0.43,0.33,0.0,0.6,0.5
16611,20.0,-155.82,Native Hawai'i,0.25,0.12,0.09,0.25,0.0,0.0,0.25,0.0,0.0,0.0,0.43,0.0,0.5,0.0,0.67,0.92,0.83,1.0,1.0,0.25,0.6,0.0,1.0,0.67,0.5,1.0,1.0,1.0,1.0,0.0,1.0,0.5,0.71,0.83,0.75,0.8,0.0
16622,11.19,29.41,Hawazma,0.08,0.0,0.0,0.25,0.0,0.0,0.0,0.0,0.0,0.25,0.43,0.0,0.5,0.0,0.67,0.75,0.67,0.9,0.33,0.75,0.4,0.0,0.75,0.83,0.5,0.4,1.0,0.8,1.0,0.25,1.0,0.75,0.14,0.33,0.5,0.6,0.75
16633,-1.32,31.8,Haya,0.75,1.0,0.82,1.0,1.0,0.75,1.0,0.5,0.75,0.5,0.43,0.14,0.5,0.71,0.67,0.33,0.67,0.4,0.0,0.25,0.2,0.2,0.5,0.33,0.5,1.0,1.0,0.4,0.0,0.5,0.33,0.75,0.71,0.83,0.25,0.8,1.0
16644,34.81,67.82,Hazara,0.5,0.0,0.0,0.75,0.5,0.0,0.0,0.0,0.0,0.0,1.0,0.43,0.0,0.0,0.67,0.0,0.17,0.0,0.0,0.5,0.2,0.0,0.0,0.33,0.5,0.0,1.0,0.4,0.5,0.0,0.33,0.5,0.0,0.0,0.25,0.2,0.25
16655,12.8,45.03,Yemenite Jews,0.08,0.62,0.09,0.25,0.0,0.0,0.25,0.5,0.0,0.25,0.86,0.0,0.5,0.0,0.67,0.0,0.17,0.0,0.0,0.5,0.2,0.0,0.0,0.67,1.0,0.4,1.0,0.0,0.0,0.25,0.0,0.5,0.14,0.0,0.0,0.2,0.75
16666,57.26,-7.33,South Uist,0.58,0.0,0.0,0.5,0.75,0.75,0.0,0.0,0.0,0.5,0.43,0.14,0.0,0.0,0.67,0.42,0.67,0.4,0.33,0.75,0.4,0.0,1.0,0.67,0.5,1.0,1.0,1.0,1.0,0.5,1.0,0.75,0.71,0.5,0.5,0.6,0.25
16688,-7.73,35.69,Hehe,0.08,0.12,0.36,1.0,1.0,1.0,0.5,1.0,1.0,0.5,0.43,0.14,0.5,0.71,1.0,0.75,0.67,1.0,0.33,0.5,0.4,0.0,1.0,0.83,0.5,1.0,1.0,0.8,1.0,0.5,1.0,0.5,0.71,0.33,0.5,0.6,0.75
16710,-14.11,28.28,Tumbuka,0.75,0.25,0.36,1.0,0.75,1.0,0.5,1.0,1.0,0.5,0.43,0.14,0.17,0.14,0.0,0.5,0.33,0.9,0.0,0.25,0.4,0.8,1.0,0.67,0.5,1.0,1.0,1.0,0.0,0.5,1.0,0.5,0.43,1.0,0.5,0.6,0.5
16750,19.15,84.22,Hill Saora,0.08,0.0,0.0,0.25,0.0,0.0,0.0,0.0,0.0,0.5,0.86,0.0,0.0,0.0,0.67,0.83,0.67,0.9,0.0,0.5,0.4,0.0,0.75,0.67,0.25,0.4,1.0,0.8,1.0,0.5,1.0,0.5,0.43,0.0,0.5,0.6,0.25
16787,-19.4,13.91,Himba,1.0,0.12,0.91,1.0,1.0,0.75,1.0,1.0,0.5,0.75,0.86,1.0,0.67,0.86,0.67,1.0,0.67,1.0,0.0,0.5,1.0,1.0,1.0,0.83,0.5,1.0,1.0,0.8,0.5,0.75,1.0,0.5,0.86,0.83,0.75,0.8,1.0
16792,25.88,84.29,Bhojpuri,0.08,0.0,0.0,0.25,0.0,0.0,1.0,0.0,0.0,0.0,0.86,0.0,0.0,0.0,0.67,0.67,0.67,0.9,0.0,0.5,0.2,0.0,0.5,0.67,0.5,0.4,0.8,0.8,0.5,0.0,1.0,0.5,0.43,0.33,0.5,0.8,0.25
16809,43.22,142.86,Hokkaido Ainu,0.08,0.0,0.36,1.0,0.5,0.5,0.5,1.0,0.5,0.75,0.86,0.14,0.17,0.14,0.67,0.92,0.67,1.0,0.0,0.75,0.6,0.0,0.75,0.33,0.5,0.4,1.0,0.8,0.5,0.75,0.0,0.75,0.71,0.33,0.25,0.6,0.5
16825,-9.44,159.97,Honiara,0.33,0.12,0.09,1.0,0.75,0.75,1.0,0.0,0.0,0.0,0.43,0.14,0.5,0.0,0.67,0.42,0.33,0.4,0.83,0.75,0.4,0.8,1.0,0.67,0.5,1.0,1.0,0.4,1.0,0.0,1.0,0.75,0.86,0.33,0.75,0.6,0.5
16831,36.06,-109.18,Hopituh Shi-nu-mu,0.42,0.12,0.09,0.5,0.75,0.75,0.25,0.0,0.0,0.75,0.86,0.14,0.83,0.0,0.67,0.17,0.67,0.0,0.33,0.75,0.6,0.0,0.75,0.67,0.75,1.0,1.0,0.8,1.0,0.75,0.33,0.75,0.71,0.5,0.5,0.0,0.5
16869,35.95,103.28,Hui,0.08,0.0,0.0,0.25,0.0,0.0,0.0,0.0,0.0,0.5,0.86,0.0,0.0,0.0,0.67,0.17,0.33,0.3,0.67,0.75,0.4,0.0,0.25,0.33,0.75,0.4,1.0,0.8,0.5,0.5,0.0,0.75,0.43,0.33,0.5,0.6,0.5
16875,20.65,-103.42,Wixáritari,0.08,0.25,0.27,0.25,0.0,0.0,1.0,0.0,0.0,0.75,0.43,0.0,0.5,0.0,0.67,0.83,0.83,1.0,0.67,0.5,0.6,0.0,1.0,0.67,0.25,0.4,1.0,0.8,1.0,0.75,1.0,0.5,0.43,0.33,0.25,0.8,0.5
16919,47.6,19.36,Magyar,0.08,0.0,0.0,0.25,0.0,0.0,0.0,0.0,0.0,0.25,0.43,0.0,0.0,0.0,0.67,0.42,0.33,0.4,0.0,0.5,0.4,0.0,1.0,0.67,0.75,1.0,1.0,1.0,1.0,0.25,1.0,0.75,0.71,0.83,0.75,0.6,0.25
16930,41.09,-123.68,Natinixwe,1.0,0.0,0.0,1.0,0.5,0.5,0.0,0.0,0.0,0.75,0.43,0.57,0.17,0.0,0.67,0.92,0.33,1.0,0.0,0.75,0.6,1.0,0.25,0.83,0.5,1.0,1.0,0.8,1.0,0.75,0.0,0.5,0.43,0.33,0.5,0.2,1.0
16963,-2.56,147.28,Iatmul,0.42,0.75,0.36,1.0,0.0,0.75,0.5,1.0,0.5,0.75,0.86,0.14,0.83,0.14,0.67,0.83,0.33,0.9,0.0,0.25,0.4,0.0,1.0,0.83,0.25,0.2,1.0,0.8,1.0,0.75,1.0,0.5,0.71,0.33,0.5,0.8,0.75
16974,1.55,110.35,Iban,0.08,0.0,0.0,0.25,0.0,0.0,0.0,0.0,0.0,0.0,1.0,0.0,0.0,0.0,0.67,0.0,0.17,1.0,0.0,0.25,0.2,0.0,0.5,0.17,0.25,0.0,1.0,0.8,0.5,0.0,0.0,0.75,0.14,0.33,0.25,0.8,0.0
16996,5.85,6.85,Igbo,0.58,0.12,0.36,1.0,1.0,1.0,0.5,0.75,1.0,0.75,0.86,0.14,0.83,0.57,0.67,0.0,0.83,0.0,0.0,0.75,0.4,0.6,0.75,0.67,0.5,1.0,1.0,0.8,0.5,0.75,0.33,0.5,0.71,0.5,0.5,0.6,0.75
17029,7.25,144.44,Ifaluk,0.08,0.0,0.0,0.25,0.0,0.0,0.0,0.0,0.0,0.0,0.86,0.0,0.0,0.0,0.67,0.83,0.0,1.0,1.0,0.25,0.4,0.0,0.75,0.17,0.5,0.4,1.0,0.4,1.0,0.0,1.0,0.75,0.43,0.83,0.75,0.6,0.25
17062,16.83,121.17,Ifugao,0.42,0.0,0.0,0.75,0.25,0.25,0.0,0.0,0.0,0.0,1.0,0.43,0.0,0.0,0.67,0.0,0.17,1.0,0.0,0.25,0.4,0.6,0.25,0.33,0.25,0.0,1.0,0.8,0.5,0.0,1.0,0.5,0.14,0.5,0.5,0.8,0.75
17106,16.55,120.8,Ibaloi,0.42,0.0,0.0,0.5,0.5,0.5,0.0,0.0,0.0,0.25,1.0,0.14,0.0,0.0,0.67,0.92,0.17,1.0,0.0,0.25,0.4,0.0,1.0,0.17,0.5,0.0,1.0,0.8,0.5,0.25,1.0,0.5,0.14,0.33,0.5,1.0,0.5
17150,16.08,120.62,Ilocano,0.08,0.0,0.0,0.25,0.0,0.0,0.0,0.0,0.0,0.0,1.0,0.0,0.0,0.0,0.33,0.0,0.0,0.0,0.0,0.5,0.2,0.0,0.0,0.0,0.5,0.0,1.0,0.0,0.0,0.0,0.0,0.75,0.14,0.0,0.0,0.2,0.0
17183,16.08,120.62,S Indian Folk,0.08,0.62,0.55,0.25,0.0,0.0,1.0,1.0,1.0,0.0,0.43,0.0,0.5,0.71,0.67,0.75,0.33,1.0,0.0,0.25,0.2,0.0,0.0,0.67,0.25,0.4,0.8,0.0,0.0,0.0,1.0,0.5,0.43,0.0,0.25,0.6,0.25
17194,10.16,-61.43,Indo-Trinidad,0.08,0.0,0.0,0.5,0.0,0.0,0.0,0.0,0.0,0.0,0.43,0.14,0.0,0.0,0.67,0.42,0.33,0.0,0.0,0.5,0.4,0.0,0.5,0.33,0.5,1.0,1.0,1.0,0.5,0.0,1.0,0.5,0.14,0.0,0.25,0.6,0.25
17227,43.4,44.82,Ingush,0.08,0.12,0.09,0.25,0.0,0.0,1.0,0.0,0.0,0.0,0.57,0.0,0.67,0.0,0.67,0.42,0.67,0.3,0.0,0.5,0.4,0.0,0.75,0.67,0.5,1.0,1.0,1.0,1.0,0.0,1.0,0.75,0.71,0.5,0.25,0.6,0.5
17232,43.4,44.82,Nunatsiarmiut,1.0,0.0,0.0,1.0,0.75,1.0,0.0,0.0,0.0,1.0,0.43,0.86,0.0,0.0,0.67,1.0,0.83,1.0,0.33,0.75,1.0,1.0,1.0,0.83,0.25,0.4,0.0,1.0,1.0,1.0,0.0,1.0,0.43,0.0,0.0,0.2,1.0
17234,43.4,44.82,Qikiqtaaluk Inuit,1.0,0.0,0.0,0.25,1.0,1.0,0.0,0.0,0.0,1.0,0.43,0.57,0.0,0.0,0.67,0.0,0.83,1.0,0.0,1.0,0.4,0.0,1.0,0.83,0.5,0.4,0.0,1.0,1.0,1.0,0.33,1.0,0.71,0.0,1.0,0.2,1.0
17236,60.02,-70.02,Nunavimmiut,0.08,0.0,0.0,0.25,0.0,0.0,0.0,0.0,0.0,0.5,0.86,0.0,0.0,0.0,0.67,0.42,0.67,0.2,0.0,0.5,0.6,0.0,1.0,0.83,0.25,0.4,0.0,1.0,1.0,0.5,1.0,0.75,0.71,0.5,0.0,0.2,0.5
17249,38.42,45.76,Iran,0.08,0.0,0.0,0.25,0.0,0.0,0.0,0.0,0.0,0.5,1.0,0.0,0.0,0.0,0.67,0.0,0.67,0.0,0.0,0.5,0.2,0.0,0.0,0.17,0.75,0.0,1.0,0.8,0.0,0.0,0.0,0.5,0.14,0.33,0.75,0.6,0.25
17265,-1.33,133.17,Papua,0.58,0.0,0.0,0.5,0.75,0.25,0.0,0.0,0.0,0.5,1.0,0.14,0.0,0.0,0.0,0.0,0.17,0.0,0.0,0.25,0.4,0.0,0.75,0.33,0.25,0.0,1.0,0.8,0.5,0.5,1.0,0.75,0.86,0.5,0.75,0.8,0.75
17271,54.59,-5.93,Ulster,0.08,0.0,0.0,0.25,0.0,0.0,0.0,0.0,0.0,0.25,0.43,0.0,0.0,0.0,0.67,0.42,0.33,0.4,0.67,0.75,0.4,0.0,1.0,0.33,0.5,0.4,1.0,1.0,1.0,0.25,1.0,0.5,0.71,0.5,0.5,0.6,0.25
17282,54.59,-5.93,Onödowáʼga꞉ (Seneca),0.58,0.12,0.27,0.5,0.5,0.75,0.5,0.75,1.0,0.75,0.86,0.14,0.17,0.14,0.67,0.17,0.33,0.0,0.83,0.5,0.6,0.0,0.75,0.67,0.5,1.0,1.0,0.8,1.0,0.75,0.33,0.5,0.43,0.5,0.5,0.2,0.5
17330,45.08,13.85,Croatian Istria,0.42,0.0,0.0,1.0,1.0,1.0,0.0,0.0,0.0,0.5,0.43,0.14,0.0,0.0,1.0,0.42,0.33,0.2,0.33,0.5,0.4,0.8,0.75,0.67,0.75,0.4,0.0,0.8,0.0,0.5,0.33,0.25,0.43,0.33,0.5,0.2,0.5
17350,45.08,13.85,Letino,0.25,0.0,0.0,0.25,0.0,0.0,0.0,0.0,0.0,0.25,0.43,0.0,0.0,0.0,0.67,0.83,0.33,1.0,0.33,0.5,0.4,0.0,0.5,0.33,0.75,0.4,1.0,0.4,0.0,0.25,0.33,0.25,0.14,0.0,0.25,0.2,0.25
17359,41.82,15.77,Gargano,0.08,0.12,0.09,0.25,0.0,0.0,1.0,0.0,0.0,0.25,0.43,0.0,0.5,0.0,0.67,0.33,0.33,0.3,0.0,0.5,0.4,0.0,0.75,0.33,0.5,0.4,1.0,0.8,1.0,0.25,1.0,0.5,0.0,0.33,0.5,0.2,0.5
17375,44.34,10.49,Emilia-Romagna,0.08,,0.36,0.25,0.0,0.0,1.0,,0.75,0.5,1.0,0.0,0.5,1.0,0.67,0.25,0.67,0.2,0.0,0.5,0.4,0.0,0.25,0.0,0.75,0.0,1.0,1.0,0.0,0.5,0.0,0.25,0.43,0.5,0.25,0.2,0.25
17378,43.37,13.21,Umbria-Marche,0.75,0.0,0.0,1.0,0.75,0.75,0.0,0.0,0.0,0.5,0.86,1.0,0.0,0.0,0.0,0.83,0.33,0.9,0.0,0.75,0.4,0.8,0.5,0.33,0.75,0.2,1.0,0.8,0.5,0.5,0.33,0.5,0.43,0.5,0.5,0.2,0.5
17403,45.21,12.27,Chioggia,0.92,0.0,0.0,1.0,0.75,0.75,0.0,0.0,0.0,0.25,0.43,0.14,0.0,0.0,0.67,0.17,0.17,0.0,0.0,0.25,0.4,0.8,1.0,0.17,0.5,0.0,1.0,0.8,0.5,0.25,1.0,0.5,0.14,0.83,0.25,0.8,0.25
17414,38.92,1.29,Ibiza,0.08,0.62,0.09,0.25,0.0,0.0,0.25,0.0,0.0,0.0,0.86,0.0,0.83,0.0,0.67,0.75,0.17,1.0,0.67,0.25,0.2,0.0,0.25,0.17,0.75,0.0,0.0,0.4,0.5,0.0,0.0,0.25,1.0,0.0,0.25,0.2,0.25
17436,-11.24,-53.2,Yawalapiti,0.08,0.12,0.0,0.25,0.0,0.0,0.0,0.0,0.0,0.75,0.86,0.0,0.17,0.0,0.67,0.17,0.67,0.0,0.0,0.5,0.6,0.0,1.0,0.33,0.25,1.0,1.0,1.0,1.0,0.75,1.0,0.0,0.43,0.33,0.25,0.6,0.5
17469,-11.24,-53.2,Semelai,0.75,0.0,0.0,1.0,0.5,0.25,0.0,0.0,0.0,0.25,1.0,1.0,0.0,0.0,0.67,0.25,0.33,0.9,0.0,0.75,0.2,0.2,1.0,0.17,0.25,0.0,0.0,0.4,0.5,0.25,1.0,0.75,0.14,0.33,0.25,0.8,0.25
17474,5.55,101.33,Jahai,0.75,0.25,0.73,0.5,0.5,0.5,1.0,1.0,0.75,0.5,0.86,1.0,0.5,1.0,0.67,0.83,0.67,0.9,0.0,0.25,0.4,0.0,0.75,0.67,0.5,0.4,1.0,1.0,1.0,0.5,0.33,0.5,0.14,0.33,0.75,0.6,0.25
17480,17.97,-76.43,Jamaican,0.75,0.25,0.36,1.0,0.75,1.0,0.5,1.0,1.0,0.5,0.43,0.14,0.5,0.14,0.67,0.75,0.33,1.0,0.67,0.5,0.4,0.4,1.0,0.67,0.5,1.0,1.0,0.8,1.0,0.5,1.0,0.5,0.71,0.5,0.5,0.2,0.75
17502,35.67,139.65,Tokyo,0.58,0.0,0.0,0.75,0.5,0.25,0.0,0.0,0.0,0.0,1.0,0.43,0.0,0.0,0.67,0.0,0.0,0.0,0.67,0.5,0.2,0.0,0.0,0.0,0.5,0.0,1.0,0.4,0.0,0.0,0.0,0.5,0.14,0.33,0.25,0.6,0.25
17535,10.3,9.82,Bankalawa Jarawa,0.25,0.88,0.91,0.25,0.0,0.0,1.0,0.0,1.0,1.0,0.43,0.0,0.5,0.86,1.0,0.58,0.83,0.9,0.0,0.5,1.0,0.0,1.0,0.83,0.75,1.0,1.0,0.8,1.0,1.0,1.0,0.75,0.71,0.5,0.5,0.8,0.75
17546,19.44,84.26,Jaunsari,0.67,0.0,0.0,0.5,0.5,0.75,0.0,0.0,0.0,0.5,0.86,0.14,0.0,0.0,0.67,0.75,0.0,1.0,0.67,0.5,0.4,0.0,0.25,0.67,0.75,0.2,1.0,0.4,0.5,0.5,1.0,0.5,0.71,0.5,0.25,0.2,0.5
17557,19.44,84.26,Javanese,0.08,0.75,0.0,0.25,0.0,0.0,1.0,0.0,1.0,0.0,0.43,0.0,0.0,1.0,0.67,0.0,0.33,0.0,0.33,1.0,0.6,0.0,0.0,0.17,0.5,0.0,1.0,0.4,0.5,0.0,0.0,0.25,0.0,0.33,0.75,0.6,0.25
17579,29.95,-90.07,New Orleans Creole,0.08,1.0,0.82,0.25,0.0,0.0,1.0,0.5,1.0,0.0,0.43,0.0,0.5,1.0,0.67,0.33,0.83,0.3,0.0,0.5,0.4,0.0,1.0,0.67,0.75,1.0,1.0,0.8,1.0,0.0,1.0,0.5,0.71,0.5,0.5,0.8,0.75
17584,29.95,-90.07,Mixed New York Jewish Liturgical,0.5,0.0,0.0,0.0,0.25,0.0,0.0,0.0,0.0,0.25,1.0,0.0,0.0,0.0,0.67,0.0,0.33,0.0,0.0,0.5,0.4,0.0,1.0,1.0,0.5,0.0,1.0,1.0,1.0,0.25,1.0,0.5,0.43,0.5,0.75,0.6,0.75
17587,12.0,37.25,Falasha,0.42,0.0,0.0,0.75,0.5,0.5,0.0,0.0,0.0,0.0,1.0,0.43,0.0,0.0,0.0,0.0,0.17,0.0,0.0,0.5,0.2,0.0,0.0,0.33,0.5,0.0,0.8,0.4,0.0,0.0,1.0,0.5,0.14,0.33,0.5,0.6,0.5
17599,33.87,-5.54,Moroccan Jews,0.75,0.0,0.0,0.75,0.5,0.5,0.0,0.0,0.0,0.0,1.0,0.43,0.0,0.0,1.0,0.0,0.33,0.0,0.33,0.75,0.2,0.0,0.25,0.67,0.5,1.0,1.0,0.4,0.0,0.0,0.0,0.25,0.43,0.5,0.5,0.6,0.25
17609,33.8,10.84,Tunisian Jews,0.92,0.0,0.0,0.75,0.25,0.0,0.0,0.0,0.0,0.0,1.0,0.43,0.0,0.0,0.67,0.0,0.83,0.0,0.67,0.75,0.4,0.0,0.5,0.67,0.5,1.0,1.0,0.4,0.5,0.5,0.33,0.75,0.14,0.33,0.5,0.6,0.5
17610,40.71,-74.0,Ashkenazi New York Jews,0.08,0.0,0.0,0.25,0.0,0.0,0.0,0.0,0.0,0.0,0.86,0.0,0.0,0.0,0.0,0.33,0.0,0.0,0.0,0.5,0.4,0.0,0.5,0.33,0.25,0.2,1.0,1.0,0.5,0.0,1.0,0.75,0.71,0.83,1.0,0.8,0.0
17661,22.81,108.36,Jinghpaw,0.75,0.12,0.09,1.0,0.5,0.25,0.25,0.0,0.0,1.0,0.86,1.0,0.67,0.0,0.67,,0.33,0.9,0.33,1.0,0.4,1.0,1.0,0.67,0.75,0.4,1.0,0.8,0.0,1.0,0.33,0.0,1.0,0.83,0.75,0.8,0.75
17667,-2.11,-78.35,Jivaro,0.08,0.0,0.0,0.25,0.0,0.0,0.0,0.0,0.0,0.75,0.43,0.0,0.0,0.0,0.67,1.0,0.83,1.0,0.0,0.5,1.0,0.0,0.75,0.67,0.25,0.4,1.0,1.0,1.0,0.75,1.0,0.5,0.43,0.33,0.25,0.8,0.5
17689,18.81,82.71,Jhodia,0.33,0.12,0.27,0.75,0.5,0.75,0.5,0.25,0.75,0.5,0.43,0.14,0.5,0.71,1.0,0.67,0.83,0.0,0.33,1.0,0.4,0.0,0.5,0.83,0.75,0.4,1.0,0.8,1.0,0.5,1.0,0.75,0.43,0.33,0.5,0.2,0.75
17700,31.76,35.21,Israeli Jews,0.08,0.0,0.0,0.25,0.0,0.0,0.0,0.0,0.0,0.0,1.0,0.0,0.0,0.0,0.67,0.0,0.17,0.0,0.83,0.75,0.2,0.0,0.25,0.17,1.0,0.0,1.0,0.0,0.0,0.0,0.33,0.25,0.14,0.0,0.25,0.6,0.25
17733,-11.24,-53.2,Yudjá,0.67,0.12,0.36,0.5,0.75,0.5,0.5,1.0,0.5,0.75,0.86,0.14,0.17,0.14,0.67,0.42,0.33,0.6,0.33,0.5,0.6,0.0,0.75,0.33,0.25,1.0,1.0,0.4,1.0,0.75,1.0,1.0,0.71,0.33,0.25,0.8,0.75
17755,8.61,0.82,Kabiyé,0.75,0.12,0.0,0.5,1.0,1.0,0.25,0.0,0.0,0.5,0.43,0.14,0.5,0.0,,0.58,0.67,0.9,0.0,0.5,0.4,0.0,1.0,0.67,0.75,1.0,1.0,0.8,1.0,0.5,1.0,0.75,0.71,0.33,0.25,0.8,0.75
17766,35.7,-0.62,Kabyle,0.08,0.0,0.0,0.25,0.0,0.0,0.0,0.0,0.0,0.0,0.86,0.0,0.0,0.0,0.67,0.42,0.33,0.4,0.67,0.5,0.6,0.0,0.5,0.33,0.25,0.2,1.0,0.4,0.0,0.0,1.0,0.75,0.71,0.5,0.25,0.8,0.5
17865,-5.8,144.68,Kakoli,0.42,0.0,0.0,0.5,0.5,0.5,0.0,0.0,0.0,0.75,0.86,0.14,0.0,0.0,0.67,0.92,0.33,1.0,0.0,0.25,0.4,0.0,1.0,0.33,0.75,0.4,1.0,0.8,1.0,0.75,1.0,0.5,0.71,0.33,0.25,0.8,1.0
17884,36.89,73.26,Kalash,0.5,0.62,0.82,0.75,0.5,0.25,0.5,0.75,0.75,0.75,1.0,0.43,0.17,0.57,0.67,0.75,0.33,0.9,0.0,0.25,0.6,0.4,0.25,0.33,0.75,0.0,0.0,0.4,0.5,0.75,0.0,0.5,0.71,0.5,0.5,0.8,1.0
17887,3.93,-53.12,Kalina,0.08,0.12,0.09,0.25,0.0,0.0,0.25,0.0,0.0,0.75,0.86,0.0,0.5,0.0,1.0,0.33,0.33,0.6,0.0,0.5,0.4,0.0,0.75,0.33,0.25,0.4,1.0,0.8,0.5,0.75,1.0,0.5,0.71,0.33,0.75,0.8,0.75
17920,46.18,45.0,Torghut Kalmyks,0.58,0.0,0.0,0.75,0.25,0.25,0.0,0.0,0.0,0.5,1.0,0.43,0.0,0.0,0.67,0.42,0.33,0.6,0.33,0.75,0.6,0.0,0.75,0.17,0.75,0.0,1.0,0.4,0.0,0.5,0.33,0.75,0.71,0.5,0.75,0.6,0.75
17931,46.18,45.0,Buzawa Kalmyks,0.08,0.0,0.0,0.25,0.0,0.0,0.0,0.0,0.0,0.25,0.43,0.0,0.0,0.0,0.67,0.42,0.33,0.7,0.67,0.75,0.4,0.0,0.75,0.33,0.5,1.0,1.0,0.4,0.5,0.25,0.33,0.75,0.71,0.5,0.75,0.6,0.5
17936,-6.31,143.95,Bosavi,0.75,0.75,0.36,1.0,0.75,1.0,0.5,1.0,0.5,0.75,0.86,1.0,0.17,0.14,0.67,0.92,0.67,1.0,0.0,0.5,0.6,0.0,1.0,0.67,0.25,0.4,0.8,0.4,0.5,0.75,1.0,0.5,0.71,0.5,0.75,0.8,0.75
17997,-10.98,26.73,Kanioka,0.75,1.0,1.0,1.0,1.0,1.0,1.0,1.0,1.0,0.75,0.43,0.14,0.5,0.86,1.0,0.75,0.67,1.0,0.0,0.25,0.4,0.6,1.0,0.67,0.5,1.0,1.0,1.0,1.0,0.75,1.0,0.5,0.86,1.0,0.25,0.6,0.75
18129,-4.64,145.98,Waskia,0.58,0.62,0.36,0.5,0.5,0.75,0.5,1.0,0.5,1.0,1.0,0.14,0.83,0.14,0.0,0.75,0.17,1.0,0.33,0.25,0.2,0.0,0.5,0.17,0.75,0.0,0.8,0.4,0.0,1.0,1.0,0.5,0.71,0.33,0.25,0.2,1.0
18173,33.77,76.57,Kashmiri Dards,0.58,0.12,0.27,1.0,0.25,0.75,1.0,0.75,1.0,0.0,0.43,0.14,0.5,0.71,0.67,0.08,0.0,0.0,0.0,0.5,0.4,0.4,0.5,0.83,0.75,1.0,1.0,0.8,0.5,0.0,1.0,0.25,0.14,0.33,0.25,0.2,0.5
18283,-10.65,-53.57,Kayabí,0.42,0.0,0.0,0.5,0.5,0.5,0.0,0.0,0.0,0.5,0.43,0.14,0.0,0.0,0.67,0.42,0.67,0.6,0.33,0.5,0.6,0.0,0.75,0.67,0.5,0.4,1.0,1.0,1.0,0.5,1.0,0.75,0.43,0.0,0.0,0.2,0.75
18294,43.22,76.85,Kazakh Steppe Nomads,0.08,0.12,0.09,0.25,0.0,0.0,1.0,0.0,0.0,0.0,0.86,0.0,0.83,0.0,0.67,0.42,0.0,0.3,0.0,0.75,0.4,0.0,0.75,0.67,0.75,0.2,0.4,0.4,0.5,0.0,1.0,0.5,0.14,0.0,0.75,0.2,0.25
18305,-5.75,132.73,Kai Islanders,0.58,0.12,0.36,0.5,0.25,0.5,0.5,0.25,0.5,0.25,0.57,0.14,0.67,0.14,0.0,0.33,0.0,0.9,0.0,0.25,0.4,0.0,0.5,0.33,0.75,1.0,1.0,0.0,0.0,0.25,1.0,0.5,0.43,0.0,0.0,0.2,0.25
18349,37.09,-82.34,Appalachia,0.08,0.0,0.0,0.25,0.0,0.0,1.0,0.0,0.0,0.0,0.43,0.0,0.5,0.0,0.67,0.42,0.33,0.4,0.67,0.5,0.4,0.0,0.75,0.33,0.5,1.0,1.0,0.8,0.5,0.0,1.0,0.5,0.43,0.33,0.25,0.6,0.25
18371,8.52,76.93,Kerala,0.08,0.25,0.27,0.25,0.5,0.0,1.0,0.75,1.0,0.5,0.43,0.14,0.5,0.71,0.67,0.17,0.33,0.0,0.0,0.75,0.2,0.0,0.25,0.67,0.5,1.0,1.0,0.8,0.5,0.5,0.33,0.5,0.14,0.0,0.25,0.6,0.0
18393,65.87,87.84,Ket,0.75,0.0,0.0,0.25,0.0,0.0,0.0,0.0,0.0,0.25,0.86,0.0,0.0,0.0,0.67,0.75,0.67,0.9,0.67,0.5,0.6,0.0,1.0,0.67,0.75,1.0,1.0,0.8,0.0,0.25,0.33,0.75,0.86,0.5,0.5,0.6,0.75
18431,62.22,70.64,Khanty,0.08,0.0,0.0,0.25,0.0,0.0,0.0,0.0,0.0,0.5,0.86,0.0,0.0,0.0,0.67,0.92,0.67,1.0,0.33,0.25,1.0,0.0,1.0,0.67,0.5,0.4,1.0,0.8,0.5,0.5,0.33,0.75,0.71,0.33,0.5,0.6,0.5
18448,31.95,77.1,Khattak,0.58,0.25,0.36,0.5,0.5,1.0,0.5,0.75,1.0,0.25,0.57,0.14,0.67,0.14,0.67,0.92,0.67,1.0,0.67,0.25,0.4,0.0,0.5,0.67,1.0,1.0,1.0,1.0,1.0,0.25,0.33,0.5,0.71,0.33,0.5,0.2,0.0
18536,-4.75,155.4,Tuluun,0.42,0.0,0.0,1.0,0.75,1.0,0.0,0.0,0.0,0.0,0.43,0.14,0.0,0.0,0.0,0.92,0.33,0.9,0.0,0.5,0.6,0.6,1.0,0.83,0.25,1.0,1.0,0.8,1.0,0.0,1.0,0.75,0.86,0.5,0.75,0.8,0.25
18569,35.07,-98.24,Ka'igwu,0.83,0.12,0.09,0.5,0.5,0.5,0.25,0.0,0.0,0.75,0.86,0.14,0.17,0.0,0.33,0.42,0.33,0.0,0.0,0.75,0.6,0.0,0.75,0.67,0.75,1.0,1.0,0.8,0.5,0.75,0.33,0.75,0.43,0.33,0.25,0.2,0.5
18591,-0.36,35.28,Kipsigis,0.75,0.12,0.09,1.0,1.0,1.0,1.0,0.0,0.0,0.75,0.43,0.14,0.5,0.0,0.67,0.33,0.67,1.0,0.67,0.5,0.6,0.2,1.0,0.67,0.25,1.0,1.0,1.0,1.0,0.75,1.0,0.75,0.86,0.83,1.0,0.6,0.75
18596,43.22,76.85,Kyrgyz,0.08,0.12,0.09,0.25,0.0,0.0,1.0,0.0,0.0,0.0,0.86,0.0,0.5,0.0,0.67,0.92,0.33,0.9,0.0,0.5,0.4,0.0,0.75,0.67,0.5,1.0,1.0,0.8,0.5,0.0,1.0,0.5,0.43,0.33,0.75,0.6,0.25
18624,36.54,22.39,Inner Mani,0.33,0.0,0.0,0.5,0.25,0.25,0.0,0.0,0.0,0.25,0.86,0.14,0.0,0.0,0.67,0.42,0.33,1.0,0.0,0.25,0.4,0.0,0.5,0.33,0.5,0.4,1.0,0.4,0.5,0.25,0.33,0.5,0.43,0.33,0.5,0.6,0.5
18635,-8.54,143.45,Kiwai,0.42,0.12,0.09,1.0,0.75,1.0,0.25,0.0,0.0,0.25,0.86,0.14,0.5,0.0,1.0,0.83,0.0,1.0,0.83,0.75,0.4,0.8,0.75,0.17,0.25,1.0,1.0,0.8,0.5,0.25,1.0,1.0,0.86,0.5,0.5,1.0,0.75
18778,15.91,79.74,Kolam,0.67,0.88,0.27,0.5,0.25,0.5,1.0,0.75,0.75,0.75,0.86,0.43,0.5,0.86,0.67,0.17,0.67,0.0,0.33,0.5,0.4,0.0,0.5,0.83,0.75,0.4,1.0,0.8,1.0,0.75,0.33,0.5,0.14,0.33,0.5,0.6,0.75
18811,-5.33,139.81,Kombai,0.42,0.62,0.09,1.0,0.75,0.75,0.25,0.0,0.0,0.25,0.86,0.14,0.83,0.0,0.67,0.42,0.67,0.7,0.33,0.5,0.6,0.6,0.75,0.33,0.25,0.2,0.4,0.0,0.5,0.25,1.0,0.5,0.86,0.83,0.75,0.6,0.5
18833,18.56,82.97,Konda-Dora,0.08,0.88,0.45,0.25,0.0,0.0,0.75,0.5,0.75,0.25,0.86,0.0,0.5,0.57,0.67,0.5,0.33,0.9,0.0,0.75,0.2,0.0,0.25,0.83,0.5,0.4,0.4,0.8,1.0,0.25,1.0,0.5,0.14,0.33,0.5,0.8,0.5
18888,5.31,37.21,Konso,0.75,1.0,0.82,1.0,0.75,1.0,1.0,0.5,0.75,0.75,0.43,0.86,0.17,0.71,1.0,0.5,0.83,1.0,0.33,0.5,1.0,0.2,1.0,0.83,0.75,0.4,0.8,0.8,1.0,0.75,1.0,0.5,0.71,0.5,0.5,0.2,1.0
18932,37.56,126.97,Urban S Korea,0.08,0.25,0.55,0.25,0.0,0.0,0.75,0.25,0.25,0.0,0.43,0.0,0.5,0.57,0.67,0.0,0.33,0.6,0.33,0.75,0.2,0.0,0.5,0.17,0.5,1.0,1.0,0.8,0.0,0.0,0.0,0.75,0.71,0.5,0.5,0.2,0.25
18943,21.77,78.17,Korku,0.42,0.0,0.0,0.75,0.0,0.0,0.0,0.0,0.0,0.5,0.86,0.43,0.0,0.0,0.67,0.83,0.33,1.0,0.67,0.25,0.4,0.0,0.5,0.67,0.25,0.4,1.0,0.8,1.0,0.5,1.0,0.75,0.71,0.33,0.5,0.8,0.75
18976,65.17,176.76,Koryak,0.08,0.0,0.0,0.25,0.0,0.0,0.0,0.0,0.0,1.0,0.43,0.0,0.0,0.0,0.67,0.92,0.67,1.0,0.67,0.25,0.4,0.0,0.75,0.33,0.25,1.0,1.0,1.0,0.5,1.0,0.33,0.75,0.86,0.5,0.75,0.8,1.0
19014,-2.3,14.37,Kukuya Teke,0.83,1.0,0.82,1.0,1.0,1.0,1.0,1.0,1.0,0.75,0.43,0.86,0.5,0.86,0.67,0.75,0.83,0.9,0.0,0.5,0.2,0.2,0.5,1.0,0.5,1.0,1.0,1.0,0.5,0.75,0.0,1.0,0.71,0.83,0.75,0.8,1.0
19022,-0.48,15.89,Kouyou,1.0,1.0,0.91,1.0,0.75,1.0,1.0,0.75,1.0,1.0,0.43,1.0,0.5,0.86,1.0,1.0,0.83,1.0,0.0,0.75,1.0,1.0,0.75,0.67,0.75,1.0,1.0,0.8,1.0,1.0,1.0,0.75,1.0,0.5,0.25,0.8,0.75
19025,-5.61,147.96,Kovai,0.92,0.75,0.0,1.0,0.75,0.5,0.0,1.0,0.0,0.75,0.86,0.14,0.83,0.14,0.67,0.83,0.33,0.9,0.0,0.75,0.6,0.2,1.0,0.67,0.75,0.4,0.8,0.4,0.5,0.75,1.0,0.25,0.71,0.5,0.5,0.2,0.75
19031,16.87,80.92,Koya,0.42,0.0,0.0,0.5,0.5,0.5,0.0,0.0,0.0,0.5,0.43,0.14,0.0,0.0,0.67,0.42,0.83,0.6,0.67,0.75,0.4,0.0,0.75,0.83,0.5,0.4,1.0,0.8,1.0,0.5,1.0,0.75,0.71,0.33,0.25,0.6,0.75
19053,6.99,-9.47,Kpelle,1.0,0.0,0.0,1.0,0.75,1.0,0.0,0.0,0.0,0.75,0.43,1.0,0.0,0.0,0.67,1.0,0.83,1.0,0.67,0.5,0.6,1.0,1.0,0.83,0.75,1.0,1.0,1.0,0.5,0.75,1.0,0.5,1.0,0.33,0.25,0.8,0.75
19064,6.99,-9.47,Canela,0.42,0.0,0.0,1.0,0.75,0.5,0.5,0.0,0.0,0.75,0.86,0.14,0.0,0.0,0.0,0.75,0.33,1.0,0.0,0.5,0.6,0.6,1.0,0.33,0.5,1.0,1.0,0.0,0.5,0.75,0.33,0.5,0.86,0.83,0.75,0.0,1.0
19086,4.76,-8.22,Kru,0.08,,0.09,0.25,0.0,0.0,1.0,,0.0,0.75,0.43,0.0,0.5,0.0,1.0,0.75,0.83,0.9,0.67,0.5,0.4,0.0,1.0,0.83,0.25,1.0,1.0,0.8,1.0,0.75,1.0,0.5,0.71,0.5,0.25,0.8,0.75
19097,-6.2,149.53,Kaulong,0.42,0.12,0.36,0.5,0.5,0.75,0.5,1.0,1.0,0.75,0.86,0.14,0.17,0.14,0.67,0.92,0.33,0.9,0.83,0.5,0.4,0.0,0.75,0.67,0.5,1.0,1.0,0.4,0.5,0.75,1.0,0.5,0.43,1.0,1.0,0.6,1.0
19141,-12.68,-56.92,Kuikuru,0.42,0.12,0.36,0.5,0.5,0.75,0.5,0.75,0.75,0.75,0.43,0.14,0.17,0.14,1.0,0.42,0.67,0.2,0.33,0.25,0.4,0.0,1.0,0.83,0.5,1.0,1.0,0.8,0.5,0.75,0.33,0.5,0.43,0.83,0.25,0.2,0.75
19196,32.55,76.12,Kullu,0.67,0.75,0.82,0.5,0.75,0.75,0.75,0.25,0.0,0.5,0.43,0.14,0.5,0.71,0.67,0.83,0.67,1.0,0.33,0.5,0.2,0.0,0.25,0.67,0.5,0.2,0.0,0.4,0.0,0.5,1.0,0.5,0.43,0.33,0.5,0.6,0.25
19262,-25.59,21.09,Juǀʼhoansi,1.0,0.12,0.36,1.0,1.0,1.0,0.5,1.0,1.0,1.0,0.57,1.0,0.67,0.14,0.67,1.0,0.83,1.0,0.67,0.75,1.0,1.0,1.0,0.67,0.25,1.0,1.0,1.0,1.0,1.0,1.0,0.75,1.0,1.0,1.0,1.0,1.0
19273,-8.21,142.1,Kunga,0.5,0.0,0.0,0.75,0.75,0.25,0.0,0.0,0.0,0.25,1.0,0.43,0.0,0.0,0.67,0.83,0.17,0.9,0.67,0.5,0.6,0.0,1.0,0.17,0.25,0.0,1.0,0.4,0.5,0.25,1.0,0.75,0.71,1.0,0.5,0.8,0.75
19284,-8.81,146.53,Kunimaipa,0.42,0.0,0.0,1.0,0.75,0.75,0.0,0.0,0.0,1.0,1.0,0.14,0.0,0.0,0.33,0.83,0.33,0.9,0.0,0.75,0.6,0.4,1.0,0.33,0.25,0.0,1.0,0.4,0.5,1.0,1.0,0.75,0.86,0.83,1.0,0.8,0.75
19295,16.03,-16.48,Kunta,0.75,0.62,0.27,0.75,0.5,0.25,1.0,0.5,1.0,0.0,0.86,0.43,0.83,0.57,0.67,0.08,0.33,0.0,0.0,0.75,0.2,0.0,0.0,0.17,0.5,0.0,1.0,0.4,0.5,0.0,0.0,0.75,0.0,0.33,0.5,0.6,0.5
19317,36.26,59.61,Khorasani Kurds,0.08,0.12,0.27,0.25,0.0,0.0,1.0,0.5,0.75,0.25,0.43,0.0,0.5,0.71,0.67,0.08,0.67,0.0,0.0,0.5,0.2,0.0,0.0,0.67,0.5,0.4,0.8,0.0,0.5,0.25,0.33,0.5,0.0,0.0,0.5,0.2,0.25
19328,36.8,44.24,Barzani Kurd,0.08,0.0,0.0,0.25,0.0,0.0,0.0,0.0,0.0,0.0,1.0,0.0,0.0,0.0,0.67,0.0,0.0,0.0,0.0,0.5,0.2,0.0,0.25,0.67,0.75,0.0,1.0,0.4,0.5,0.0,0.0,0.5,0.14,0.33,0.25,0.2,0.25
19377,0.33,34.48,Bukusu,0.75,0.88,0.82,1.0,0.75,0.75,1.0,1.0,1.0,0.25,0.86,0.14,0.5,1.0,1.0,0.5,0.67,1.0,0.0,0.5,0.6,0.2,1.0,1.0,0.75,1.0,1.0,1.0,1.0,0.25,1.0,0.5,0.71,0.33,0.25,0.2,0.75
19394,49.51,-115.76,Ktunaxa,0.58,0.12,0.36,0.5,0.5,0.5,0.25,0.0,0.0,0.75,0.43,0.14,0.17,0.0,0.33,0.42,0.67,0.6,0.0,0.75,0.6,0.0,1.0,0.67,0.75,1.0,1.0,0.4,0.5,0.75,0.0,0.5,0.0,0.0,0.25,0.2,0.75
19438,26.22,50.58,Kuwait,0.08,0.0,0.0,0.25,0.0,0.0,0.0,0.0,0.0,0.0,1.0,0.0,0.0,0.0,0.67,0.75,0.67,0.9,0.0,1.0,0.2,0.0,0.25,0.17,0.75,0.0,1.0,0.8,0.0,0.0,0.0,1.0,0.43,0.33,0.75,0.2,0.5
19460,49.65,-125.44,Kwakwa̱ka̱’wakw,0.08,0.12,0.09,0.5,0.0,0.0,0.25,0.0,0.0,0.0,0.86,0.14,0.17,0.0,0.67,0.08,0.33,0.0,0.67,0.25,0.2,0.0,0.5,0.67,0.5,1.0,1.0,0.8,0.5,0.0,0.33,0.5,0.0,0.33,0.0,0.2,0.25
19493,29.89,-91.9,Cajun,0.08,0.0,0.0,0.25,0.0,0.0,0.0,0.0,0.0,0.0,0.43,0.0,0.0,0.0,0.67,0.42,0.33,0.4,0.67,0.5,0.6,0.0,0.75,0.17,0.5,0.0,1.0,1.0,0.5,0.0,1.0,0.5,0.14,0.33,0.25,0.6,0.25
19526,16.73,-92.63,Lacandon,0.08,0.0,0.0,0.25,0.0,0.0,0.0,0.0,0.0,0.75,0.86,0.0,0.0,0.0,0.67,0.08,0.17,0.0,0.33,0.25,0.6,0.0,1.0,0.67,0.25,0.4,1.0,0.4,1.0,0.75,1.0,0.75,0.14,0.33,0.25,0.6,0.5
19537,35.03,-107.38,Kawaik,0.42,0.12,0.09,0.5,0.75,0.75,0.25,0.0,0.0,0.75,0.86,0.14,0.83,0.0,0.67,0.08,0.67,0.0,0.0,0.5,0.6,0.0,1.0,0.33,0.75,1.0,1.0,0.8,1.0,0.75,0.33,0.5,0.71,0.83,0.75,0.6,0.75
19548,19.91,99.84,Lahu (Thailand),0.08,0.0,0.0,0.25,0.0,0.0,0.0,0.0,0.0,0.5,1.0,0.0,0.0,0.0,0.67,0.83,0.67,0.9,0.67,0.5,0.6,0.0,0.75,0.67,0.75,0.0,1.0,0.4,0.5,0.5,1.0,0.25,0.14,0.5,0.75,0.2,0.75
19614,19.91,99.84,Lala,0.08,0.12,0.09,0.25,0.0,0.0,1.0,0.0,0.0,0.25,0.43,0.0,0.5,0.0,0.67,0.83,0.83,0.9,0.33,0.5,0.4,0.0,1.0,0.83,0.75,1.0,1.0,0.8,1.0,0.25,1.0,0.5,0.71,0.33,0.25,0.6,0.75
19680,20.91,101.16,Lanten,0.08,0.12,0.27,0.25,0.0,0.0,0.5,0.5,0.75,0.25,0.86,0.0,0.83,0.57,0.67,0.5,0.67,0.0,0.0,0.25,0.2,0.0,0.25,0.67,0.5,0.4,0.8,0.8,1.0,0.25,0.33,0.5,0.14,0.0,0.5,0.6,0.25
19691,18.11,102.52,Lao,0.08,0.75,0.27,0.25,0.0,0.0,1.0,0.5,0.5,0.0,0.43,0.0,0.83,1.0,0.67,0.0,0.67,0.0,0.33,0.75,0.4,0.0,0.25,0.33,0.5,1.0,1.0,0.4,0.5,0.0,0.0,0.75,0.14,0.0,0.5,0.6,0.0
19702,70.48,26.01,W Sáami,0.08,0.0,0.0,0.25,0.0,0.0,0.0,0.0,0.0,1.0,0.86,0.0,0.0,0.0,0.67,0.83,0.67,1.0,0.67,0.5,0.6,0.0,0.5,0.67,0.5,0.4,1.0,0.8,1.0,1.0,0.0,0.5,0.71,0.5,0.25,0.6,0.75
19724,56.71,24.81,Latvian,0.08,0.0,0.0,1.0,0.75,0.75,0.0,0.0,0.0,0.25,0.43,0.14,0.0,0.0,0.67,0.92,0.67,1.0,0.0,0.25,0.4,0.0,1.0,0.67,0.5,0.4,1.0,1.0,1.0,0.25,1.0,0.5,0.71,0.5,0.5,0.6,0.5
19746,33.98,35.63,Lebanese Maronite,0.42,0.0,0.0,0.5,0.75,0.75,0.0,0.0,0.0,0.5,0.43,0.14,0.5,0.0,0.67,0.17,0.33,0.0,0.0,0.25,0.4,0.0,0.5,0.67,0.5,1.0,1.0,1.0,1.0,0.5,1.0,0.75,0.71,0.0,0.5,0.6,0.5
19790,-16.3,167.51,Mbotgote,0.58,0.75,0.27,1.0,0.5,0.5,1.0,0.75,1.0,0.75,1.0,0.43,0.5,0.86,0.67,0.83,0.33,1.0,0.83,0.75,0.6,0.6,0.75,1.0,0.75,0.0,0.8,0.4,0.5,0.75,1.0,1.0,0.43,0.5,0.5,0.8,1.0
19801,1.57,30.23,Lendu,0.08,0.62,0.09,0.25,0.0,0.0,1.0,0.0,0.0,0.25,0.86,0.0,0.67,0.0,1.0,0.5,0.83,1.0,0.33,0.5,0.6,0.0,1.0,0.67,0.25,0.4,0.8,0.8,1.0,0.25,1.0,0.75,0.71,0.5,0.25,0.8,0.5
19856,2.72,30.64,Lese,1.0,0.0,0.0,1.0,0.5,1.0,0.0,0.0,0.0,1.0,0.43,1.0,0.0,0.0,1.0,1.0,0.83,1.0,1.0,0.5,0.6,1.0,1.0,0.67,0.75,1.0,1.0,0.8,0.0,1.0,1.0,0.75,0.71,0.5,0.5,0.2,0.75
19889,39.9,116.4,Li,0.08,0.0,0.0,0.25,0.0,0.0,0.0,0.0,0.0,0.5,1.0,0.0,0.0,0.0,0.67,0.25,0.67,0.6,0.67,0.5,0.2,0.0,0.5,0.33,0.75,0.0,1.0,0.8,0.0,0.5,0.0,0.25,0.43,0.5,0.5,0.2,0.75
19922,44.4,8.94,Genoa,1.0,0.0,0.0,1.0,1.0,1.0,0.0,0.0,0.0,0.75,0.86,1.0,0.0,0.0,0.67,0.08,0.17,0.0,0.83,1.0,0.4,1.0,0.5,0.83,0.75,1.0,1.0,1.0,0.0,0.75,1.0,1.0,1.0,0.83,0.75,0.2,0.75
19966,22.81,108.36,Lisu,0.58,0.0,0.0,1.0,0.5,0.5,0.0,0.0,0.0,0.25,1.0,0.43,0.0,0.0,,0.33,0.33,0.3,0.67,0.5,1.0,0.8,0.5,0.17,0.75,0.0,1.0,0.8,1.0,0.25,0.33,0.5,0.71,0.5,0.5,0.6,0.75
19977,56.32,22.01,Žemaitija,0.92,0.0,0.0,1.0,0.75,0.75,0.0,0.0,0.0,0.0,0.43,0.14,0.0,0.0,0.67,1.0,0.67,1.0,0.0,0.25,0.4,1.0,1.0,0.83,0.5,1.0,1.0,1.0,0.5,0.0,1.0,0.5,0.71,1.0,1.0,0.6,0.5
20032,22.81,108.36,Yi,0.75,0.0,0.0,1.0,0.5,0.25,0.0,0.0,0.0,0.25,0.86,1.0,0.0,0.0,0.67,0.33,0.17,0.2,0.0,0.75,0.6,1.0,0.5,0.17,0.75,0.0,1.0,0.0,0.5,0.25,0.0,0.5,0.43,0.33,0.5,0.6,0.5
20087,57.42,-2.38,Lowland Scotland,0.08,0.0,0.0,0.25,0.0,0.0,0.0,0.0,0.0,0.0,0.43,0.0,0.0,0.0,0.67,0.33,0.33,0.4,0.67,0.75,0.4,0.0,1.0,0.67,0.5,0.2,1.0,0.8,1.0,0.0,1.0,0.75,0.71,0.5,0.25,0.6,0.5
20098,-18.35,26.5,Lozi,0.58,0.12,0.09,1.0,1.0,1.0,1.0,0.0,0.0,0.5,0.43,0.14,0.5,0.0,0.67,0.08,0.67,1.0,0.67,0.5,0.6,0.4,1.0,0.67,0.5,1.0,1.0,0.8,1.0,0.5,1.0,0.5,0.86,0.33,0.25,0.6,0.75
20109,18.27,98.11,Lua,0.42,0.0,0.0,0.25,0.0,0.0,0.0,0.0,0.0,0.0,0.86,0.0,0.0,0.0,0.67,0.75,0.67,0.9,0.0,0.25,0.6,0.0,1.0,0.17,0.75,0.2,1.0,0.4,0.0,0.0,0.33,0.75,0.71,0.0,0.25,0.6,0.5
20131,18.27,98.11,Luba-Katanga,0.58,0.25,0.27,1.0,1.0,1.0,0.5,1.0,1.0,0.25,0.86,0.14,0.5,0.71,0.67,0.33,0.83,0.3,0.33,0.5,0.4,0.8,1.0,0.83,0.5,1.0,1.0,0.8,0.5,0.25,1.0,0.75,0.71,0.5,0.5,0.6,0.5
20142,-10.71,25.46,Hemba,0.75,0.88,0.82,1.0,1.0,1.0,1.0,1.0,1.0,0.25,0.43,0.0,0.5,0.57,0.67,0.75,0.67,1.0,0.0,0.5,0.4,0.6,1.0,0.83,0.5,1.0,1.0,0.8,1.0,0.25,1.0,0.5,0.71,0.5,0.5,0.6,0.5
20153,40.49,16.45,Lucania,0.58,0.62,0.09,1.0,0.25,0.5,1.0,0.0,0.0,0.0,0.86,0.43,0.5,0.0,0.67,0.75,0.0,0.9,0.0,0.25,0.4,0.4,0.5,0.33,1.0,0.2,1.0,0.0,0.5,0.0,1.0,0.0,0.14,0.0,0.0,0.2,0.5
20219,-5.04,20.71,Luba-Lulua,0.75,0.12,0.27,1.0,1.0,1.0,1.0,1.0,1.0,0.5,0.43,0.14,0.5,0.57,1.0,0.75,0.83,1.0,0.0,0.5,0.6,0.8,1.0,0.83,0.5,1.0,1.0,0.8,1.0,0.5,1.0,0.5,0.71,0.5,0.25,0.6,0.75
20230,-12.02,24.52,Lunda,0.75,0.12,0.27,1.0,1.0,1.0,1.0,1.0,1.0,0.5,0.43,0.14,0.5,0.86,0.67,0.75,0.67,1.0,0.83,0.5,0.4,0.6,1.0,0.67,0.75,1.0,1.0,0.8,1.0,0.5,1.0,0.75,0.86,0.5,0.5,0.6,0.5
20241,-0.09,34.76,Luo,0.08,0.88,0.27,0.25,0.0,0.0,0.5,0.0,1.0,0.25,0.86,0.0,0.5,0.0,0.67,0.5,0.67,0.9,0.0,0.5,0.4,0.0,1.0,0.83,0.5,1.0,1.0,1.0,1.0,0.25,1.0,0.5,0.71,0.5,0.25,0.6,0.75
20252,-11.77,19.89,Luvale,0.08,0.12,0.09,1.0,1.0,1.0,1.0,0.0,0.0,0.5,0.86,0.14,0.5,0.0,0.67,0.08,0.83,0.0,0.0,0.5,0.4,0.8,1.0,0.67,0.75,1.0,1.0,0.8,0.5,0.5,1.0,0.5,0.86,0.5,0.75,0.2,0.75
20318,41.51,20.52,Slavic Macedonian,0.08,0.0,0.0,0.25,0.0,0.0,0.0,0.0,0.0,0.25,0.86,0.0,0.0,0.0,0.67,0.33,0.17,1.0,0.33,0.75,0.4,0.0,0.5,0.67,0.5,0.4,1.0,0.8,0.5,0.25,1.0,0.75,0.71,0.5,0.75,0.6,0.5
20362,-5.22,145.78,Madang,0.42,0.25,0.27,0.5,0.5,0.5,0.75,0.25,0.5,0.75,0.0,0.0,0.83,0.57,1.0,0.0,0.0,0.0,0.0,0.25,0.2,0.0,0.5,0.33,0.5,0.4,0.4,0.8,0.5,0.75,1.0,0.75,0.14,0.33,0.25,0.6,0.75
20417,8.49,123.3,Maguindanao,0.08,0.0,0.0,0.25,0.0,0.0,0.0,0.0,0.0,0.0,1.0,0.0,0.0,0.0,0.67,0.0,0.0,0.0,0.33,0.5,0.2,0.0,0.0,0.33,0.75,0.0,1.0,0.4,0.0,0.0,0.33,0.75,0.14,0.33,0.5,0.6,0.0
20439,-23.72,44.31,Mahafaly,0.75,0.0,0.0,1.0,0.75,0.5,0.0,0.0,0.0,0.5,0.86,0.14,0.0,0.0,0.67,0.58,0.67,1.0,0.0,0.5,0.6,0.0,1.0,0.83,0.25,0.4,1.0,0.8,0.5,0.5,1.0,0.75,0.86,0.5,0.5,0.8,0.75
20477,6.17,35.58,Dizi,1.0,1.0,1.0,1.0,0.75,0.75,1.0,1.0,0.75,1.0,0.57,1.0,0.67,0.71,0.67,1.0,0.67,0.9,0.0,0.75,0.6,1.0,1.0,0.67,0.75,0.4,1.0,0.8,0.0,1.0,0.33,0.75,0.71,0.5,0.75,0.6,1.0
20516,-4.63,151.98,Makolkol,0.83,0.75,0.55,1.0,0.25,0.0,0.75,0.5,0.0,0.0,1.0,0.43,1.0,0.29,0.67,0.0,0.0,0.0,0.0,0.5,0.6,1.0,1.0,0.83,0.75,0.0,0.0,0.4,0.5,0.0,1.0,0.5,0.0,0.0,0.0,0.2,0.25
20571,2.45,102.16,Malay,0.58,0.25,0.36,0.25,0.0,0.0,0.5,0.5,0.25,0.0,1.0,0.0,0.5,0.57,0.67,0.0,0.33,0.0,0.0,0.25,0.2,0.0,0.0,0.33,0.5,0.0,1.0,0.0,0.0,0.0,0.0,0.5,0.0,0.0,0.25,0.6,0.0
20604,-16.3,167.51,Namba Unknown,0.33,0.62,0.0,0.5,0.75,0.5,0.0,0.0,0.0,1.0,0.86,0.14,0.83,0.0,0.67,0.33,0.33,0.3,0.0,0.5,0.6,0.0,1.0,0.33,0.25,0.4,1.0,0.4,1.0,1.0,1.0,0.75,0.71,0.5,0.5,0.8,0.5
20615,7.0,-9.47,Malinke,0.08,1.0,0.27,0.25,0.0,0.0,1.0,1.0,1.0,0.5,0.43,0.14,0.5,0.71,0.67,0.0,0.67,1.0,0.0,0.5,0.4,0.0,1.0,0.67,0.75,1.0,1.0,0.8,1.0,0.5,1.0,0.5,0.71,0.33,0.25,0.2,0.75
20626,39.71,2.62,Mallorca,0.58,0.0,0.0,0.25,0.0,0.0,0.0,0.0,0.0,0.0,1.0,0.0,0.0,0.0,0.67,0.75,0.17,0.9,0.0,0.5,0.2,0.0,0.75,0.17,0.75,0.0,1.0,0.8,0.0,0.0,1.0,0.5,0.71,0.33,0.25,0.6,0.25
20681,-4.03,21.75,Mamvu,0.75,0.88,0.09,1.0,0.75,0.75,1.0,0.0,0.0,0.25,0.43,1.0,0.67,0.0,1.0,0.75,0.83,1.0,0.0,0.5,0.6,0.0,1.0,0.67,0.25,1.0,1.0,0.4,0.0,0.25,1.0,0.75,0.86,0.5,0.25,0.8,0.75
20714,43.7,126.19,Manchu,0.25,0.0,0.0,0.25,0.0,0.0,0.0,0.0,0.0,0.25,0.86,0.0,0.0,0.0,1.0,0.75,0.33,0.9,0.33,0.25,0.4,0.0,0.5,0.83,0.75,0.4,1.0,0.4,0.5,0.25,0.0,0.5,0.43,0.5,0.25,0.2,0.75
20758,-23.1,-134.97,Mangareva,0.33,0.0,0.0,0.5,0.75,1.0,0.0,0.0,0.0,0.5,0.86,0.14,0.0,0.0,0.67,0.83,0.33,0.9,0.67,0.25,0.4,0.0,1.0,0.67,0.25,1.0,1.0,1.0,1.0,0.5,1.0,0.5,0.71,0.5,0.75,0.8,0.25
20791,7.1,125.03,Manobo,0.08,0.0,0.0,0.25,0.0,0.0,0.0,0.0,0.0,0.0,1.0,0.0,0.0,0.0,0.67,0.0,0.0,0.0,0.67,0.75,1.0,0.0,0.75,0.17,0.5,0.0,1.0,0.4,0.0,0.0,1.0,0.5,0.71,0.33,1.0,0.6,0.25
20802,-2.56,147.28,Mantankor,0.33,0.0,0.0,1.0,1.0,1.0,0.0,0.0,0.0,0.25,1.0,0.14,0.0,0.0,1.0,0.5,0.67,1.0,0.33,0.5,0.4,0.8,0.75,0.67,0.0,0.0,1.0,0.8,0.5,0.25,0.33,0.5,0.71,0.83,0.75,1.0,0.75
20813,-2.09,146.87,Manus,0.42,0.0,0.0,0.5,0.5,0.0,0.0,0.0,0.0,0.0,1.0,0.14,0.0,0.0,0.67,0.83,0.33,1.0,0.0,0.0,0.4,0.0,1.0,0.67,0.25,0.0,1.0,0.8,1.0,0.0,1.0,0.75,0.43,0.5,0.25,0.8,0.25
20818,-3.88,130.92,Manuwoko,0.08,0.62,0.09,0.25,0.0,0.0,0.25,0.0,0.0,0.5,1.0,0.0,0.5,0.0,0.67,0.58,0.67,0.6,0.0,0.25,0.2,0.0,0.5,0.33,0.75,0.0,0.4,0.4,0.5,0.5,0.33,0.5,0.71,0.33,0.5,0.8,0.5
20829,22.81,108.36,Maonan,0.42,0.0,0.0,1.0,0.75,1.0,0.0,0.0,,0.5,0.86,0.14,0.0,0.0,0.67,0.92,0.33,1.0,0.0,0.25,0.4,0.8,1.0,0.83,0.5,0.4,1.0,1.0,1.0,0.5,1.0,0.5,0.43,0.5,1.0,0.6,0.25
20832,-10.13,148.82,Maopa,0.33,0.12,0.36,1.0,0.75,0.75,0.5,0.0,0.0,0.75,0.86,0.14,0.83,0.14,0.67,0.83,0.33,1.0,0.0,0.5,0.2,0.2,0.25,0.67,0.25,0.4,1.0,0.8,0.5,0.75,1.0,0.75,0.71,0.33,0.25,0.6,0.75
20835,-39.23,175.6,Maori,0.42,0.0,0.0,0.5,1.0,1.0,0.0,0.0,0.0,0.0,1.0,0.14,0.0,0.0,0.0,0.83,0.17,0.0,0.0,0.25,0.2,0.0,1.0,0.17,0.25,0.0,1.0,0.4,1.0,0.0,1.0,0.75,0.71,1.0,1.0,0.8,0.25
20879,-4.98,145.19,Maring,0.58,0.0,0.0,0.5,0.5,0.25,0.0,0.0,0.0,0.75,0.86,0.14,0.0,0.0,0.67,0.83,0.67,1.0,0.0,0.25,0.4,0.0,0.75,0.67,0.0,0.0,1.0,0.4,0.0,0.75,1.0,0.5,0.71,0.5,0.5,0.2,1.0
20890,-6.73,146.96,Markham River,0.42,0.0,0.0,0.5,0.25,0.25,0.0,0.0,0.0,0.5,1.0,0.43,0.0,0.0,0.33,0.08,0.33,0.0,0.67,0.75,0.2,0.0,1.0,0.17,0.75,0.0,1.0,0.0,0.5,0.5,1.0,0.5,0.0,0.0,0.0,0.2,1.0
20901,-9.78,-139.08,Marquesas,0.75,0.0,0.0,0.5,0.75,0.75,0.25,0.0,0.0,0.25,0.86,0.14,0.0,0.0,0.67,0.83,0.67,0.9,0.0,0.25,0.0,0.0,1.0,0.83,0.5,0.4,1.0,1.0,0.5,0.25,1.0,0.75,0.71,0.5,0.5,0.6,0.75
20923,8.71,167.73,Marshall,0.08,0.0,0.0,0.25,0.0,0.0,0.0,0.0,0.0,0.25,0.86,0.0,0.0,0.0,0.67,0.42,0.33,0.3,0.67,0.5,0.4,0.0,1.0,0.67,0.25,0.4,0.0,1.0,1.0,0.25,1.0,0.75,0.43,0.83,0.75,0.6,0.5
20934,14.6,-60.89,Martinique Urban Creole,0.08,0.38,0.82,0.25,0.0,0.0,1.0,0.5,0.75,0.5,0.43,0.0,0.5,0.71,0.67,0.42,0.33,0.9,0.0,0.5,0.6,0.0,1.0,0.67,0.5,1.0,1.0,1.0,1.0,0.5,1.0,0.25,0.71,0.5,0.5,0.6,0.5
20945,11.85,14.84,Masa,0.83,0.12,0.36,0.5,0.5,0.75,0.5,0.75,0.75,0.75,0.43,0.14,0.5,0.14,1.0,0.75,0.83,1.0,0.0,0.5,0.4,0.0,1.0,0.67,0.75,0.4,1.0,0.4,1.0,0.75,1.0,0.5,0.43,0.33,0.25,0.2,0.5
20956,-2.65,37.26,Maasai,0.75,0.0,0.0,1.0,0.75,1.0,0.0,0.0,0.0,1.0,0.43,0.57,0.0,0.0,0.67,0.92,0.83,1.0,0.0,0.5,1.0,0.2,1.0,0.83,0.75,1.0,1.0,0.8,1.0,1.0,1.0,0.75,0.71,1.0,0.5,0.2,0.75
20967,-3.38,36.68,Arusa Masai,0.75,0.0,0.0,1.0,1.0,1.0,0.0,0.0,0.0,0.5,0.43,0.14,0.0,0.0,0.67,0.5,0.67,1.0,0.0,0.75,0.6,0.6,1.0,0.67,0.75,1.0,1.0,0.8,1.0,0.5,0.33,0.75,0.86,0.83,0.25,0.2,0.75
20978,-10.95,151.06,Massim,0.58,0.12,0.09,1.0,0.75,0.75,0.25,0.0,0.0,0.5,1.0,0.14,0.17,0.0,0.0,0.17,0.67,0.0,0.0,0.5,0.4,0.2,0.75,0.33,0.5,0.4,1.0,0.4,1.0,1.0,1.0,0.75,0.14,0.33,0.5,0.6,0.25
20989,-26.18,-58.22,Wichí,0.08,0.0,0.0,0.25,0.0,0.0,0.0,0.0,0.0,1.0,0.43,0.0,0.0,0.0,0.67,0.42,0.67,0.9,0.0,0.5,1.0,0.0,1.0,0.83,0.75,1.0,1.0,0.8,0.5,1.0,0.33,0.75,0.71,0.5,0.5,0.2,0.75
21033,20.68,-88.2,Yucatan Maya,0.08,0.0,0.0,0.25,0.0,0.0,0.0,0.0,0.0,0.0,0.86,0.0,0.0,0.0,0.67,0.42,0.67,0.0,0.67,0.5,0.4,0.0,1.0,0.33,0.25,0.4,1.0,1.0,1.0,0.0,1.0,0.75,0.71,0.33,0.25,0.6,0.25
21044,3.58,28.29,Mayogo,0.75,0.12,0.27,1.0,1.0,1.0,1.0,0.75,1.0,0.5,0.43,1.0,0.5,0.71,1.0,1.0,0.67,1.0,0.33,0.75,0.6,1.0,1.0,0.67,0.5,1.0,1.0,0.4,0.5,0.5,0.33,0.75,0.86,0.5,0.5,0.8,0.75
21055,18.13,-96.84,Mazateco,0.08,0.0,0.0,0.25,0.0,0.0,0.0,0.0,0.0,0.5,0.43,0.0,0.0,0.0,0.67,0.42,0.67,0.4,0.67,0.25,0.6,0.0,1.0,0.67,0.25,0.4,1.0,1.0,1.0,0.5,1.0,0.75,0.14,0.33,0.25,0.6,0.5
21077,-4.16,18.8,Mbala,1.0,1.0,0.91,1.0,0.75,1.0,1.0,0.75,1.0,0.5,0.86,0.14,0.5,0.86,0.67,0.5,0.83,1.0,0.33,0.5,0.6,0.4,1.0,0.83,0.75,1.0,1.0,1.0,1.0,0.5,1.0,0.75,0.71,0.5,0.25,0.2,0.75
21093,-4.64,26.36,Mboko Sawa,0.08,0.88,0.09,0.25,0.0,0.0,1.0,0.0,0.0,0.5,0.43,0.0,0.5,0.0,0.67,0.92,0.67,1.0,0.0,0.25,0.4,0.0,1.0,0.67,0.25,1.0,1.0,1.0,1.0,0.5,1.0,0.75,0.71,0.5,0.5,0.6,0.5
21110,7.75,15.13,Mbum,0.42,0.38,0.91,1.0,1.0,1.0,1.0,1.0,1.0,1.0,0.43,0.14,0.67,0.86,1.0,0.92,0.67,1.0,0.0,0.5,0.6,0.0,1.0,0.83,0.75,1.0,1.0,1.0,1.0,1.0,1.0,0.5,0.71,1.0,1.0,0.6,1.0
21132,2.72,30.64,Mbuti,1.0,0.0,0.0,1.0,1.0,1.0,0.0,0.0,0.0,1.0,0.43,1.0,0.0,0.0,0.67,1.0,0.83,1.0,1.0,0.75,1.0,1.0,1.0,0.67,0.75,1.0,1.0,0.8,0.0,1.0,1.0,0.75,1.0,0.5,0.75,0.8,0.75
21170,29.26,0.22,Meherza,1.0,1.0,1.0,1.0,0.5,0.75,1.0,0.5,0.75,0.75,0.43,0.14,0.5,0.86,0.67,1.0,0.83,0.9,0.83,0.25,1.0,1.0,1.0,0.83,0.75,1.0,1.0,0.8,0.5,0.75,1.0,0.75,0.43,0.5,0.5,0.2,0.75
21176,24.66,93.9,Meitei,0.08,0.75,0.09,0.25,0.0,0.0,1.0,0.0,0.0,0.25,1.0,0.0,1.0,0.71,0.67,0.5,0.67,0.9,0.0,0.5,0.6,0.0,0.25,0.67,0.5,0.0,0.0,0.4,1.0,0.25,0.0,0.5,0.86,0.33,0.5,0.8,0.5
21187,-9.13,147.46,Mekeo,0.58,0.0,0.0,1.0,0.75,0.5,0.0,0.0,0.0,0.0,1.0,0.14,0.0,0.0,0.0,0.75,0.0,1.0,0.0,0.25,0.4,0.2,0.75,0.17,0.5,0.0,1.0,0.4,0.5,0.0,1.0,0.5,0.14,0.83,0.5,0.6,0.25
21198,7.86,-11.19,Mende,0.67,0.25,0.27,1.0,1.0,0.75,0.5,0.75,1.0,0.5,0.43,0.14,0.5,0.71,0.67,0.92,0.83,1.0,0.33,0.5,0.6,0.0,1.0,0.67,0.75,1.0,1.0,0.8,1.0,0.5,1.0,0.5,0.71,0.5,0.5,0.6,0.75
21209,45.01,-88.89,Mamaceqtaw,0.33,0.62,0.09,0.5,0.5,0.5,0.5,0.0,0.0,0.75,0.86,0.14,0.5,0.0,0.33,0.42,0.67,0.0,0.0,0.5,1.0,0.0,1.0,0.67,0.75,1.0,1.0,0.8,1.0,0.75,1.0,0.75,0.71,0.5,0.5,0.6,0.75
21220,-0.58,101.34,Mentawai,0.08,0.0,0.0,0.25,0.0,0.0,0.0,0.0,0.0,0.25,1.0,0.0,0.0,0.0,0.67,0.33,0.17,0.9,0.0,0.5,0.6,0.0,1.0,0.33,0.5,0.0,0.0,0.4,0.0,0.25,0.33,0.75,0.71,0.33,0.25,0.6,0.25
21231,20.06,102.62,Hmong,0.08,0.62,0.45,0.25,0.0,0.0,1.0,0.0,0.0,0.0,0.86,0.0,0.5,0.0,0.67,0.0,0.33,0.0,0.67,0.5,0.6,0.0,0.5,0.83,0.5,0.4,0.8,0.8,1.0,0.0,0.33,0.75,0.43,0.0,0.5,0.6,0.25
21242,-19.87,47.02,Merina,0.42,0.12,0.09,1.0,1.0,0.75,1.0,1.0,1.0,0.25,0.43,0.14,0.5,0.57,0.67,0.42,0.33,0.0,0.0,0.75,0.4,0.6,1.0,0.83,1.0,1.0,1.0,0.4,0.5,0.25,1.0,0.5,0.71,1.0,0.75,0.8,0.25
21253,-3.38,36.68,Meru,1.0,0.12,0.09,1.0,0.75,0.75,0.25,0.0,,1.0,0.43,0.86,0.5,0.14,1.0,1.0,0.83,1.0,0.67,1.0,0.2,0.2,0.25,0.67,0.75,1.0,1.0,0.4,0.0,1.0,0.33,0.75,1.0,0.5,0.75,0.6,1.0
21286,41.96,-92.57,Meshkwahkihaki,0.08,0.62,0.09,0.25,0.0,0.0,0.25,0.0,0.0,0.75,0.43,0.0,0.17,0.0,0.67,0.42,0.67,0.6,0.67,0.5,0.6,0.0,0.75,0.67,0.75,0.4,0.8,1.0,1.0,0.75,0.33,0.75,0.86,0.5,0.5,0.2,0.75
21291,17.55,-99.5,Guerrero,0.42,0.12,0.36,1.0,1.0,1.0,1.0,1.0,1.0,0.0,0.86,0.14,0.5,0.57,0.67,0.08,0.33,0.6,0.0,0.5,0.4,0.6,1.0,0.67,0.25,0.4,0.8,0.8,1.0,0.0,1.0,0.5,0.71,0.83,0.75,0.8,0.5
21319,19.91,99.84,Miao (Thailand),0.08,0.0,0.0,0.25,0.25,0.0,0.0,0.0,0.0,0.75,0.86,0.0,0.0,0.0,0.67,0.5,0.67,0.9,1.0,0.75,0.4,0.0,0.75,0.83,0.5,0.4,1.0,0.8,0.5,0.75,0.0,0.5,1.0,0.33,0.5,0.6,0.25
21341,19.91,99.84,Middle Wahgi,0.42,0.75,0.55,0.5,0.75,0.75,0.5,0.0,0.5,1.0,0.86,0.14,0.17,0.0,0.67,0.92,0.33,1.0,0.0,0.25,0.4,0.0,1.0,0.33,0.75,1.0,1.0,0.8,1.0,1.0,1.0,0.5,0.86,1.0,0.75,0.2,1.0
21385,-0.58,101.34,Minangkabau,0.08,0.62,0.09,0.25,0.0,0.0,0.25,0.0,0.0,0.25,0.86,0.0,0.83,0.0,0.67,0.33,0.67,0.0,0.33,0.5,0.2,0.0,0.25,0.17,0.25,0.0,0.0,0.4,0.5,0.25,0.33,0.5,0.14,0.33,0.5,0.6,0.25
21440,12.01,-83.77,Miskito,0.08,0.88,0.09,0.25,0.0,0.0,1.0,0.0,0.0,0.25,0.43,0.0,0.5,0.0,0.67,0.33,0.83,1.0,0.0,0.5,0.4,0.0,1.0,0.83,0.5,0.4,1.0,0.8,1.0,0.25,1.0,0.5,0.43,0.33,0.25,0.6,0.25
21484,17.07,-96.72,Mixtec,0.08,0.12,0.09,0.25,0.0,0.0,1.0,0.0,0.0,0.25,0.86,0.0,0.83,0.0,0.67,0.83,0.17,0.9,0.33,0.5,0.4,0.0,1.0,1.0,0.75,1.0,1.0,0.8,1.0,0.25,0.33,0.5,0.43,0.5,0.25,0.2,0.25
21506,12.71,108.23,Mnong,0.08,0.0,0.0,0.25,0.0,0.0,0.0,0.0,0.0,0.0,1.0,0.0,0.0,0.0,0.67,0.0,0.17,0.0,0.0,0.25,0.2,0.0,0.0,0.83,0.25,0.0,1.0,0.8,0.0,0.0,1.0,0.5,0.14,0.0,0.25,0.8,0.25
21594,34.15,-114.28,Aha Makhav,0.08,0.12,0.09,0.25,0.0,0.0,0.25,0.0,0.0,0.75,0.86,0.0,0.5,0.0,0.67,0.67,0.67,0.0,0.33,0.5,0.6,0.0,1.0,0.67,0.5,1.0,1.0,0.4,1.0,0.75,1.0,0.5,0.71,0.33,0.25,0.6,0.5
21647,47.88,106.9,Mongols,0.08,0.12,0.09,0.25,0.0,0.0,1.0,0.0,0.0,0.0,1.0,0.0,0.5,0.0,0.67,0.42,0.33,0.6,0.0,0.75,0.4,0.0,1.0,0.67,0.75,0.0,1.0,0.4,0.0,0.0,0.0,0.75,0.71,0.33,0.75,0.2,1.0
21665,-4.41,140.01,Moni,1.0,0.0,0.0,1.0,0.5,0.25,0.0,0.0,0.0,0.25,1.0,1.0,0.0,0.0,1.0,0.75,0.33,0.9,0.67,0.75,0.6,1.0,1.0,0.67,0.25,0.0,0.0,0.4,0.5,0.25,1.0,1.0,0.14,0.5,0.5,0.8,1.0
21693,49.19,16.6,Moravian,0.08,0.25,0.27,0.25,0.0,0.0,1.0,1.0,0.0,0.0,0.43,0.0,0.5,0.0,0.67,0.42,0.33,0.7,0.67,0.5,0.4,0.0,1.0,0.33,0.5,1.0,1.0,1.0,1.0,0.0,1.0,0.5,0.86,0.83,0.5,0.6,0.25
21704,54.23,44.06,Mordovian,0.58,0.0,0.0,1.0,1.0,1.0,0.0,0.0,0.0,0.0,0.43,0.14,0.0,0.0,0.67,0.42,0.67,0.6,1.0,1.0,0.4,1.0,1.0,0.33,0.75,1.0,1.0,1.0,0.5,0.0,0.33,0.75,0.86,0.5,0.75,0.2,0.25
21737,31.43,-6.93,Moroccan Berbers,0.58,0.12,0.09,0.5,0.5,0.25,1.0,0.0,0.0,0.75,0.43,0.14,0.5,0.0,0.67,0.67,0.67,1.0,0.0,0.25,0.2,0.0,0.0,0.83,1.0,1.0,1.0,0.0,1.0,0.75,0.33,0.5,0.0,0.0,0.0,0.2,0.75
21814,10.0,-73.0,Barí,0.42,0.0,0.0,1.0,0.5,1.0,0.0,0.0,0.0,0.75,0.86,0.14,0.0,0.0,0.67,0.92,0.67,1.0,0.67,0.5,1.0,0.8,1.0,0.67,0.25,1.0,1.0,1.0,1.0,0.75,0.0,0.5,0.71,0.33,0.25,0.8,1.0
21825,-8.81,146.53,Motu,0.42,0.0,0.0,1.0,0.75,1.0,0.0,0.0,0.0,0.25,0.86,0.14,0.0,0.0,0.67,0.83,0.17,1.0,0.0,0.25,0.4,0.0,1.0,0.33,0.25,1.0,1.0,0.8,0.5,0.25,1.0,0.5,0.71,0.33,0.25,0.6,0.5
21852,22.81,108.36,Mulam,0.33,0.0,0.0,1.0,0.75,0.75,0.0,0.0,0.0,0.0,0.86,1.0,0.0,0.0,0.67,0.42,0.17,0.6,0.0,0.5,0.4,0.2,0.75,0.67,0.75,0.2,1.0,0.8,0.0,0.0,0.33,0.5,0.43,0.0,0.5,0.2,0.25
21869,23.4,85.35,Munda,0.5,0.62,0.27,0.75,0.5,0.5,1.0,0.5,0.75,0.5,0.86,0.43,0.83,0.71,0.67,0.42,0.33,0.3,0.33,0.5,0.4,0.0,0.5,0.67,0.25,0.4,1.0,0.4,0.5,0.5,1.0,0.5,0.71,0.33,0.5,0.8,0.5
21891,2.72,30.64,Mundu,0.42,0.0,0.0,1.0,0.75,0.75,0.0,0.0,0.0,0.0,0.86,0.14,0.0,0.0,1.0,0.08,0.67,0.6,0.33,0.5,0.4,0.4,1.0,0.67,0.25,0.4,1.0,1.0,0.5,0.0,1.0,0.75,0.71,0.5,0.5,0.6,0.75
21913,12.71,108.23,Muong,0.08,0.0,0.0,0.25,0.0,0.0,0.0,0.0,0.0,0.25,1.0,0.0,0.0,0.0,0.67,0.58,0.83,0.9,0.67,0.25,0.2,0.0,0.25,0.67,0.25,0.0,1.0,0.4,0.0,0.25,0.33,0.5,0.14,0.33,0.75,0.8,0.75
21924,19.1,81.95,Muria Gond,0.42,0.0,0.0,0.5,0.75,0.75,0.0,0.0,0.0,0.75,0.86,0.14,0.0,0.0,0.67,0.92,0.33,0.9,0.0,0.5,0.6,0.0,0.75,0.67,0.75,0.4,0.0,0.4,0.5,0.75,1.0,0.5,0.43,0.5,0.5,0.6,0.5
21946,-9.91,144.04,Murray Islanders,0.42,0.12,0.09,1.0,0.75,0.75,0.25,0.0,0.0,0.75,0.86,0.14,0.17,0.0,0.0,0.42,0.67,0.6,0.33,0.5,0.4,0.2,0.75,0.33,0.25,1.0,1.0,0.4,1.0,0.75,1.0,0.75,0.71,0.83,0.5,0.8,0.75
21951,5.45,36.26,Mursi,0.83,0.75,0.45,0.5,0.75,0.75,0.0,0.25,0.0,0.25,0.86,0.14,1.0,0.0,0.67,0.67,0.83,1.0,0.33,0.5,1.0,0.0,1.0,0.67,0.75,0.2,0.0,0.8,0.5,0.25,1.0,0.75,0.71,0.5,0.5,0.2,1.0
21957,0.96,114.55,Nabai Murut,0.58,0.0,0.0,0.5,0.25,0.5,0.0,0.0,0.0,0.0,0.86,0.14,0.0,0.0,0.67,0.42,0.67,0.3,0.0,0.75,0.6,0.0,0.75,0.67,0.5,0.4,1.0,0.8,1.0,0.0,1.0,0.75,0.43,0.33,0.25,0.6,0.5
22045,-10.09,-53.3,Mebêngôkre,0.42,0.0,0.0,0.5,0.5,0.75,0.0,0.0,0.0,0.5,0.86,0.14,0.0,0.0,0.67,0.0,0.67,0.0,0.33,0.5,0.6,0.0,1.0,0.33,0.75,1.0,1.0,0.4,1.0,0.5,1.0,0.5,0.43,0.33,0.25,0.0,0.75
22056,36.65,117.12,Shandong,0.75,0.0,0.0,0.5,0.75,1.0,0.0,0.0,0.0,0.75,0.43,0.14,0.0,0.0,0.67,0.75,0.83,1.0,0.0,0.5,0.4,0.0,0.5,0.33,0.75,0.4,1.0,0.8,0.5,0.75,0.33,0.5,0.43,0.83,0.5,0.8,0.75
22060,-5.6,144.12,Madang Unidentified,0.58,0.12,0.36,0.5,0.25,0.25,0.5,1.0,1.0,0.5,0.43,0.14,0.17,0.14,1.0,0.83,0.0,1.0,0.67,0.5,0.6,0.0,0.5,0.67,0.75,0.4,1.0,0.4,0.5,0.5,0.33,0.0,0.14,1.0,0.25,0.0,0.75
22065,-5.6,144.12,Douro,0.58,0.0,0.0,1.0,0.75,0.75,0.0,0.0,0.0,0.0,0.43,0.14,0.0,0.0,1.0,0.42,0.33,0.6,1.0,0.5,0.4,0.8,1.0,0.83,0.5,1.0,1.0,0.8,1.0,0.0,1.0,0.5,0.86,0.5,1.0,0.6,0.25
22067,64.7,43.39,Komi,0.08,0.0,0.0,0.25,0.0,0.0,0.0,0.0,0.0,0.0,0.86,0.0,0.0,0.0,0.67,0.75,0.67,1.0,0.67,0.5,0.2,0.0,1.0,0.67,0.25,1.0,1.0,0.8,1.0,0.0,0.33,0.5,0.86,0.83,0.75,0.6,0.5
22100,26.21,127.72,Naha-shi,0.42,0.12,0.09,0.25,0.0,0.0,0.25,0.0,0.0,0.5,0.43,0.0,0.5,0.0,0.67,0.33,0.0,0.6,0.83,0.5,0.4,0.0,0.5,0.33,0.25,0.0,0.8,0.8,0.5,0.5,1.0,0.75,0.71,0.5,0.75,0.8,0.5
22133,-4.28,152.92,Namatanai,0.42,0.0,0.0,0.5,0.75,0.75,0.0,0.0,0.0,0.0,0.43,0.14,0.0,0.0,0.67,0.83,0.33,1.0,0.0,0.75,0.6,0.0,1.0,0.83,0.0,1.0,1.0,0.4,0.5,0.0,1.0,0.75,0.71,0.33,0.75,1.0,0.75
22166,0.2,35.09,Nandi,0.75,0.12,0.36,1.0,1.0,1.0,0.5,1.0,0.75,0.75,0.43,0.14,0.17,0.14,0.67,0.25,0.67,0.9,0.0,0.75,0.4,0.6,0.75,0.67,0.5,1.0,1.0,0.8,0.5,0.75,0.33,0.75,0.86,0.5,0.5,0.2,0.75
22188,40.85,14.26,Naples & Coast,0.08,1.0,1.0,0.25,0.0,0.0,1.0,0.0,0.0,0.0,0.43,0.0,0.5,0.0,0.67,0.17,0.67,0.0,1.0,0.75,0.4,0.0,0.75,0.33,0.5,0.4,0.8,0.8,0.5,0.0,1.0,0.5,0.71,0.83,1.0,0.6,0.25
22215,-9.47,147.2,Nasioi,1.0,1.0,1.0,1.0,1.0,0.75,1.0,0.75,1.0,1.0,0.86,1.0,0.83,1.0,0.67,0.83,0.67,0.3,0.33,0.5,0.6,1.0,1.0,0.67,0.75,1.0,1.0,1.0,0.0,1.0,1.0,0.25,0.71,0.5,0.5,0.8,0.75
22243,36.06,-109.18,Diné (Navaho),0.42,0.0,0.0,0.5,0.5,0.75,0.0,0.0,0.0,0.75,0.86,0.14,0.0,0.0,0.67,0.17,0.17,0.0,0.0,0.5,0.6,0.0,0.75,0.67,0.75,1.0,1.0,0.4,1.0,0.75,0.33,0.5,0.14,0.33,0.25,0.2,0.5
22248,22.81,108.36,Naxi,0.83,0.0,0.0,1.0,0.5,0.5,0.0,0.0,0.0,1.0,0.86,1.0,0.0,0.0,0.67,0.92,0.33,0.9,0.0,0.5,0.2,1.0,0.25,0.67,0.75,0.2,1.0,0.4,0.0,1.0,0.0,0.5,0.71,0.5,0.5,0.2,1.0
22254,43.27,26.93,N Bulgaria,0.08,0.12,0.27,0.25,0.0,0.0,1.0,0.75,0.5,0.0,1.0,0.0,1.0,0.29,0.0,0.33,0.0,0.6,0.0,0.5,0.2,0.0,0.25,0.17,0.5,0.0,0.0,0.0,0.0,0.0,1.0,0.5,0.86,1.0,1.0,0.6,0.5
22276,-20.45,32.71,Ndau,0.08,0.12,0.09,0.25,0.0,0.0,1.0,0.0,0.0,0.5,0.43,0.0,0.5,0.0,1.0,0.5,0.67,1.0,0.33,0.5,0.6,0.0,0.75,0.67,0.5,1.0,1.0,0.4,1.0,0.5,1.0,0.75,0.71,0.33,0.25,0.8,0.75
22331,3.73,29.7,Ndongo,0.75,0.88,0.91,0.25,0.0,0.0,1.0,0.75,1.0,0.25,0.86,0.0,0.5,0.86,1.0,0.75,0.67,1.0,0.33,0.75,0.6,0.0,0.75,0.67,0.75,1.0,1.0,0.4,0.5,0.25,1.0,0.75,0.71,0.5,1.0,0.2,0.5
22380,-4.51,154.2,Nehan,0.33,0.12,0.36,1.0,0.5,0.5,0.5,1.0,0.75,0.75,0.86,0.14,0.83,0.14,0.67,0.92,0.17,1.0,0.67,0.75,0.6,0.4,0.75,0.67,0.5,1.0,1.0,0.8,0.5,0.75,1.0,0.75,0.14,0.83,0.75,0.6,0.75
22386,27.71,85.32,Nepalese,0.42,0.25,0.27,0.5,0.5,0.75,0.5,1.0,1.0,0.0,0.43,0.14,0.5,0.14,0.0,0.83,0.33,1.0,0.0,0.25,0.4,0.0,0.75,1.0,0.0,1.0,1.0,0.8,0.0,0.0,1.0,0.5,0.71,1.0,1.0,1.0,0.75
22408,17.17,-62.55,St. Kitts and Nevis,0.75,0.0,0.0,1.0,0.5,0.75,0.0,0.0,0.0,0.5,0.43,0.14,0.0,0.0,0.67,0.42,0.33,1.0,0.33,0.5,0.4,0.6,1.0,0.67,0.5,1.0,1.0,1.0,1.0,0.5,1.0,0.5,0.71,0.5,0.25,0.6,0.5
22430,24.55,-104.65,New Mexico Folk,0.08,0.12,0.0,0.25,0.0,0.0,1.0,0.0,0.0,0.0,0.43,0.0,0.0,0.0,0.67,0.33,0.67,0.0,0.0,0.5,0.4,0.0,1.0,0.83,0.5,1.0,1.0,0.4,1.0,0.0,1.0,0.5,0.71,0.33,0.5,0.6,0.25
22457,53.13,-57.66,Newfoundlander,0.08,0.0,0.0,0.25,0.0,0.0,0.0,0.0,0.0,0.25,0.43,0.0,0.0,0.0,0.67,0.83,0.67,1.0,0.0,0.5,0.4,0.0,1.0,0.83,0.5,0.4,0.0,1.0,1.0,0.25,1.0,0.5,0.43,0.83,0.25,0.6,0.25
22463,53.13,-57.66,Kavieng,0.08,0.12,0.09,0.25,0.0,0.0,0.25,0.0,0.0,0.25,0.43,0.0,0.5,0.0,0.67,0.0,0.17,0.2,0.83,0.75,0.4,0.0,1.0,0.33,0.25,0.4,1.0,1.0,0.5,0.25,1.0,0.5,0.43,0.5,0.5,0.8,0.5
