,soc_id,lat,lng,Preferred_name,line_1,line_2,line_3,line_4,line_5,line_6,line_7,line_8,line_9,line_10,line_11,line_12,line_13,line_14,line_15,line_16,line_17,line_18,line_19,line_20,line_21,line_22,line_23,line_24,line_25,line_26,line_27,line_28,line_29,line_30,line_31,line_32,line_33,line_34,line_35,line_36,line_37
0,10000,-9.0,161.0,'Are'are,8192,2,2,8192,1024,1024,2,2,2,128,64,8192,2,2,512,32,128,512,2,1024,8192,8192,8192,512,16,512,8192,32,128,128,8192,1024,256,128,8192,8192,1024
1,10027,-1.29,36.82,Abaluhya,256,4,2048,128,128,1024,8192,128,8192,128,2048,8,64,2048,512,8,1024,2,16,128,128,2,8192,2048,128,8192,8192,8192,8192,128,8192,1024,256,8192,16,1024,1024
2,10033,-5.55,150.14,Abelam,256,2,2,128,128,8192,2,2,2,128,8192,8,2,2,512,2,2,2,2,128,1024,2,8192,2,1024,2,8192,2,8192,128,8192,128,64,1024,16,1024,8192
3,10055,43.0,41.02,Abkhazia,512,8,64,8192,8192,8192,128,8192,8192,128,64,8,8,8,512,4096,8192,2048,16,1024,128,1024,8192,512,1024,8192,8192,8192,8192,128,8192,1024,1024,8192,1024,16,16
4,10077,28.21,95.53,Adi,256,4,64,8192,1024,1024,128,2,1024,16,64,8,8,8,512,1024,1024,8192,2,128,1024,2,16,32,1024,8192,8192,32,128,16,8192,1024,64,16,128,128,128
5,10099,2.95,32.93,Acoli,4096,8192,32,128,1024,8192,8192,1024,8192,1024,2048,8,64,2048,512,1024,128,8192,2,1024,1024,2,8192,2048,128,8192,8192,512,128,1024,8192,128,256,128,128,128,1024
6,10137,9.31,42.12,Harari,1024,2,2,8192,8192,8192,2,2,2,16,8192,8192,2,2,512,16,128,256,2,128,128,8,128,NaN,8192,2,8192,32,2,16,2,128,64,128,128,16,128
7,10140,-6.8,146.56,Adzera,64,8,64,128,128,128,128,128,128,1024,2048,8,8,128,512,64,1024,256,16,128,16,2,8192,32,128,8192,8192,32,8192,1024,8192,128,256,16,16,16,8192
8,10143,11.75,40.95,Afar,1024,8,64,128,1024,8192,128,8192,1024,128,64,8,8,8,512,4096,8192,8192,2,128,1024,2,1024,512,128,8192,8192,512,128,128,128,1024,256,16,128,128,1024
9,10176,34.01,71.52,Afridi,128,256,128,1024,16,16,1024,16,128,2,8192,32,2048,128,2,32,2,2048,16,128,128,2,128,8,1024,2,32,2,128,2,8192,2,2,2,16,128,16
10,10209,44.08,144.02,Sakhalin Ainu,8192,2,2,8192,128,8192,2,2,2,1024,64,8192,2,2,512,8192,8192,8192,8192,16,128,8192,8192,32,16,8192,8192,8192,128,1024,2,1024,8,16,128,1024,1024
11,10220,-3.15,142.36,Aitape,4,2,2,16,2,2,2,2,2,128,2048,2,2,2,512,2048,1024,2048,2,16,1024,2,128,8,16,32,8192,512,128,128,8192,1024,256,128,128,8192,8192
12,10231,-20.68,164.94,Ajie,8192,8192,8192,8192,1024,8192,8192,8192,1024,1024,64,8192,64,512,512,2048,8192,8192,512,8192,1024,2,8192,2048,1024,512,512,512,8192,1024,8192,128,256,128,128,16,8192
13,10247,7.0,43.0,Ajuran,4096,256,64,1024,128,128,128,8192,16,8192,64,2048,8,8,512,2048,8192,8192,2,16,128,64,8192,2048,1024,8192,8192,512,128,8192,128,128,256,128,16,16,16
14,10264,-49.13,-74.45,Kawésqar,64,2,2,128,16,16,2,2,2,1024,2048,8,2,2,2,2048,16,2048,2,2,2,2,8192,32,16,32,8192,8192,8192,1024,8192,1024,64,128,16,8192,128
15,10286,-49.13,-74.45,Yup'ik,4,2,2,16,2,2,2,2,2,1024,2048,2,2,2,512,16,128,32,16,128,1024,2,1024,32,128,8192,8192,512,8192,1024,128,128,64,16,16,16,1024
16,10297,41.87,19.59,Ghegs,4,2,2,16,2,2,2,2,2,128,2048,2,2,2,512,2048,128,8192,16,128,128,2,128,32,128,32,8192,512,128,128,128,128,64,128,1024,1024,128
17,10374,46.62,8.04,Alpine Swiss,8192,2,2,8192,8192,8192,2,2,2,8192,64,8,2,2,512,64,16,8192,512,1024,128,8192,8192,8,16,32,8192,2,128,8192,8192,128,8192,8192,8192,1024,128
18,10396,3.03,29.54,Alur,4,256,4096,16,2,2,8192,8192,8192,2,2048,2,64,2048,8192,1024,8192,8192,2,16,128,2,8192,32,16,512,8192,32,8192,2,8192,128,256,128,128,1024,128
19,10407,-9.82,-73.08,Amahuaca,256,2,2,8192,128,16,2,2,2,1024,2048,32,2,2,512,2048,1024,8192,2,16,16,8192,8192,512,128,512,8192,32,2,1024,128,128,256,16,16,16,1024
20,10418,27.7,128.82,Amami,4,4,4,16,2,2,8192,2,2,2,64,2,64,2,512,2,128,2,2,1024,16,2,128,32,128,8192,8192,32,2,2,128,128,2,2,128,128,1024
21,10442,6.73,38.4,Koorete,1024,2,2,8192,16,1024,128,8192,1024,8192,8192,8,8,8,512,2048,1024,2048,2,1024,16,8,1024,2048,128,8192,8192,8192,8192,8192,2,8192,64,2,2,128,8192
22,10445,-13.2,49.05,Antankarana,4096,8,64,8192,1024,8192,128,1024,1024,1024,64,8192,64,8,2,256,128,8192,16,128,128,8192,8192,2048,1024,8192,8192,512,128,1024,8192,1024,64,16,16,1024,1024
23,10495,14.03,38.31,Amhara,256,8,32,16,2,2,8192,128,1024,128,64,2,64,128,512,256,1024,2,16,128,16,2,128,512,1024,8192,8192,512,128,128,128,128,8,16,128,128,16
24,10506,23.98,121.6,Ami,256,2,2,128,1024,8192,2,2,2,8192,2048,8,2,2,512,64,16,2048,2,1024,1024,2,8192,512,1024,8192,8192,512,128,8192,8192,128,256,128,8192,16,1024
25,10528,9.89,8.85,Anaguta,4,4,4,8192,2,2,8192,2,8192,8192,64,2,64,2048,512,2048,8192,8192,2,128,128,8192,8192,2048,16,512,8192,512,8192,8192,8192,128,1024,128,16,1024,8192
26,10555,39.62,66.97,Bukharan Jews,4,4,64,16,2,2,128,16,128,2,64,2,64,8,512,2,128,2,2,128,16,2,2,32,1024,32,512,2,2,2,128,2,2,2,16,16,16
27,10572,36.52,-6.28,Cadiz,4,8,64,16,2,2,8192,1024,8192,2,64,2,64,128,512,32,128,8,2,1024,16,2,16,2048,1024,32,8192,512,8192,2,8192,2,2,2,1024,16,128
28,10583,11.62,92.72,Jarawa,1024,2,2,8192,16,16,2,2,2,1024,2048,8,2,2,512,1024,128,2048,8192,1024,16,8,1024,512,8192,512,8192,32,8192,1024,128,16,8,16,1024,16,1024
29,10594,19.63,78.05,Andh,64,2,2,8192,16,128,2,2,2,16,2048,8,2,2,512,64,128,2,16,128,128,64,128,512,128,512,8192,512,128,16,8192,128,256,128,1024,128,1024
30,10605,24.7,-78.01,Andros,1024,2,2,8192,1024,1024,2,2,2,2,64,8192,2,2,512,32,128,64,512,1024,128,8192,8192,32,1024,8192,8192,512,8192,2,8192,8192,256,16,16,128,1024
31,10627,26.2,92.93,Angami Naga,64,256,256,128,16,16,1024,16,16,16,2048,8,8,32,512,1024,16,8192,2,16,128,2,16,512,1024,32,512,2,2,16,8192,128,8,1024,16,16,1024
32,10649,9.89,8.85,Angas,4,256,4,16,2,2,16,2,2,1024,64,2,8192,2,8192,4096,1024,8192,2,16,8192,2,1024,512,1024,8192,8192,8192,8192,1024,8192,128,256,128,128,16,1024
33,10671,18.21,-62.98,Anguilla,1024,8,64,8192,1024,1024,128,128,2,1024,64,8,8,8,512,4096,8192,8192,512,16,1024,2,8192,512,128,8192,8192,8192,8192,1024,8192,128,256,1024,128,16,128
34,10682,-0.49,30.49,Ankole,1024,4,4,8192,8192,8192,16,2,2,128,64,8,8,2,512,64,128,64,2,128,128,1024,8192,512,128,8192,8192,8192,8192,128,8192,128,256,128,128,128,128
35,10771,33.31,44.36,Iraq,4,256,256,16,2,2,1024,128,16,2,8192,2,8192,128,512,1024,2,2,2,128,16,2,2,2,1024,2,8192,32,2,2,2,16,64,16,16,128,8192
36,10814,-38.94,-72.33,Mapuche,4,2,2,16,2,2,2,2,2,1024,8192,2,2,2,32,1024,2,2048,2,128,1024,2,8192,32,128,2,8192,2,8192,1024,128,1024,256,16,1024,1024,1024
37,10825,-6.16,149.01,Arawe,4,2,2,16,2,2,2,2,2,128,64,2,2,2,512,2048,128,2048,512,128,1024,2,1024,512,16,512,8192,8192,128,128,8192,128,256,16,16,1024,16
38,10827,57.11,49.99,Kirovskaya,1024,2,2,8192,128,1024,2,2,2,16,64,8192,2,2,512,64,1024,64,512,128,128,8192,128,512,1024,8192,8192,32,2,16,128,128,1024,128,128,16,128
39,10847,57.11,49.99,Tucuman Gaucho,4,4,4,16,2,2,16,2,2,2,2048,2,2048,2,512,2048,1024,8192,2,16,128,2,8192,32,1024,512,8192,512,8192,2,8192,128,64,16,16,128,1024
40,10858,44.43,24.37,Arges,4,2,2,16,2,2,2,2,2,2,8192,2,2,2,512,64,1024,2,16,128,128,2,16,8,128,2,8192,512,128,2,128,1024,1024,1024,1024,1024,128
41,10885,40.18,44.51,Armenia,256,4,32,128,1024,1024,128,128,128,2,64,8,64,128,2,2,128,2,16,128,128,2,128,2048,1024,8192,8192,32,8192,2,8192,128,8,128,1024,16,16
42,10891,-3.15,129.38,Aru,256,512,64,128,16,16,128,128,1024,2,8192,8,64,8,512,32,128,256,2,16,1024,2,16,512,8192,2,8192,2,2,2,8192,16,2,16,16,128,128
43,10902,43.81,28.21,Aromanian,1024,2,2,8192,128,16,2,2,2,16,2048,32,2,2,512,1024,128,8192,2,128,128,8192,16,512,1024,512,2,32,128,16,128,1024,256,128,128,16,16
44,10929,7.93,39.65,Arsi,4,2,2,16,2,2,2,2,2,1024,2048,2,2,2,512,2048,128,2048,8192,1024,8192,2,1024,2048,1024,512,2,8192,2,1024,2,1024,256,128,16,128,128
45,10962,-1.33,133.17,Coastal Asmat,4,2,64,128,1024,1024,128,8192,1024,128,2048,8,8,8,512,2048,1024,2048,2,16,128,2,8192,2048,1024,512,32,512,8192,128,8192,16,256,128,128,16,1024
46,10973,43.53,-5.66,Asturias,4,2,2,16,2,2,2,2,2,16,64,8,2,2,512,2048,16,8192,16,128,128,2,8192,512,1024,8192,8192,8192,2,16,8192,16,256,128,16,128,128
47,10979,61.95,-145.3,Ahtna,32,4,4,128,16,128,128,8192,1024,128,64,8,8,8,512,64,1024,512,2,128,1024,2,1024,512,128,8192,8192,512,8192,128,128,1024,256,128,128,16,1024
48,11067,-11.18,28.88,Aushi Bemba,256,2,2,8192,8192,8192,2,2,2,16,2048,8,2,2,2,2,128,2,16,16,128,256,8192,2048,1024,8192,8192,8192,8192,16,8192,128,1024,8192,128,16,128
49,11078,-13.12,130.28,Wadjiginy,4,8,64,16,2,2,128,128,8192,1024,64,2,64,128,8192,2048,128,8192,2,128,16,2,8192,8,16,512,8192,512,128,1024,8192,1024,8,2,2,128,8192
50,11080,-32.96,151.6,Anglo Australians,4,2,2,16,2,2,2,2,2,2,64,2,2,2,512,64,128,64,2,128,128,2,1024,32,128,32,8192,512,8192,2,8192,128,256,128,1024,128,16
51,11133,-15.92,-69.33,Aymara,64,2,2,128,128,16,8192,2,2,1024,2048,8,2,2,512,64,8192,8192,2,128,1024,2,8192,512,128,8192,8192,8192,8192,1024,8192,128,256,16,16,128,128
52,11144,-17.81,-63.15,Ayoréo,4,256,4,16,2,2,16,2,2,128,2048,2,2048,2,512,1024,1024,2048,8192,16,16,2,2,2048,1024,32,32,8192,8192,128,2,128,64,128,128,16,1024
53,11155,1.64,26.41,Azande,1024,4,4,8192,8192,8192,8192,2,2,128,64,8,64,2,512,1024,1024,8192,2,128,1024,1024,1024,2048,128,8192,8192,512,128,128,8192,1024,1024,16,1024,128,1024
54,11160,40.4,49.86,Azerbaijani,4,256,4,16,2,2,8192,128,1024,16,8192,2,8192,32,512,1024,1024,2,2,16,16,2,2,32,1024,2,2,32,2,16,2,2,1024,128,128,1024,1024
55,11210,-7.89,129.69,Babarisla,256,4,64,8192,1024,128,128,16,128,128,2048,8,64,8,8192,2,2,2,2,16,1024,64,128,512,8192,2,32,2,128,128,8192,1024,1024,1024,16,2,128
56,11215,1.61,16.04,Mbendjele,4,2,2,16,2,2,2,2,2,8192,64,2,2,2,512,2048,1024,8192,2,1024,8192,2,8192,512,128,8192,8192,8192,2,8192,8192,2,8192,8192,8192,8192,8192
57,11281,-8.94,160.9,Baegu,4,2,8192,16,2,2,8192,2,2,8192,64,2,64,2,512,2048,2,8192,16,1024,128,2,8192,512,16,8192,2,512,128,8192,128,1024,256,1024,1024,8192,16
58,11309,14.37,24.9,Baggara,1024,8192,2048,128,128,128,2,8192,1024,128,64,8,64,512,512,256,1024,2048,2,128,128,2,1024,2048,1024,2,8192,512,8192,128,8192,128,256,16,16,128,1024
59,11342,-0.49,30.49,Bahima,1024,2,2,1024,128,128,2,2,2,128,8192,8,2,2,2,128,2,8192,2,16,16,2,16,32,128,2,8192,512,128,128,128,128,8,2,16,128,128
60,11364,-0.49,30.49,Bahinda,4,256,4,16,2,2,16,2,2,128,8192,2,64,2,2,2048,1024,8192,2,16,16,2,16,32,2,2,512,512,128,128,8192,1024,8,16,2,8192,8192
61,11375,-2.58,29.68,Hutu,4,4,4,16,2,2,16,2,2,2,2048,2,512,2,8192,1024,1024,8192,2,128,1024,2,8192,512,128,8192,8192,8192,8192,2,8192,128,256,8192,8192,1024,1024
62,11377,26.25,50.6,Al-Buainain,4096,256,4,16,2,2,16,2,2,128,64,8,64,2,512,1024,8192,2048,16,16,1024,2,128,512,8192,8192,2,8192,128,128,128,128,64,16,128,16,1024
63,11380,24.88,102.83,Bai,4,2,2,16,2,2,2,2,2,16,8,2,2,2,512,64,128,256,16,1024,1024,2,128,512,128,32,8192,32,128,16,2,128,8192,1024,1024,16,128
64,11397,0.96,114.55,Bajau Laut,4,2,2,16,2,2,2,2,2,2,8192,2,2,2,512,2,2,2,2,128,16,2,2,8,128,2,8192,32,2,2,2,128,256,16,128,128,16
65,11402,-4.66,152.0,Baining,64,8,32,128,1024,8192,128,128,8192,128,2048,8,64,128,512,2048,16,8192,2048,16,1024,2,8192,2048,1024,8192,8192,512,128,128,8192,128,256,16,128,16,128
66,11490,6.76,40.3,Bale Oromo,256,4,2048,16,2,2,8192,8192,1024,1024,512,8,64,8192,8192,2048,1024,8192,16,16,128,2,128,512,128,512,8192,8192,8192,1024,128,128,64,16,16,1024,128
67,11496,-3.93,138.82,Lani,4096,2,2,8192,1024,128,2,2,2,1024,64,8,2,2,512,4096,8192,2048,2,16,128,8,8192,32,8192,512,8192,512,8192,1024,128,128,1024,128,1024,16,8192
68,11507,-8.5,115.24,Balinese,4,2,2,16,2,2,2,2,2,2,8192,2,2,2,512,2,16,2,2,128,16,2,2,8,128,2,8192,2,128,2,2,1024,8,2,16,128,16
69,11518,43.39,43.56,Balkar,1024,2,2,8192,8192,8192,2,2,2,8192,64,8,2,2,512,64,1024,64,16,1024,128,8192,8192,2048,1024,512,8192,8192,8192,8192,8192,128,256,1024,1024,1024,1024
70,11529,12.63,-8.0,Bambara,256,8192,32,128,1024,1024,8192,8192,8192,16,2048,8,64,2048,512,1024,1024,2,16,128,128,2,8192,512,128,8192,8192,512,128,16,8192,128,256,16,1024,128,1024
71,11584,6.76,19.66,Banda,256,8,64,128,8192,8192,128,8192,8192,128,64,8,8,8,512,512,NaN,2048,16,128,1024,2,8192,2048,128,8192,8192,512,8192,128,8192,128,1024,128,8192,1024,1024
72,11600,2.72,30.64,BaNguana,4,4,4,16,2,2,8192,2,2,1024,64,2,64,2,512,2048,1024,8192,2,128,1024,2,8192,2048,16,8192,8192,512,128,1024,8192,16,8192,1024,128,8192,1024
73,11606,-9.78,149.88,Dawawa,64,8,64,128,128,1024,128,128,128,128,64,8,512,8,512,2048,1024,2048,512,128,1024,2,8192,512,128,512,512,8192,8192,128,128,128,256,128,16,128,1024
74,11617,19.89,75.3,Banjara,1024,4096,512,1024,128,128,8192,128,1024,128,64,32,64,512,512,512,8192,2048,16,16,16,2,2,2048,128,8192,8192,8192,128,128,128,16,8,16,16,1024,1024
75,11639,37.13,-113.65,Shoshone-Bannock,4,256,4,16,2,2,16,2,2,8192,2048,2,8192,2,32,32,128,32,2,1024,1024,2,16,32,16,32,2,32,2,8192,2,8192,1024,1024,8192,128,128
76,11672,-22.4,46.12,Bara,2048,256,32,128,1024,1024,8192,128,8192,1024,64,8,64,128,8192,1024,1024,8192,2,128,16,2,8192,512,1024,8192,8192,512,128,1024,8192,128,8,2,16,1024,8192
77,11683,-22.4,46.12,Kenuzi-Dongola Nubians,4,4,64,16,2,2,8192,128,1024,16,64,2,64,128,512,2048,1024,8192,2,1024,128,2,16,512,1024,8192,8192,512,8192,16,128,128,8,16,1024,16,128
78,11760,54.23,56.16,Bashkirs,4,2,2,16,2,2,2,2,2,2,2048,2,2,2,512,8,128,2,2,1024,128,2,8192,32,1024,512,8192,8192,128,2,8192,1024,1024,128,8192,128,128
79,11793,0.31,32.57,Basoga,1024,8192,4096,128,1024,8192,8192,8192,8192,1024,2048,8,64,2048,512,128,1024,8192,2,128,1024,2,8192,2048,1024,8192,8192,512,128,1024,128,128,256,128,16,128,1024
80,11804,43.03,-1.91,Spanish Basques,64,2,2,8192,1024,8192,2,2,2,2,2048,8,2,2,512,64,128,64,2,128,128,2,8192,32,128,8192,8192,8192,8192,2,8192,128,256,1024,128,128,128
81,11826,30.61,53.19,Basseri,4,256,4,16,2,2,16,2,2,1024,8192,2,8192,2,8192,4,2,512,2,16,16,2,2,8,1024,2,2,32,128,1024,128,16,2,2,128,16,16
82,11859,3.1,98.49,Karo,16,8192,4096,16,2,2,8192,16,8192,2,64,2,64,2048,512,32,128,32,NaN,128,128,2,1024,512,128,8192,8192,512,128,2,8192,128,64,16,1024,128,16
83,11870,7.44,-5.28,Baoulé,4096,8192,4096,8192,8192,8192,8192,2,8192,1024,64,8,64,2048,512,512,1024,8192,16,16,128,256,8192,512,8192,8192,8192,512,8192,1024,8192,16,256,128,16,16,1024
84,11881,48.79,11.49,Bayern (Bavarians),256,4,4,8192,8192,8192,8192,2,2,128,64,8,64,2,512,8,128,2,8192,1024,128,256,8192,512,128,8192,8192,8192,8192,128,8192,128,8192,8192,8192,128,128
85,11892,1.61,16.04,Baya,1024,8192,64,8192,1024,1024,8192,1024,8192,1024,64,8192,64,2048,8192,2048,1024,8192,512,1024,128,256,8192,2048,1024,8192,8192,512,8192,1024,8192,128,256,128,1024,128,1024
86,11925,13.83,29.41,Bedaria,256,8,64,1024,128,1024,8192,8192,1024,1024,64,32,64,512,512,256,128,2048,2,128,128,2,128,512,1024,512,8192,512,8192,1024,128,128,256,128,128,128,1024
87,11936,12.8,45.03,Kathiri Bedouin,256,8,64,128,16,128,128,8192,1024,1024,64,8,8,8,512,2048,1024,8192,2,16,128,2,128,512,1024,8192,8192,32,128,1024,8192,128,8,2,16,128,128
88,11958,50.41,4.45,Walloon,4,2,2,16,2,2,2,2,2,2,64,2,2,2,512,2048,128,2048,2,128,1024,2,8192,32,128,32,8192,8192,8192,2,8192,1024,256,16,16,128,16
89,12002,-10.53,31.07,Bemba,256,4,32,8192,8192,8192,8192,8192,8192,16,64,8,64,2048,8192,64,1024,2048,2,1024,128,1024,1024,512,128,8192,8192,512,8192,16,8192,1024,1024,16,16,128,1024
90,12024,-10.53,31.07,Varanasi Monastics,4,4096,4,16,2,2,8192,2,2,128,2048,2,64,2,512,4,128,2,512,1024,128,2,16,512,1024,32,512,32,128,128,128,1024,8,16,16,1024,16
91,12046,22.57,88.36,Bengal,4,512,128,16,2,2,8192,128,8192,2,64,2,64,512,512,4,1024,2,2,128,16,2,2,512,128,512,8192,32,128,2,128,1024,8,16,1024,128,16
92,12084,29.26,0.22,Gourara Berbers,1024,8192,4096,8192,128,1024,8192,128,1024,1024,64,2048,64,2048,512,8192,8192,2048,16,1024,1024,8192,8192,512,128,512,8192,512,128,1024,8192,128,256,128,128,1024,1024
93,12112,-21.32,46.93,Betsileo,64,8,32,8192,128,1024,8192,128,8192,128,64,8,64,2048,512,512,1024,8192,2,1024,128,256,8192,2048,1024,8192,8192,2,128,128,8192,128,1024,16,16,2,128
94,12134,18.94,81.9,Bhatra Sikh,4,2,2,1024,2,128,2,2,2,128,2048,8,2,2,512,128,1024,2048,2,1024,128,2,128,2048,1024,512,8192,512,128,128,8192,128,256,16,128,128,1024
95,12145,22.97,78.65,Bhil,512,4,32,128,16,128,8192,128,1024,1024,64,8,64,512,512,2048,1024,8192,2,128,128,2,128,2048,128,8192,8192,512,128,1024,8192,128,64,128,128,128,1024
96,12156,28.82,83.73,Bhotiyas,64,8,2,16,2,16,2,2,2,128,64,2,2,2,512,32,128,2,2,16,128,2,128,2048,16,512,512,8192,128,128,8192,128,1024,8192,8192,1024,128
97,12178,22.5,85.5,Bhumij,4,2,2,16,2,2,2,2,2,16,2048,2,2,2,512,64,1024,8,16,128,128,2,16,512,128,512,8192,512,128,16,128,128,256,16,128,1024,128
98,12205,-3.71,141.68,Biami,256,2,2,8192,1024,1024,2,2,2,1024,2048,8,2,2,512,32,8192,256,2,128,1024,256,8192,2048,128,512,2,512,128,1024,8192,1024,256,128,1024,128,1024
99,12260,-8.37,141.53,Bine,4,256,4,16,2,2,16,2,2,1024,2048,2,8,2,512,32,1024,8192,16,128,1024,2,8192,512,1024,32,8192,512,128,1024,8192,128,256,16,16,128,16
100,12321,15.91,-85.95,Garifuna,2048,8192,8192,8192,128,1024,8192,8192,8192,128,2048,8,64,2048,8192,1024,128,2048,2,16,1024,64,8192,2048,1024,8192,8192,512,8192,128,8192,16,8,16,16,16,1024
101,12337,22.0,100.79,Blang,4,4,4,16,2,2,8192,2,2,16,2048,2,2048,2,512,128,16,2048,16,128,128,2,8192,512,128,8192,8192,512,128,16,128,128,8,16,16,128,16
102,12343,49.19,-113.3,Káínawa,64,4,4,128,128,128,128,2,2,1024,64,8,8,2,32,64,128,8,2,1024,1024,2,128,512,1024,8192,8192,512,128,1024,128,1024,64,16,16,2,128
103,12365,49.19,-113.3,Sundanese,4,256,32,16,2,2,8192,128,8192,2,2048,2,64,128,512,2,128,2,16,1024,16,2,2,32,16,2,2,32,128,2,128,128,8,2,8192,128,2
104,12387,-4.27,144.96,Kire,64,32,64,128,128,16,128,1024,16,1024,2048,8,2048,8,512,1024,128,8192,2,16,128,2,1024,32,16,32,32,512,8192,1024,8192,128,256,16,16,128,1024
105,12409,49.73,13.37,Bohemian,4,8,64,16,2,2,8192,2,2,2,64,2,64,2,512,64,128,64,512,128,128,2,8192,32,128,8192,8192,8192,8192,2,8192,128,1024,8192,8192,16,16
106,12480,0.54,16.62,Bongili,2048,8,64,8192,8192,8192,128,8192,8192,1024,64,8,8,8,8192,128,1024,8192,2,128,8192,64,1024,512,1024,8192,8192,32,128,1024,8192,128,1024,1024,128,16,1024
107,12483,18.55,82.73,Bonda,16,4,4,1024,128,1024,16,2,2,1024,64,8,8,2,512,2048,128,8192,2,16,1024,2,1024,2048,128,512,2,32,128,1024,8192,128,8,128,128,128,128
108,12530,-3.31,-71.86,Bora Witoto,64,2,2,128,16,1024,2,2,2,128,2048,8,2,2,512,8,128,2,16,128,1024,2,8192,32,16,512,8192,8192,8192,128,8192,1024,64,2,16,1024,128
109,12546,7.54,40.63,Borana,1024,8,1024,8192,1024,1024,128,1024,1024,1024,64,512,8,128,512,1024,1024,2048,2,1024,8192,8192,8192,2048,1024,512,8192,512,8192,1024,8192,1024,256,128,128,16,8192
110,12563,44.24,17.73,Bosnia,4,256,4,16,2,2,16,2,2,2,8192,2,8192,2,512,2,2,2,512,16,16,2,2,8,128,2,2,2,2,2,8192,128,256,16,128,128,128
111,12591,-7.71,-42.72,Piaui,4,2,2048,16,2,2,8192,16,1024,128,NaN,2,64,NaN,8192,2048,128,8192,2,128,128,2,8192,2048,1024,8192,8192,8192,8192,128,8192,128,64,16,2,16,16
112,12594,-23.55,-46.63,São Paulo,16,8,64,16,2,2,8192,128,1024,16,64,2,64,512,512,2048,128,8192,16,128,128,2,8192,2048,128,8192,8192,8192,8192,16,8192,128,64,128,128,128,16
113,12596,-12.57,-41.7,Salvador,256,4096,32,128,128,8192,8192,1024,8192,128,64,8,64,512,512,1024,1024,8192,2,128,1024,2,1024,2048,128,8192,8192,512,8192,128,8192,128,256,128,128,1024,1024
114,12607,47.21,-1.55,Brittany,4,2,2,16,2,2,2,2,2,2,2048,2,2,2,512,8,128,256,512,128,128,2,1024,2048,128,512,8192,8192,8192,2,8192,128,64,16,128,128,16
115,12640,44.5,26.65,Bucharest,4,2,2,16,2,2,2,2,2,16,8192,2,2,2,512,4096,128,8192,2,16,16,2,16,32,16,2,8192,32,8192,16,2,128,64,128,128,128,16
116,12662,2.72,30.64,Budu,4,4,4,16,2,2,16,2,2,2,64,2,64,2,512,8192,1024,2048,2,16,1024,2,8192,512,16,8192,512,8192,8192,2,8192,128,256,16,16,1024,128
117,12698,-6.0,155.0,Buin,64,2,2,128,8192,1024,2,2,2,128,2048,8,2,2,512,2048,128,8192,16,128,1024,2,8192,512,16,8192,8192,32,128,128,8192,128,256,128,1024,128,16
118,12739,41.61,23.97,Pirin,64,2,2,8192,8192,8192,2,2,2,16,8192,8,2,2,512,2048,128,8192,16,16,128,64,1024,8,1024,2,8192,2,8192,16,8192,128,256,8192,8192,16,128
119,12750,41.57,24.7,Rhodope,4,2,2,16,2,2,8192,2,2,2,64,2,2,128,512,4096,128,8192,2,128,128,2,128,32,128,8192,8192,512,128,2,8192,128,256,1024,8192,128,16
120,12761,42.33,23.08,Sofia District,64,2,2,8192,8192,8192,2,2,2,128,8192,8,2,2,512,4096,128,2048,16,16,128,8,8192,512,1024,2,8192,8192,8192,128,8192,128,256,8192,8192,16,16
121,12772,41.93,25.55,Thrace,4,2,2,16,2,2,2,2,2,2,8192,2,2,2,512,32,16,512,2,16,128,2,128,8,128,2,8192,8192,2,2,8192,1024,256,1024,8192,128,16
122,12783,2.92,11.15,Bulu,1024,2,2,8192,8192,8192,2,1024,8192,1024,64,8,64,2,512,1024,128,2048,2,128,128,256,8192,512,128,8192,8192,8192,8192,1024,8192,128,256,128,128,128,128
123,12794,-8.98,14.89,Northern Mbundu,8192,2,2,8192,128,1024,2,2,2,1024,512,8192,2,2,8192,8192,8192,8192,2,1024,128,8192,8192,8192,8192,8192,8192,8192,8192,1024,8192,1024,8,128,16,16,128
124,12816,-15.75,168.18,Bunlap,256,2,2,8192,1024,1024,2,2,2,128,2048,8192,2,2,512,16,1024,32,512,128,1024,2,8192,512,8192,8192,8192,512,8192,128,8192,16,1024,128,128,1024,1024
125,12838,5.82,37.57,Burji,4096,8,64,8192,1024,1024,128,1024,1024,128,64,8192,64,128,8192,1024,8192,2048,2,128,1024,8192,8192,512,1024,512,8192,512,128,128,8192,1024,256,128,1024,16,8192
126,12849,21.95,96.08,Burmese,4,256,32,16,2,2,1024,128,8192,2,2048,2,2048,128,512,2,1024,2,512,1024,128,2,128,32,128,2,512,32,128,2,128,128,8,16,128,128,128
127,12860,36.0,76.0,Burusho,4,4096,4,16,2,2,8192,2,2,128,512,2,512,2,512,8,1024,32,512,128,16,2,16,2048,128,8192,8192,512,128,128,2,128,64,128,16,16,1024
128,12871,54.83,112.4,Buryat,4,4,32,16,2,2,8192,128,8192,2,8192,2,64,32,512,64,1024,256,2,16,1024,2,16,8,1024,2,8192,512,128,2,2,128,1024,1024,1024,128,16
129,12904,-6.7,147.62,Butala,4,256,4,16,2,2,16,2,2,128,2048,2,8,2,512,2,16,32,512,128,1024,2,8192,32,16,512,512,32,128,128,8192,128,256,1024,128,1024,128
130,12920,22.81,108.36,Bouyei,1024,2,2,8192,128,1024,2,2,2,16,2048,8192,2,2,512,1024,128,2048,512,128,128,1024,8192,512,1024,32,8192,512,128,16,128,16,64,16,16,16,2
131,12923,-9.87,142.58,Buzi,64,8,64,128,1024,1024,128,2,1024,1024,2048,8,8,8,512,4096,128,8192,2,128,1024,2,8192,512,1024,8192,8192,512,128,1024,8192,128,256,1024,1024,16,1024
132,12931,-9.36,150.25,Bwaidoka,1024,2,2,8192,128,1024,2,2,2,8192,8,8,2,2,8192,2048,128,2048,2,128,1024,8,8192,2048,128,8192,2,512,8192,8192,8192,128,64,128,16,1024,8192
133,12948,57.81,28.33,Belarus,4,2,2,8192,2,2,2,2,2,2,64,2,2,2,512,2048,16,8192,2,128,128,2,1024,32,1024,512,8192,32,2,2,8192,128,256,1024,1024,128,128
134,13025,-26.72,-52.17,Kaingang,128,512,64,128,128,16,128,8192,128,1024,2048,128,8192,128,512,2048,8192,8192,2,2,16,2,8192,32,128,512,8192,32,8192,1024,8192,1024,64,128,128,16,1024
135,13036,-31.77,-60.49,Guaraní,256,256,4,128,16,128,8192,2,2,1024,2048,8,64,2,512,1024,1024,2048,2,16,1024,2,8192,2048,1024,512,8192,512,128,1024,8192,1024,256,1024,1024,16,1024
136,13080,12.57,-81.7,San Andrés,4,4096,2048,16,2,2,8192,8192,8192,2,64,2,64,512,8192,64,128,64,2,16,128,2,8192,512,128,8192,8192,8192,8192,2,8192,128,64,16,16,128,16
137,13102,-12.27,-53.47,Kamayurá,64,2,2,128,16,128,2,2,2,1024,2048,8,8,2,512,8,1024,2,16,128,1024,2,8192,32,128,8192,8192,8192,8192,1024,8192,128,8,16,16,128,1024
138,13124,12.56,104.99,Khmer,4,NaN,256,16,2,2,1024,NaN,1024,16,2048,2,8192,128,512,1024,16,2048,2,128,1024,2,16,32,128,32,512,32,128,16,128,128,8192,128,128,128,128
139,13135,-10.44,-75.15,Asháninka,8192,256,4,8192,128,16,16,2,2,128,2048,8192,8,128,512,8192,16,8192,2,128,1024,8192,1024,32,16,512,8192,32,128,128,8192,128,256,128,16,128,8192
140,13140,46.24,-60.85,Nova Scotia,4,2,2,16,2,2,2,2,2,2,64,2,2,2,512,64,1024,64,16,128,128,2,1024,32,128,512,8192,512,8192,2,8192,1024,64,128,16,128,128
141,13157,23.12,113.26,Cantonese Folk,4,2,2,16,2,2,2,2,2,16,64,2,2,2,512,2,128,256,512,128,128,2,128,512,128,2,8192,512,8192,16,8192,128,8,16,1024,16,16
142,13168,-10.92,-50.18,Karajá,4,2,2,16,2,2,2,2,2,1024,2048,2,2,2,8192,8,1024,2,16,1024,8192,2,8192,32,2,8192,8192,32,128,1024,128,8192,256,16,128,2,1024
143,13190,64.59,-84.13,Kivallirmiut,64,2,2,128,16,2,2,2,2,1024,2048,8,2,2,512,64,16,2048,512,128,1024,2,1024,32,16,512,8192,512,8192,1024,128,1024,64,16,16,1024,1024
144,13223,12.47,-61.44,Carriacou,1024,2,8192,8192,1024,8192,8192,2,8192,1024,64,8,64,2,512,1024,1024,8192,2,128,128,2,8192,512,128,8192,8192,8192,8192,1024,8192,128,256,128,128,128,128
145,13234,55.25,-127.67,Dakelh,4,2,2,16,2,2,2,2,2,1024,2048,2,2,2,32,2048,128,8192,2,128,128,2,8192,32,16,512,8192,512,8192,1024,128,1024,64,16,128,1024,1024
146,13256,16.56,121.26,Casiguran,4,2,2,16,2,2,2,2,2,128,8192,2,2,2,512,256,16,2048,2,128,16,2,128,2048,1024,2,8192,2,2,128,2,1024,8,2,16,1024,1024
147,13289,-15.6,-72.08,Qulla,64,512,128,128,128,1024,1024,16,128,16,2048,8,2048,32,2,64,1024,256,16,128,1024,2,1024,32,128,512,32,32,8192,16,8192,128,64,128,16,1024,1024
148,13300,-1.46,-78.51,Chachi,4,2,2,16,2,2,2,2,2,2,8192,2,2,2,2,4,128,2,2,1024,1024,2,1024,8,128,2,8192,32,128,2,2,1024,64,2,2,128,8192
149,13321,52.58,32.75,Bryanskaya,256,2,2,8192,128,1024,2,2,2,2,2048,8,2,2,512,2048,128,2048,8192,1024,128,1024,128,32,1024,8192,8192,32,128,2,128,2,1024,128,128,16,128
150,13322,52.64,41.42,Urals,64,2,2,8192,1024,1024,2,2,2,128,2048,8,2,2,512,64,128,32,16,8192,128,256,8192,32,128,512,8192,512,128,128,NaN,1024,256,128,8192,128,16
151,13333,22.97,78.65,C Indian Folk,64,32,64,128,16,128,1024,16,128,2,512,8,512,512,2,4,1024,2,2048,128,16,2,2,2048,128,8192,8192,32,8192,2,8192,16,2,2,128,128,1024
152,13388,-3.28,37.51,Chagga,1024,4,4,8192,1024,1024,16,2,2,128,64,8,8,2,512,8,1024,2,16,128,1024,64,8192,512,128,8192,8192,32,8192,128,128,128,256,16,16,128,1024
153,13399,40.84,111.73,Chahar,1024,2,2,8192,128,16,2,128,2,8192,8192,32,2,2,512,4,16,2,2,8192,NaN,8,2,2,1024,2,8192,32,128,8192,2,2,64,16,16,128,8192
154,13476,43.4,45.71,Chechen,4,4,4,16,2,2,16,2,2,16,64,2,64,2,512,64,128,32,16,128,128,2,128,512,1024,512,512,512,8192,16,8192,128,256,1024,1024,128,16
155,13520,56.63,47.86,Mari,4,2,2,16,2,2,2,2,2,2,64,2,2,2,512,64,1024,64,2,1024,1024,2,8192,512,128,8192,8192,512,128,2,8192,128,64,16,16,128,16
156,13553,35.07,-98.24,Heévâhetaneo'o,4,2,2,16,2,2,2,2,2,128,2048,2,2,2,2,32,16,32,2,16,1024,2,128,32,2,512,8192,512,128,128,2,1024,64,1024,1024,8192,1024
157,13597,35.07,-98.24,Atanquez,4,4096,64,16,2,2,8192,1024,8192,16,64,2,64,8192,512,2048,1024,8192,2,128,1024,2,8192,512,1024,8192,8192,512,8192,16,128,128,8,16,128,16,128
158,13630,35.07,-98.24,Chileno,4,4,4,16,2,2,8192,2,2,2,2048,2,64,2,512,64,1024,32,16,128,128,2,8192,512,128,8192,8192,512,8192,2,8192,1024,64,16,128,128,16
159,13663,35.89,117.92,Chinese Urban Elite,4,512,256,16,2,2,1024,16,16,2,8192,2,64,32,512,2,128,2,16,1024,1024,2,16,512,128,2,2,2,128,2,128,1024,8,2,128,128,128
160,13665,30.27,120.15,Hangzhou,1024,2,2,128,1024,1024,2,2,2,8192,64,8,2,2,512,1024,8192,8192,2,128,1024,2,16,2048,1024,8192,8192,32,128,8192,128,128,256,16,128,16,8192
161,13668,33.24,119.36,Lower Yangtze,4,2,2,16,2,2,2,2,2,16,64,2,2,2,512,32,16,256,2,1024,128,2,16,512,1024,8192,8192,512,2,16,2,128,8,16,128,16,16
162,13701,-19.02,-68.11,Chipaya,512,512,64,128,128,128,8192,128,16,8192,512,8,64,128,8192,2048,128,8192,2,128,128,2,8192,32,1024,8192,8192,32,2,8192,8192,128,1024,16,1024,1024,8192
163,13718,-19.02,-68.11,Minnesota Ojibwa,4,2,2,16,2,2,2,2,2,16,2048,2,2,2,32,32,16,8,2,8192,128,2,1024,8,128,32,8192,2,128,16,2,128,2,2,2,128,128
164,13773,32.77,-89.11,Choctaw,32,2,2,128,128,1024,2,2,2,1024,2048,8,2,2,512,8,1024,2,2,128,128,2,8192,32,1024,8192,8192,512,128,1024,128,128,256,128,1024,16,1024
165,13784,-7.05,156.95,Choiseul,32,2,2,8192,8192,8192,2,2,2,16,8192,2,2,2,512,4,16,256,512,1024,1024,2,1024,8,2,2,8192,32,2,16,8192,8192,1024,1024,1024,8192,8192
166,13795,-9.79,22.87,Chokwe,256,8192,64,8192,8192,8192,8192,8192,8192,128,64,8,64,2048,512,1024,8192,8192,16,128,128,1024,8192,512,1024,8192,8192,512,128,128,8192,128,256,16,16,128,1024
167,13806,-24.71,34.74,Chopi,1024,4,4,8192,8192,8192,8192,8192,8192,16,64,8,64,2,8192,1024,1024,8192,2,1024,128,2,8192,2048,128,8192,8192,512,8192,16,8192,1024,256,128,128,16,1024
168,13850,68.73,177.49,Chaunsky Chuckchi,4,2,2,16,2,2,2,2,2,1024,2048,2,2,2,512,4096,1024,8192,2,16,1024,2,1024,512,128,512,8192,512,128,1024,128,1024,64,16,128,128,16
169,13883,53.69,54.27,Chuvash,64,2,2,8192,1024,1024,2,2,2,16,2048,8,2,2,512,64,1024,256,2,1024,128,64,8192,2048,1024,8192,8192,512,128,16,8192,128,1024,1024,1024,128,16
170,13894,47.31,24.75,Cluj,4,2,2,16,2,2,2,2,2,2,2048,2,2,2,512,64,128,64,512,128,128,2,128,8,128,2,8192,32,128,2,128,128,1024,1024,8192,128,128
171,13971,47.31,24.75,Afro-Ecuadorian,4096,8192,32,8192,1024,1024,8192,1024,8192,1024,64,8192,64,2048,512,128,1024,2048,512,128,1024,1024,8192,512,128,8192,8192,8192,8192,1024,8192,128,256,16,128,128,1024
172,13982,11.24,-74.21,Costeño,64,4,32,8192,128,1024,8192,128,8192,2,64,8,64,512,512,64,1024,2,16,128,1024,256,8192,512,128,8192,8192,8192,8192,2,8192,128,64,128,128,128,128
173,13993,34.6,-98.39,Nʉmʉnʉʉ,256,4,4,128,128,1024,16,2,2,128,2048,8,8,2,32,8,128,2,2,1024,1024,2,1024,512,128,8192,8192,512,8192,128,128,1024,64,16,16,1024,128
174,14004,-18.87,47.5,Comoros,256,512,32,128,128,128,128,128,1024,16,64,8,64,128,512,64,128,2,2,128,16,2,16,32,128,512,8192,512,128,16,8192,128,8,2,128,128,128
175,14026,-18.87,47.5,Conibo,32,2,2,8192,128,1024,2,2,2,1024,2048,8,2,2,8192,2048,128,8192,16,1024,1024,2,1024,32,16,8192,8192,512,8192,1024,8192,128,64,16,128,16,128
176,14037,-18.87,47.5,Cook Islands Maori,64,2,2,8192,8192,8192,8192,2,2,16,2048,8,2,2,512,8,1024,2,2,8192,128,256,8192,2048,1024,8192,8192,8192,8192,16,8192,128,256,128,1024,128,16
177,14070,68.83,-101.5,Inuinnait,4,2,2,16,2,2,2,2,2,1024,2048,2,2,2,512,64,128,256,512,128,1024,2,1024,32,128,512,8192,512,128,1024,8192,128,64,16,128,1024,1024
178,14081,22.03,-104.93,Cora,4,4,4,16,2,2,16,2,2,128,2048,2,64,2,512,64,128,32,2,128,128,2,1024,2048,128,8192,8192,512,128,128,8192,128,64,16,128,128,128
179,14103,42.36,9.26,Haute Corse,4,2,2,16,2,2,2,2,2,2,8192,2,2,2,2,32,16,32,2,128,128,2,16,8,1024,2,8192,512,128,2,8192,128,8,16,128,16,16
180,14125,53.45,-108.91,Nehiyaw (Plains Cree),4,256,4,128,2,2,16,2,2,1024,2048,8,64,2,32,64,128,256,2,1024,1024,2,128,512,1024,8192,8192,512,128,1024,2,1024,8,16,16,2,1024
181,14136,38.93,-95.23,Mvskoke,256,4,32,128,1024,1024,128,1024,1024,1024,2048,8,8,8,512,64,1024,8192,16,128,1024,2,1024,512,128,8192,8192,512,128,1024,128,1024,256,16,16,16,128
182,14147,35.27,24.28,Crete,4,2,2,16,2,2,2,2,2,128,8192,2,2,2,512,16,128,256,16,128,16,2,2,8,128,2,8192,512,128,128,8192,128,64,16,16,128,16
183,14158,44.22,17.64,N Croatia,256,2,2,8192,8192,1024,2,2,2,128,8192,32,2,2,512,16,2,256,2,16,16,1024,16,8,8192,2,8192,2,2,128,2,1024,1024,8192,8192,128,128
184,14180,23.1,-82.24,Afro-Cuban,1024,8192,2048,8192,8192,8192,8192,8192,8192,2,64,8,64,2048,512,2,128,2,2048,128,128,256,1024,512,1024,512,8192,512,8192,2,8192,128,256,8192,1024,128,128
185,14191,23.11,-82.36,Havana Folk,16,4,32,16,2,2,8192,1024,1024,2,2048,2,2048,128,8192,4,128,2,2,1024,128,2,1024,32,1024,32,8192,512,128,2,8192,128,64,128,1024,16,16
186,14224,-3.69,-61.46,Kulina,128,2,2,8192,1024,1024,2,2,2,8192,2048,32,2,2,512,512,1024,8192,2,1024,128,256,8192,2048,128,32,8192,32,2,8192,8192,1024,256,128,1024,128,1024
187,14235,9.57,-78.82,Guna,4,2,2,16,2,2,2,2,2,128,2048,2,2,2,512,1024,2,8192,2,16,128,2,1024,512,128,8192,8192,512,8192,128,8192,128,8,2,16,128,128
188,14328,22.0,100.79,Tai Lue,4,2,2,16,2,2,2,2,2,16,2048,2,2,2,512,1024,16,2048,2,1024,128,2,1024,512,128,32,8192,512,128,16,128,1024,2,16,16,128,16
189,14378,-4.02,138.89,Dani,8192,2,2,8192,1024,8192,2,2,2,128,8192,8,2,2,512,2048,8192,8192,2,16,128,2,8192,32,16,8192,8192,8192,128,128,8192,128,256,1024,1024,1024,1024
190,14422,36.79,-95.93,Lenape,64,4,4,128,16,128,128,1024,8192,1024,2048,2,2,2,512,2048,2,2048,512,128,1024,2,128,512,128,8192,8192,512,8192,1024,8192,1024,256,1024,1024,16,128
191,14444,56.65,9.97,Danish,4,4,4,16,2,2,8192,2,2,2,64,2,64,2,512,64,128,8,512,128,1024,2,8192,512,128,8192,8192,8192,8192,2,8192,128,256,1024,1024,128,16
192,14466,37.87,32.49,Dervish,128,2,2,128,128,2,2,2,2,2,8192,2,2,2,2,2048,16,8192,2,16,16,2,128,8192,1024,2,8192,32,128,2,128,128,8,2,16,128,16
193,14477,18.75,81.78,Dhurwa Gond,32,2,2,1024,1024,1024,2,2,2,128,2048,8,2,2,512,4096,1024,256,16,128,16,2,1024,512,1024,512,8192,32,128,128,8192,128,1024,1024,1024,128,1024
194,14521,32.71,-117.16,Kumeyaay,64,4096,4,128,128,128,16,2,2,128,64,8,64,2,512,32,128,32,16,128,128,2,8192,512,128,8192,512,512,128,128,8192,8192,256,16,16,1024,1024
195,14562,48.34,8.5,Baden-Württemberg,64,2,2,8192,1024,1024,2,2,2,16,64,8,2,2,2,8,128,8192,512,1024,1024,2,8192,32,128,8192,8192,8192,8192,16,8192,128,256,1024,128,128,128
196,14576,7.78,33.0,Dinka,4,2,2,128,2,2,2,2,2,1024,2048,8,2,2,512,2,1024,8192,16,1024,1024,2,8192,512,1024,8192,8192,512,8192,1024,8192,128,256,128,128,128,16
197,14598,12.56,-16.26,Jola-Fonyi,1024,2,2,8192,1024,8192,2,2,2,128,2048,8,2,2,512,4096,128,8,16,1024,128,64,1024,512,1024,8192,8192,512,128,128,8192,128,1024,1024,1024,128,1024
198,14653,43.53,28.53,Dobrudzha,4,2,2,16,2,2,2,2,2,2,8192,2,2,2,2,32,2,64,2,128,128,2,16,8,128,2,8192,512,2,2,128,1024,1024,1024,8192,16,16
199,14664,-9.64,150.69,Dobu,64,2,2,128,1024,1024,2,2,2,128,2048,8,2,2,512,4096,1024,2048,2,128,1024,2,8192,512,128,8192,2,512,128,128,8192,1024,64,128,128,128,1024
200,14675,14.42,-3.32,Dogon,256,4,64,128,1024,1024,128,8192,8192,1024,2048,8,64,128,512,4,128,2,2,128,128,2,8192,512,128,8192,8192,512,8192,1024,8192,128,256,16,16,16,16
201,14694,6.3,36.56,Basketo,8192,8,4096,8192,1024,8192,8192,8192,1024,1024,64,512,8,128,512,1024,8192,8192,512,128,8192,8192,8192,2048,1024,8192,8192,512,8192,1024,8192,128,256,128,128,128,1024
202,14697,15.36,-61.39,Dominica,256,2,2,128,128,1024,2,2,2,1024,64,8,2,2,512,64,1024,8192,2,128,128,2,8192,512,128,8192,8192,8192,8192,1024,8192,128,256,16,16,128,128
203,14702,26.64,106.63,Dong,4096,2,2,8192,128,1024,2,2,2,128,2048,8,2,2,512,8,16,2,512,128,128,8,1024,32,1024,32,8192,512,128,128,128,1024,8,16,1024,128,16
204,14708,24.61,80.48,Dorla,32,2,2,1024,1024,128,2,2,2,128,2048,8,2,2,512,4096,128,2048,2,128,128,2,1024,512,128,512,8192,32,128,128,8192,128,256,128,128,128,128
205,14752,42.06,20.65,Dragas,64,8,64,8192,128,8192,128,2,2,128,64,8,64,128,512,64,1024,256,16,128,128,1024,1024,512,1024,8192,8192,512,128,128,128,128,1024,128,1024,16,128
206,14774,6.25,37.0,Dorze,1024,2,2,8192,1024,1024,2,2,2,1024,64,8192,2,2,512,1024,8192,8192,512,1024,8192,8192,8192,2048,1024,512,2,512,128,1024,2,128,256,128,2,16,1024
207,14785,31.8,35.1,Al-Muwaḥḥidūn,1024,512,128,128,16,1024,1024,16,8192,2,64,8,8192,512,512,2048,128,8192,2,16,16,2,128,512,1024,8192,8192,512,128,128,128,128,8,2,128,16,16
208,14801,-4.16,152.46,Duke of York,64,8,64,128,1024,1024,128,1024,1024,1024,2048,8,2048,32,512,1024,16,8192,2,1024,128,2,1024,2048,1024,512,512,512,128,1024,8192,1024,256,128,1024,128,128
209,14807,-0.76,12.84,Adouma,2048,2,2,8192,8192,8192,2,2,2,128,2048,8,2,2,512,1024,128,2048,2048,16,128,256,1024,512,1024,32,8192,32,128,128,128,128,1024,128,128,128,128
210,14818,54.89,-1.57,Durham Pitmen,64,2,2,128,128,1024,2,2,2,16,64,8,2,2,512,64,1024,64,512,128,1024,2,8192,512,128,8192,8192,8192,8192,16,8192,1024,256,1024,128,128,16
211,14840,0.96,114.55,Dusun,4,2,2,16,2,2,2,2,2,2,64,2,2,2,8192,2048,16,8192,2,1024,1024,2,1024,8,16,32,8192,32,128,2,8192,1024,256,128,128,1024,1024
212,14851,51.92,4.47,Nederlanders,64,2,2,128,1024,1024,2,2,2,16,64,8,2,2,512,64,128,64,2,128,128,2,8192,512,128,8192,8192,8192,8192,16,8192,128,256,1024,1024,128,128
213,14862,-2.07,110.87,Dayak,128,2,2,1024,1024,16,2,2,2,16,8192,32,2,2,2,1024,2,8192,2,16,128,2,16,2,16,2,8192,32,2,16,8192,1024,64,128,128,1024,1024
214,14994,30.9,31.11,Egypt,4,256,32,16,128,2,8192,128,2,16,8192,8,64,2,512,4,1024,2,16,128,16,2,16,512,128,2,8192,512,128,16,128,16,8,16,128,16,16
215,14999,-4.41,140.01,Eipo,8192,2,2,1024,1024,16,2,2,2,1024,2048,8192,2,2,512,2048,8192,2048,2,16,128,8192,8192,2048,128,512,2,512,8192,1024,8192,128,64,16,128,1024,1024
216,15027,-0.74,18.11,Ekonda Mongo,1024,4,64,8192,8192,8192,8192,2,8192,1024,2048,8,64,2,512,1024,1024,8192,2,1024,1024,256,8192,2048,128,8192,8192,512,8192,1024,8192,128,1024,1024,1024,16,128
217,15093,51.45,-2.58,Bristol,256,4,4,128,16,1024,8192,2,2,2,64,8,64,2,512,64,128,256,512,128,128,2,8192,512,1024,8192,8192,512,8192,2,8192,128,64,8192,128,128,128
218,15098,52.74,1.53,Norfolk,4,2,2,16,2,2,2,2,2,2,64,2,2,2,512,64,128,64,512,128,128,2,128,512,128,512,8192,512,8192,2,8192,128,64,16,16,128,128
219,15148,65.62,171.69,Anadysky Chukchi,4,4,4,16,2,2,16,2,2,1024,512,2,2048,2,512,32,128,8,16,128,1024,2,8192,512,128,8192,8192,8192,8192,1024,8192,128,64,16,16,1024,1024
220,15170,-15.3,166.91,Espiritu Santo,256,512,64,8192,1024,8192,128,8192,1024,1024,2048,8,2048,8,512,64,1024,8,16,128,1024,64,8192,2048,1024,512,8192,8192,8192,1024,8192,1024,256,1024,128,128,1024
221,15181,58.36,25.58,Estonian,4,2,2,16,2,2,2,2,2,128,2048,2,2,2,512,4096,128,8192,2,16,128,2,1024,512,128,512,8192,8192,8192,128,128,1024,256,8192,1024,16,16
222,15225,62.01,-6.77,Faroe Islands,64,8,64,128,128,1024,128,8192,1024,16,64,8,64,8,512,64,1024,8,512,128,128,2,8192,512,1024,8192,8192,8192,8192,16,8192,1024,256,1024,128,2,128
223,15247,-3.09,133.01,Fakfak,64,2,2,128,8192,1024,2,2,2,2,8192,8,2,2,512,1024,16,8192,16,1024,1024,2,128,8,128,2,8192,2,2,2,8192,8192,1024,8192,8192,1024,8192
224,15280,5.13,-1.27,Fante,1024,4,4096,8192,8192,8192,8192,8192,8192,1024,512,8,64,2048,512,4,1024,2,512,128,1024,64,8192,2048,128,8192,8192,8192,8192,1024,8192,128,256,8192,8192,128,1024
225,15282,-8.94,160.9,Fataleka,32,256,2,8192,1024,1024,1024,8192,16,1024,64,8,64,32,512,4096,16,8192,512,1024,8192,8192,8192,32,16,512,512,512,128,1024,128,8192,8192,16,128,8192,8192
226,15302,-18.89,178.4,Fiji,256,8,32,8192,8192,8192,128,1024,1024,128,64,8,64,128,512,2048,1024,8192,2048,1024,128,1024,8192,512,128,8192,8192,512,8192,128,8192,1024,1024,1024,1024,128,128
227,15313,64.12,29.52,Finnish,4,2,2,16,2,2,2,2,2,128,64,2,2,2,512,64,1024,256,2,128,1024,2,8192,512,1024,8192,8192,8192,8192,128,8192,1024,1024,128,128,128,16
228,15335,-6.59,147.85,Kâte,64,512,64,128,128,1024,128,8192,128,16,2048,8,64,8,32,4,16,2,2,128,1024,2,8192,32,128,512,8192,512,8192,16,8192,128,8,2,16,16,1024
229,15368,47.5,-114.33,Bitterroot Salish,32,2,2,128,128,128,2,2,2,1024,2048,8,8,2,32,8,1024,2,2,128,1024,2,8192,512,1024,8192,8192,512,8192,1024,2,1024,8,2,16,16,1024
230,15379,-8.65,121.07,Nage,256,2,2,8192,1024,8192,2,2,2,2,2048,8,2,2,512,2,1024,2,8192,1024,128,8,8192,512,128,8192,8192,8192,8192,2,8192,1024,256,8192,8192,1024,16
231,15390,7.18,1.99,Fon,256,2,2,128,128,128,2,2,2,128,2048,8,2,2,512,256,1024,8192,16,128,1024,2,8192,512,1024,8192,8192,512,8192,128,8192,128,256,16,16,128,1024
232,15401,-6.52,145.61,Fore,64,2,2,128,2,16,2,2,2,128,2048,8,2,2,512,2048,128,2048,512,128,128,2,8192,2048,2,512,8192,8192,8192,128,8192,1024,256,128,128,8192,1024
233,15412,-0.79,29.04,Forest Bira,8192,4096,4096,8192,128,8192,8192,1024,8192,128,64,8192,2048,2048,512,2048,8192,8192,2,128,1024,8192,8192,2048,1024,8192,8192,512,2,128,8192,128,8192,128,16,16,128
234,15439,45.2,4.03,Auvergne,4,4,4,16,2,2,16,2,2,128,64,2,64,2,512,8,1024,64,512,128,128,2,8192,2048,1024,8192,8192,8192,8192,128,8192,128,64,16,128,16,16
235,15445,47.0,2.0,Berry,4,2,2,16,2,2,2,2,2,2,2048,2,2,2,512,64,1024,32,512,128,128,2,1024,512,128,8192,8192,8192,8192,2,128,128,256,128,1024,128,16
236,15489,48.83,-64.48,French Canadians,4,2,2,16,2,2,2,2,2,2,2048,2,2,2,512,64,1024,256,512,128,128,2,8192,32,128,8192,8192,512,8192,2,8192,128,64,16,128,128,128
237,15497,48.78,-0.68,Normandy,4,2,2,16,2,2,2,2,2,16,64,2,2,2,512,64,128,32,512,128,128,2,8192,8,128,512,8192,8192,8192,16,8192,1024,64,16,16,128,128
238,15500,43.31,-1.58,French Basques,4,2,2,16,2,2,2,2,2,8192,64,2,2,2,512,32,128,8,2,16,128,2,8192,32,16,8192,8192,8192,8192,8192,8192,128,1024,8192,8192,1024,128
239,15522,46.07,13.23,Friuli,64,2,2,8192,1024,1024,2,2,2,2,64,8,2,2,512,64,1024,64,2048,8192,128,1024,8192,512,128,512,8192,512,8192,2,8192,1024,256,1024,128,128,16
240,15533,17.91,-62.85,St. Barthélemy,4,2,2,16,2,2,2,2,2,2,64,2,2,2,512,64,128,64,16,128,128,2,8192,32,128,32,8192,8192,8192,2,8192,128,64,2,16,128,16
241,15544,13.8,8.98,Wodaabe,8192,2,2,8192,1024,8192,2,2,2,1024,64,8192,2,2,512,4096,8192,8192,2,128,8192,2,1024,512,1024,8192,8192,32,2,1024,8192,1024,1024,128,128,128,1024
242,15566,12.89,23.47,Fur,1024,4,4,1024,16,16,16,2,2,128,64,32,64,2,8192,2048,1024,8192,16,1024,128,2,128,2048,1024,512,8192,32,8192,128,8192,1024,64,16,16,16,1024
243,15577,6.09,10.3,Fut,4,4,64,8192,2,8192,128,2,2,1024,64,2,64,2,512,2048,8192,8192,16,128,1024,2,8192,512,16,8192,8192,512,8192,1024,8192,1024,1024,128,1024,1024,1024
244,15610,-8.81,146.53,Fuyuge,4,2,2,16,2,2,2,2,2,128,8192,2,2,2,32,32,16,512,16,1024,1024,2,128,8,16,2,8192,2,128,128,8192,2,1024,128,8192,1024,128
245,15643,21.77,84.36,Gadaba,64,2,2,8192,16,128,2,2,2,128,2048,32,2,2,512,4096,1024,8192,2,128,1024,64,128,2048,1024,512,8192,512,8192,128,8192,1024,256,16,128,1024,128
246,15676,42.94,-9.19,Galicia,64,2,2,128,1024,1024,2,2,2,16,2048,8,2,2,2,64,128,8,16,128,128,2,1024,512,1024,8192,8192,512,8192,16,8192,128,256,1024,1024,128,16
247,15687,9.31,42.19,Kottu,1024,2,2,128,1024,8192,128,2,2,128,64,8,2,2,512,1024,1024,8192,2,128,1024,2,128,512,1024,8192,8192,32,128,128,8192,16,64,16,128,128,1024
248,15703,6.25,37.0,Gamo,8192,8192,2048,8192,1024,1024,8192,8192,1024,8192,64,512,64,2,512,1024,8192,8192,512,128,1024,8192,8192,2048,1024,8192,8192,8192,8192,8192,8192,128,256,128,128,16,128
249,15709,24.68,90.09,A·chik Mande,4,8,4096,16,2,2,8192,2,1024,16,8192,2,64,2,512,128,1024,2048,2,128,128,2,8192,512,16,512,512,32,128,16,8192,128,8,16,16,128,16
250,15720,30.21,78.92,Garhwal,256,4,4,128,128,128,16,2,2,128,512,8,512,2,512,4096,1024,8192,2048,128,16,2,128,512,128,512,512,512,128,128,8192,128,256,16,16,128,2
251,15725,7.54,40.63,Garre,1024,8,32,128,1024,1024,128,8192,1024,1024,64,8,64,512,512,1024,8192,8192,2,128,1024,2,8192,512,1024,512,512,512,8192,1024,8192,1024,256,128,128,1024,8192
252,15731,22.25,71.19,Saurashtra,512,32,64,128,128,128,128,16,16,16,512,8,512,8,2,4,128,2,2,128,128,2,128,512,128,32,8192,32,128,16,8192,128,2,128,128,128,128
253,15780,22.81,108.36,Gelao,512,2,2,8192,128,1024,2,2,2,16,2048,8,2,2,512,32,128,256,512,128,128,64,1024,2048,1024,32,8192,512,128,16,8192,128,8,128,1024,16,128
254,15797,41.69,44.8,Kakheti,1024,2,2,8192,1024,8192,2,2,2,16,8192,128,2,2,512,2,128,256,512,1024,128,2,128,8,1024,2,8192,512,128,16,8192,1024,1024,16,16,16,128
255,15798,39.78,30.52,Adjari,1024,2,2,8192,1024,8192,2,2,2,1024,64,8192,2,2,512,1024,128,8192,16,8192,128,8192,8192,2048,8192,8192,2,512,8192,1024,8192,8192,256,128,128,2,8192
256,15819,48.22,16.35,Bavaria Munich High Germany,4,4096,1024,16,2,2,8192,2,1024,128,64,2,64,8192,512,2,128,2,512,1024,128,2,128,2048,128,8192,512,8192,128,128,128,16,256,8192,8192,128,8192
257,15830,54.29,10.88,Schleswig-Holstein,64,4,2,128,1024,1024,2,2,2,128,64,8,64,2,512,64,128,256,512,1024,128,2,8192,512,128,8192,8192,8192,8192,128,8192,1024,256,1024,128,128,128
258,15841,51.88,6.91,Rhine-Westphalia,16,2,2,16,2,2,2,2,2,1024,2048,2,2,2,512,2,16,2,2048,128,128,2,8192,32,16,8192,8192,8192,8192,1024,8192,128,8192,8192,8192,128,128
259,15852,51.33,12.37,Urban E Germans,8192,8192,2,8192,128,1024,8192,2,1024,2,64,8192,64,8192,512,2,16,2,512,1024,128,8192,128,512,1024,512,512,8192,2,2,8192,128,64,1024,128,16,128
260,15868,6.66,-1.61,Ghana: Urban,1024,NaN,8192,8192,NaN,NaN,8192,NaN,8192,16,64,8,64,2048,8192,32,1024,8,512,NaN,128,256,8192,2048,128,8192,8192,512,8192,16,8192,128,256,16,1024,16,128
261,15871,6.99,35.58,Bench-Maji,8192,2,2,8192,8192,8192,2,2,2,1024,64,8192,2,2,512,8192,8192,8192,2,128,8192,8192,8192,2048,16,8192,8192,8192,8192,1024,8192,1024,256,16,16,1024,128
262,15890,6.25,37.0,Gidole,1024,2,2,8192,1024,1024,2,2,2,1024,2048,8192,2,2,512,4096,8192,2048,16,128,128,1024,8192,512,1024,512,8192,32,2,1024,128,128,64,128,1024,16,1024
263,15896,-8.1,156.83,I-Kiribati,32,2,2,8192,128,8192,2,2,2,16,2048,8,2,2,512,2,128,2,512,128,128,2,8192,512,128,512,8192,8192,8192,16,8192,128,64,16,16,128,16
264,15907,43.22,142.86,Nivkh,4,2,2,16,2,2,2,2,2,16,64,2,2,2,512,2048,8192,8192,512,128,128,2,1024,32,16,2,8192,512,128,16,2,128,8,16,16,128,128
265,15929,6.41,-10.75,Dan,8192,4096,4096,8192,8192,1024,8192,1024,8192,1024,64,8192,64,2048,512,8192,8192,8192,8192,8192,8192,8192,8192,512,1024,8192,8192,512,8192,1024,8192,8192,8192,128,1024,16,1024
266,15973,12.0,-71.5,Wayuu,4,2,2,16,2,2,2,2,2,128,2048,2,2,2,512,2048,1024,8192,2,128,128,2,8192,2048,16,512,8192,512,8192,128,128,128,64,2,128,1024,1024
267,15978,-9.07,143.2,Gizra,64,2,2,8192,1024,1024,2,2,2,1024,2048,8,2,2,512,4096,128,8192,2,128,1024,8192,8192,2048,16,8192,2,512,8192,1024,8192,128,256,128,128,1024,16
268,15984,-8.86,143.4,Kerewo,32,2,2,8192,1024,128,2,2,2,16,8192,32,2,2,8192,2048,128,2048,2,16,16,8,128,8,16,2,8192,512,128,16,8192,8192,1024,16,16,8192,1024
269,15995,-6.16,35.75,Gogo,2048,4,64,8192,8192,8192,8192,8192,8192,1024,512,8,512,2,512,2048,1024,8192,2,128,1024,256,8192,32,128,8192,8192,8192,8192,1024,8192,128,1024,8192,8192,1024,1024
270,16028,-6.16,35.75,Maria Gond,32,2,2,128,128,1024,2,2,2,1024,64,8,2,2,512,64,1024,2048,16,1024,128,2,8192,2048,128,8192,2,8192,128,1024,8192,128,64,128,128,128,1024
271,16039,23.7,86.94,Kanyapur,4,512,32,16,16,2,128,128,1024,2,2048,2,64,128,512,2,1024,8192,2,1024,16,2,2,8,1024,2,8192,32,128,2,8192,128,8,2,128,1024,16
272,16083,39.57,20.76,Greek Epirus,4,256,128,16,2,2,1024,128,1024,2,8192,2,8192,32,512,16,2,2,2,128,16,2,2,8,128,2,2,2,2,2,8192,1024,8,16,16,128,16
273,16094,37.34,22.35,Kalamata,4,256,128,16,2,2,1024,128,1024,2,64,2,8192,128,512,1024,2,8192,2,1024,16,2,2,512,128,512,512,2,2,2,8192,1024,8,16,128,128,16
274,16100,42.18,2.91,Pontos,4,256,4,16,2,2,8192,2,2,2,512,2,512,2,512,4096,128,2048,16,128,16,2,128,512,128,8192,8192,512,128,2,8192,1024,64,16,1024,128,16
275,16127,65.61,-37.63,Tunumiit,4,256,4,1024,16,16,16,2,2,1024,8192,8,512,2,512,1024,128,2048,2,16,1024,2,8192,32,128,2,32,512,8192,1024,8192,1024,256,16,16,128,1024
276,16138,12.22,-61.61,Grenada,1024,2,8192,8192,1024,8192,8192,8192,8192,1024,64,8,64,2,512,2048,8192,8192,2,128,1024,2,8192,512,128,8192,8192,8192,8192,1024,8192,128,256,128,128,128,128
277,16170,-9.57,160.14,Guale,4096,2,2,8192,1024,1024,2,2,2,8192,8192,8192,2,2,512,4096,1024,256,2048,1024,128,8192,8192,32,128,512,2,512,2,8192,128,1024,256,1024,128,1024,8192
278,16182,16.31,-61.43,Guadeloupe,1024,4096,8192,128,1024,8192,8192,8192,8192,1024,64,8,64,2048,512,1024,8192,2048,512,128,128,2,8192,512,128,8192,8192,8192,8192,1024,8192,128,256,128,128,128,128
279,16193,8.74,-66.23,Guahibo,32,2,2,1024,128,16,2,2,2,1024,512,32,2,2,512,4096,1024,8192,2,128,1024,2,1024,512,128,512,8192,512,8192,1024,8192,1024,64,16,1024,128,1024
280,16292,1.61,16.04,Ngundi,8192,8192,4096,8192,8192,8192,8192,8192,8192,1024,64,8192,64,2048,512,128,1024,8192,512,16,128,8192,8192,2048,16,8192,8192,32,2,1024,8192,1024,1024,128,128,1024,1024
281,16363,48.29,20.69,Hungarian Roma,4,8,2,16,2,2,128,2,2,1024,64,2,64,128,512,32,1024,32,16,1024,128,2,8192,2048,128,512,512,512,8192,1024,8192,1024,64,16,128,16,128
282,16402,48.29,20.69,Zanzibar Swahili,256,8192,32,8192,128,128,128,1024,8192,16,64,8,64,128,512,4,8192,8192,16,128,1024,2,8192,512,128,8192,8192,32,128,16,128,128,8,2,16,128,1024
283,16424,53.0,-132.0,Haida,64,4,64,128,128,128,128,2,2,1024,2048,8,8,2,32,64,128,2,2,1024,1024,2,1024,512,128,512,8192,512,8192,1024,128,1024,64,16,128,1024,1024
284,16429,-9.47,147.2,Hahon,4096,8,64,8192,128,1024,128,1024,1024,128,2048,8,8,8,512,4096,2,8192,NaN,8192,1024,1024,8192,2048,1024,8192,2,512,128,128,8192,128,64,128,128,16,1024
285,16446,18.59,-72.3,Haiti,256,8192,32,128,1024,8192,8192,8192,8192,128,64,8,64,2048,512,2048,1024,8192,16,1024,128,2,8192,512,1024,8192,8192,512,8192,128,8192,1024,256,128,128,128,128
286,16457,23.37,113.76,Hakka,4,2,2,16,2,2,2,2,2,16,2048,2,2,2,512,2048,128,2048,2,128,16,2,128,512,128,2,8192,32,128,16,8192,128,8,16,128,128,16
287,16473,-9.47,147.2,Halia,4096,2,2,8192,1024,1024,2,2,2,8192,64,8192,2,2,512,64,128,256,NaN,1024,1024,8192,8192,32,1024,512,2,32,2,8192,8192,128,256,128,128,128,8192
288,16479,13.83,29.41,Hamar,4096,8,64,8192,1024,1024,8192,8192,1024,8192,64,512,64,512,512,512,8192,8192,16,1024,128,8192,1024,512,1024,8192,8192,512,8192,8192,128,8192,256,128,128,128,8192
289,16517,-6.8,146.56,Anga,2048,2,2,8192,1024,128,2,2,2,128,2048,8192,2,2,512,2048,1024,2048,16,16,128,8,8192,2048,128,32,2,512,2,128,8192,128,64,16,128,16,1024
290,16545,16.56,121.26,Hanunoo,4,256,4,16,2,2,2,2,2,2,8192,2,2,2,512,2,128,8192,512,128,16,2,128,32,16,2,8192,512,8192,2,8192,1024,256,2,16,8192,2
291,16578,-3.58,35.0,Hadza,64,4,64,8192,1024,1024,128,2,2,8192,64,8,8,8,512,512,1024,8192,2,1024,1024,1024,8192,512,128,8192,8192,8192,8192,8192,8192,1024,256,128,1024,128,1024
292,16589,11.74,8.52,Hausa Kanawa,4,4,32,16,2,2,128,8192,8192,16,64,2,64,128,512,4096,1024,8192,16,1024,1024,2,128,2048,128,8192,8192,32,8192,16,8192,1024,256,128,128,16,1024
293,16600,38.98,-114.3,Havsuwʼ Baaja,4,4,4,16,2,2,16,2,2,16,2048,2,8,2,32,64,1024,8,16,16,1024,2,1024,512,128,8192,8192,8192,128,16,8192,1024,64,16,2,128,128
294,16611,20.0,-155.82,Native Hawai'i,16,4,4,16,2,2,16,2,2,2,64,2,64,2,512,4096,8192,8192,8192,16,1024,2,8192,512,128,8192,8192,8192,8192,2,8192,128,256,1024,1024,1024,2
295,16622,11.19,29.41,Hawazma,4,2,2,16,2,2,2,2,2,16,64,2,64,2,512,1024,1024,2048,16,1024,128,2,1024,2048,128,512,8192,512,8192,16,8192,1024,8,16,128,128,1024
296,16633,-1.32,31.8,Haya,1024,8192,2048,8192,8192,1024,8192,128,1024,128,64,8,64,512,512,32,1024,64,2,16,16,8,128,32,128,8192,8192,32,2,128,128,1024,256,1024,16,1024,8192
297,16644,34.81,67.82,Hazara,128,2,2,1024,128,2,2,2,2,2,8192,32,2,2,512,2,16,2,2,128,16,2,2,32,128,2,8192,32,128,2,128,128,2,2,16,16,16
298,16655,12.8,45.03,Yemenite Jews,4,256,4,16,2,2,16,128,2,16,2048,2,64,2,512,2,16,2,2,128,16,2,2,512,8192,512,8192,2,2,16,2,128,8,2,2,16,1024
299,16666,57.26,-7.33,South Uist,256,2,2,128,1024,1024,2,2,2,128,64,8,2,2,512,64,1024,64,16,1024,128,2,8192,512,128,8192,8192,8192,8192,128,8192,1024,256,128,128,128,16
300,16688,-7.73,35.69,Hehe,4,4,64,8192,8192,8192,128,8192,8192,128,64,8,64,512,8192,1024,1024,8192,16,128,128,2,8192,2048,128,8192,8192,512,8192,128,8192,128,256,16,128,128,1024
301,16710,-14.11,28.28,Tumbuka,1024,8,64,8192,1024,8192,128,8192,8192,128,64,8,8,8,2,128,128,2048,2,16,128,1024,8192,512,128,8192,8192,8192,2,128,8192,128,64,8192,128,128,128
302,16750,19.15,84.22,Hill Saora,4,2,2,16,2,2,2,2,2,128,2048,2,2,2,512,2048,1024,2048,2,128,128,2,1024,512,16,512,8192,512,8192,128,8192,128,64,2,128,128,16
303,16787,-19.4,13.91,Himba,8192,4,4096,8192,8192,1024,8192,8192,128,1024,2048,8192,512,2048,512,8192,1024,8192,2,128,8192,8192,8192,2048,128,8192,8192,512,128,1024,8192,128,1024,1024,1024,1024,8192
304,16792,25.88,84.29,Bhojpuri,4,2,2,16,2,2,8192,2,2,2,2048,2,2,2,512,512,1024,2048,2,128,16,2,128,512,128,512,512,512,128,2,8192,128,64,16,128,1024,16
305,16809,43.22,142.86,Hokkaido Ainu,4,2,64,8192,128,128,128,8192,128,1024,2048,8,8,8,512,4096,1024,8192,2,1024,1024,2,1024,32,128,512,8192,512,128,1024,2,1024,256,16,16,128,128
306,16825,-9.44,159.97,Honiara,32,4,4,8192,1024,1024,8192,2,2,2,64,8,64,2,512,64,128,64,2048,1024,128,1024,8192,512,128,8192,8192,32,8192,2,8192,1024,1024,16,1024,128,128
307,16831,36.06,-109.18,Hopituh Shi-nu-mu,64,4,4,128,1024,1024,16,2,2,1024,2048,8,2048,2,512,8,1024,2,16,1024,1024,2,1024,512,1024,8192,8192,512,8192,1024,128,1024,256,128,128,2,128
308,16869,35.95,103.28,Hui,4,2,2,16,2,2,2,2,2,128,2048,2,2,2,512,8,128,32,512,1024,128,2,16,32,1024,512,8192,512,128,128,2,1024,64,16,128,128,128
309,16875,20.65,-103.42,Wixáritari,4,8,32,16,2,2,8192,2,2,1024,64,2,64,2,512,2048,8192,8192,512,128,1024,2,8192,512,16,512,8192,512,8192,1024,8192,128,64,16,16,1024,128
310,16919,47.6,19.36,Magyar,4,2,2,16,2,2,2,2,2,16,64,2,2,2,512,64,128,64,2,128,128,2,8192,512,1024,8192,8192,8192,8192,16,8192,1024,256,1024,1024,128,16
311,16930,41.09,-123.68,Natinixwe,8192,2,2,8192,128,128,2,2,2,1024,64,128,8,2,512,4096,128,8192,2,1024,1024,8192,16,2048,128,8192,8192,512,8192,1024,2,128,64,16,128,16,8192
312,16963,-2.56,147.28,Iatmul,64,512,64,8192,2,1024,128,8192,128,1024,2048,8,2048,8,512,2048,128,2048,2,16,128,2,8192,2048,16,32,8192,512,8192,1024,8192,128,256,16,128,1024,1024
313,16974,1.55,110.35,Iban,4,2,2,16,2,2,2,2,2,2,8192,2,2,2,512,2,16,8192,2,16,16,2,128,8,16,2,8192,512,128,2,2,1024,8,16,16,1024,2
314,16996,5.85,6.85,Igbo,256,4,64,8192,8192,8192,128,1024,8192,1024,2048,8,2048,128,512,2,8192,2,2,1024,128,256,1024,512,128,8192,8192,512,128,1024,128,128,256,128,128,128,1024
315,17029,7.25,144.44,Ifaluk,4,2,2,16,2,2,2,2,2,2,2048,2,2,2,512,2048,2,8192,8192,16,128,2,1024,8,128,512,8192,32,8192,2,8192,1024,64,1024,1024,128,16
316,17062,16.83,121.17,Ifugao,64,2,2,1024,16,16,2,2,2,2,8192,32,2,2,512,2,16,8192,2,16,128,256,16,32,16,2,8192,512,128,2,8192,128,8,128,128,1024,1024
317,17106,16.55,120.8,Ibaloi,64,2,2,128,128,128,2,2,2,16,8192,8,2,2,512,4096,16,8192,2,16,128,2,8192,8,128,2,8192,512,128,16,8192,128,8,16,128,8192,128
318,17150,16.08,120.62,Ilocano,4,2,2,16,2,2,2,2,2,2,8192,2,2,2,32,2,2,2,2,128,16,2,2,2,128,2,8192,2,2,2,2,1024,8,2,2,16,2
319,17183,16.08,120.62,S Indian Folk,4,256,256,16,2,2,8192,8192,8192,2,64,2,64,512,512,1024,128,8192,2,16,16,2,2,512,16,512,512,2,2,2,8192,128,64,2,16,128,16
320,17194,10.16,-61.43,Indo-Trinidad,4,2,2,128,2,2,2,2,2,2,64,8,2,2,512,64,128,2,2,128,128,2,128,32,128,8192,8192,8192,128,2,8192,128,8,2,16,128,16
321,17227,43.4,44.82,Ingush,4,4,4,16,2,2,8192,2,2,2,512,2,512,2,512,64,1024,32,2,128,128,2,1024,512,128,8192,8192,8192,8192,2,8192,1024,256,128,16,128,128
322,17232,43.4,44.82,Nunatsiarmiut,8192,2,2,8192,1024,8192,2,2,2,8192,64,2048,2,2,512,8192,8192,8192,16,1024,8192,8192,8192,2048,16,512,2,8192,8192,8192,2,8192,64,2,2,16,8192
323,17234,43.4,44.82,Qikiqtaaluk Inuit,8192,2,2,16,8192,8192,2,2,2,8192,64,128,2,2,512,2,8192,8192,2,8192,128,2,8192,2048,128,512,2,8192,8192,8192,128,8192,256,2,8192,16,8192
324,17236,60.02,-70.02,Nunavimmiut,4,2,2,16,2,2,2,2,2,128,2048,2,2,2,512,64,1024,8,2,128,1024,2,8192,2048,16,512,2,8192,8192,128,8192,1024,256,128,2,16,128
325,17249,38.42,45.76,Iran,4,2,2,16,2,2,2,2,2,128,8192,2,2,2,512,2,1024,2,2,128,16,2,2,8,1024,2,8192,512,2,2,2,128,8,16,1024,128,16
326,17265,-1.33,133.17,Papua,256,2,2,128,1024,16,2,2,2,128,8192,8,2,2,2,2,16,2,2,16,128,2,1024,32,16,2,8192,512,128,128,8192,1024,1024,128,1024,1024,1024
327,17271,54.59,-5.93,Ulster,4,2,2,16,2,2,2,2,2,16,64,2,2,2,512,64,128,64,512,1024,128,2,8192,32,128,512,8192,8192,8192,16,8192,128,256,128,128,128,16
328,17282,54.59,-5.93,Onödowáʼga꞉ (Seneca),256,4,32,128,128,1024,128,1024,8192,1024,2048,8,8,8,512,8,128,2,2048,128,1024,2,1024,512,128,8192,8192,512,8192,1024,128,128,64,128,128,16,128
329,17330,45.08,13.85,Croatian Istria,64,2,2,8192,8192,8192,2,2,2,128,64,8,2,2,8192,64,128,8,16,128,128,1024,1024,512,1024,512,2,512,2,128,128,16,64,16,128,16,128
330,17350,45.08,13.85,Letino,16,2,2,16,2,2,2,2,2,16,64,2,2,2,512,2048,128,8192,16,128,128,2,128,32,1024,512,8192,32,2,16,128,16,8,2,16,16,16
331,17359,41.82,15.77,Gargano,4,4,4,16,2,2,8192,2,2,16,64,2,64,2,512,32,128,32,2,128,128,2,1024,32,128,512,8192,512,8192,16,8192,128,2,16,128,16,128
332,17375,44.34,10.49,Emilia-Romagna,4,NaN,64,16,2,2,8192,NaN,1024,128,8192,2,64,8192,512,16,1024,8,2,128,128,2,16,2,1024,2,8192,8192,2,128,2,16,64,128,16,16,16
333,17378,43.37,13.21,Umbria-Marche,1024,2,2,8192,1024,1024,2,2,2,128,2048,8192,2,2,2,2048,128,2048,2,1024,128,1024,128,32,1024,32,8192,512,128,128,128,128,64,128,128,16,128
334,17403,45.21,12.27,Chioggia,4096,2,2,8192,1024,1024,2,2,2,16,64,8,2,2,512,8,16,2,2,16,128,1024,8192,8,128,2,8192,512,128,16,8192,128,8,1024,16,1024,16
335,17414,38.92,1.29,Ibiza,4,256,4,16,2,2,16,2,2,2,2048,2,2048,2,512,1024,16,8192,512,16,16,2,16,8,1024,2,2,32,128,2,2,16,8192,2,16,16,16
336,17436,-11.24,-53.2,Yawalapiti,4,4,2,16,2,2,2,2,2,1024,2048,2,8,2,512,8,1024,2,2,128,1024,2,8192,32,16,8192,8192,8192,8192,1024,8192,2,64,16,16,128,128
337,17469,-11.24,-53.2,Semelai,1024,2,2,8192,128,16,2,2,2,16,8192,8192,2,2,512,16,128,2048,2,1024,16,8,8192,8,16,2,2,32,128,16,8192,1024,8,16,16,1024,16
338,17474,5.55,101.33,Jahai,1024,8,1024,128,128,128,8192,8192,1024,128,2048,8192,64,8192,512,2048,1024,2048,2,16,128,2,1024,512,128,512,8192,8192,8192,128,128,128,8,16,1024,128,16
339,17480,17.97,-76.43,Jamaican,1024,8,64,8192,1024,8192,128,8192,8192,128,64,8,64,8,512,1024,128,8192,512,128,128,64,8192,512,128,8192,8192,512,8192,128,8192,128,256,128,128,16,1024
340,17502,35.67,139.65,Tokyo,256,2,2,1024,128,16,2,2,2,2,8192,32,2,2,512,2,2,2,512,128,16,2,2,2,128,2,8192,32,2,2,2,128,8,16,16,128,16
341,17535,10.3,9.82,Bankalawa Jarawa,16,4096,4096,16,2,2,8192,2,8192,8192,64,2,64,2048,8192,256,8192,2048,2,128,8192,2,8192,2048,1024,8192,8192,512,8192,8192,8192,1024,256,128,128,1024,1024
342,17546,19.44,84.26,Jaunsari,512,2,2,128,128,1024,2,2,2,128,2048,8,2,2,512,1024,2,8192,512,128,128,2,16,512,1024,32,8192,32,128,128,8192,128,256,128,16,16,128
343,17557,19.44,84.26,Javanese,4,512,2,16,2,2,8192,2,8192,2,64,2,2,8192,512,2,128,2,16,8192,1024,2,2,8,128,2,8192,32,128,2,2,16,2,16,1024,128,16
344,17579,29.95,-90.07,New Orleans Creole,4,8192,2048,16,2,2,8192,128,8192,2,64,2,64,8192,512,32,8192,32,2,128,128,2,8192,512,1024,8192,8192,512,8192,2,8192,128,256,128,128,1024,1024
345,17584,29.95,-90.07,Mixed New York Jewish Liturgical,128,2,2,2,16,2,2,2,2,16,8192,2,2,2,512,2,128,2,2,128,128,2,8192,8192,128,2,8192,8192,8192,16,8192,128,64,128,1024,128,1024
346,17587,12.0,37.25,Falasha,64,2,2,1024,128,128,2,2,2,2,8192,32,2,2,2,2,16,2,2,128,16,2,2,32,128,2,512,32,2,2,8192,128,8,16,128,128,128
347,17599,33.87,-5.54,Moroccan Jews,1024,2,2,1024,128,128,2,2,2,2,8192,32,2,2,8192,2,128,2,16,1024,16,2,16,512,128,8192,8192,32,2,2,2,16,64,128,128,128,16
348,17609,33.8,10.84,Tunisian Jews,4096,2,2,1024,16,2,2,2,2,2,8192,32,2,2,512,2,8192,2,512,1024,128,2,128,512,128,8192,8192,32,128,128,128,1024,8,16,128,128,128
349,17610,40.71,-74.0,Ashkenazi New York Jews,4,2,2,16,2,2,2,2,2,2,2048,2,2,2,2,32,2,2,2,128,128,2,128,32,16,32,8192,8192,128,2,8192,1024,256,1024,8192,1024,2
350,17661,22.81,108.36,Jinghpaw,1024,4,4,8192,128,16,16,2,2,8192,2048,8192,512,2,512,NaN,128,2048,16,8192,128,8192,8192,512,1024,512,8192,512,2,8192,128,2,8192,1024,1024,1024,1024
351,17667,-2.11,-78.35,Jivaro,4,2,2,16,2,2,2,2,2,1024,64,2,2,2,512,8192,8192,8192,2,128,8192,2,1024,512,16,512,8192,8192,8192,1024,8192,128,64,16,16,1024,128
352,17689,18.81,82.71,Jhodia,32,4,32,1024,128,1024,128,16,1024,128,64,8,64,512,8192,512,8192,2,16,8192,128,2,128,2048,1024,512,8192,512,8192,128,8192,1024,64,16,128,16,1024
353,17700,31.76,35.21,Israeli Jews,4,2,2,16,2,2,2,2,2,2,8192,2,2,2,512,2,16,2,2048,1024,16,2,16,8,8192,2,8192,2,2,2,128,16,8,2,16,128,16
354,17733,-11.24,-53.2,Yudjá,512,4,64,128,1024,128,128,8192,128,1024,2048,8,8,8,512,64,128,256,16,128,1024,2,1024,32,16,8192,8192,32,8192,1024,8192,8192,256,16,16,1024,1024
355,17755,8.61,0.82,Kabiyé,1024,4,2,128,8192,8192,16,2,2,128,64,8,64,2,NaN,256,1024,2048,2,128,128,2,8192,512,1024,8192,8192,512,8192,128,8192,1024,256,16,16,1024,1024
356,17766,35.7,-0.62,Kabyle,4,2,2,16,2,2,2,2,2,2,2048,2,2,2,512,64,128,64,512,128,1024,2,128,32,16,32,8192,32,2,2,8192,1024,256,128,16,1024,128
357,17865,-5.8,144.68,Kakoli,64,2,2,128,128,128,2,2,2,1024,2048,8,2,2,512,4096,128,8192,2,16,128,2,8192,32,1024,512,8192,512,8192,1024,8192,128,256,16,16,1024,8192
358,17884,36.89,73.26,Kalash,128,256,2048,1024,128,16,128,1024,1024,1024,8192,32,8,128,512,1024,128,2048,2,16,1024,64,16,32,1024,2,2,32,128,1024,2,128,256,128,128,1024,8192
359,17887,3.93,-53.12,Kalina,4,4,4,16,2,2,16,2,2,1024,2048,2,64,2,8192,32,128,256,2,128,128,2,1024,32,16,512,8192,512,128,1024,8192,128,256,16,1024,1024,1024
360,17920,46.18,45.0,Torghut Kalmyks,256,2,2,1024,16,16,2,2,2,128,8192,32,2,2,512,64,128,256,16,1024,1024,2,1024,8,1024,2,8192,32,2,128,128,1024,256,128,1024,128,1024
361,17931,46.18,45.0,Buzawa Kalmyks,4,2,2,16,2,2,2,2,2,16,64,2,2,2,512,64,128,512,512,1024,128,2,1024,32,128,8192,8192,32,128,16,128,1024,256,128,1024,128,128
362,17936,-6.31,143.95,Bosavi,1024,512,64,8192,1024,8192,128,8192,128,1024,2048,8192,8,8,512,4096,1024,8192,2,128,1024,2,8192,512,16,512,512,32,128,1024,8192,128,256,128,1024,1024,1024
363,17997,-10.98,26.73,Kanioka,1024,8192,8192,8192,8192,8192,8192,8192,8192,1024,64,8,64,2048,8192,1024,1024,8192,2,16,128,256,8192,512,128,8192,8192,8192,8192,1024,8192,128,1024,8192,16,128,1024
364,18129,-4.64,145.98,Waskia,256,256,64,128,128,1024,128,8192,128,8192,8192,8,2048,8,2,1024,16,8192,16,16,16,2,128,8,1024,2,512,32,2,8192,8192,128,256,16,16,16,8192
365,18173,33.77,76.57,Kashmiri Dards,256,4,32,8192,16,1024,8192,1024,8192,2,64,8,64,512,512,4,2,2,2,128,128,64,128,2048,1024,8192,8192,512,128,2,8192,16,8,16,16,16,128
366,18283,-10.65,-53.57,Kayabí,64,2,2,128,128,128,2,2,2,128,64,8,2,2,512,64,1024,256,16,128,1024,2,1024,512,128,512,8192,8192,8192,128,8192,1024,64,2,2,16,1024
367,18294,43.22,76.85,Kazakh Steppe Nomads,4,4,4,16,2,2,8192,2,2,2,2048,2,2048,2,512,64,2,32,2,1024,128,2,1024,512,1024,32,32,32,128,2,8192,128,8,2,1024,16,16
368,18305,-5.75,132.73,Kai Islanders,256,4,64,128,16,128,128,16,128,16,512,8,512,8,2,32,2,2048,2,16,128,2,128,32,1024,8192,8192,2,2,16,8192,128,64,2,2,16,16
369,18349,37.09,-82.34,Appalachia,4,2,2,16,2,2,8192,2,2,2,64,2,64,2,512,64,128,64,512,128,128,2,1024,32,128,8192,8192,512,128,2,8192,128,64,16,16,128,16
370,18371,8.52,76.93,Kerala,4,8,32,16,128,2,8192,1024,8192,128,64,8,64,512,512,8,128,2,2,1024,16,2,16,512,128,8192,8192,512,128,128,128,128,8,2,16,128,2
371,18393,65.87,87.84,Ket,1024,2,2,16,2,2,2,2,2,16,2048,2,2,2,512,1024,1024,2048,512,128,1024,2,8192,512,1024,8192,8192,512,2,16,128,1024,1024,128,128,128,1024
372,18431,62.22,70.64,Khanty,4,2,2,16,2,2,2,2,2,128,2048,2,2,2,512,4096,1024,8192,16,16,8192,2,8192,512,128,512,8192,512,128,128,128,1024,256,16,128,128,128
373,18448,31.95,77.1,Khattak,256,8,64,128,128,8192,128,1024,8192,16,512,8,512,8,512,4096,1024,8192,512,16,128,2,128,512,8192,8192,8192,8192,8192,16,128,128,256,16,128,16,2
374,18536,-4.75,155.4,Tuluun,64,2,2,8192,1024,8192,2,2,2,2,64,8,2,2,2,4096,128,2048,2,128,1024,256,8192,2048,16,8192,8192,512,8192,2,8192,1024,1024,128,1024,1024,16
375,18569,35.07,-98.24,Ka'igwu,2048,4,4,128,128,128,16,2,2,1024,2048,8,8,2,32,64,128,2,2,1024,1024,2,1024,512,1024,8192,8192,512,128,1024,128,1024,64,16,16,16,128
376,18591,-0.36,35.28,Kipsigis,1024,4,4,8192,8192,8192,8192,2,2,1024,64,8,64,2,512,32,1024,8192,512,128,1024,8,8192,512,16,8192,8192,8192,8192,1024,8192,1024,1024,1024,8192,128,1024
377,18596,43.22,76.85,Kyrgyz,4,4,4,16,2,2,8192,2,2,2,2048,2,64,2,512,4096,128,2048,2,128,128,2,1024,512,128,8192,8192,512,128,2,8192,128,64,16,1024,128,16
378,18624,36.54,22.39,Inner Mani,32,2,2,128,16,16,2,2,2,16,2048,8,2,2,512,64,128,8192,2,16,128,2,128,32,128,512,8192,32,128,16,128,128,64,16,128,128,128
379,18635,-8.54,143.45,Kiwai,64,4,4,8192,1024,8192,16,2,2,16,2048,8,64,2,8192,2048,2,8192,2048,1024,128,1024,1024,8,16,8192,8192,512,128,16,8192,8192,1024,128,128,8192,1024
380,18778,15.91,79.74,Kolam,512,4096,32,128,16,128,8192,1024,1024,1024,2048,32,64,2048,512,8,1024,2,16,128,128,2,128,2048,1024,512,8192,512,8192,1024,128,128,8,16,128,128,1024
381,18811,-5.33,139.81,Kombai,64,256,4,8192,1024,1024,16,2,2,16,2048,8,2048,2,512,64,1024,512,16,128,1024,256,1024,32,16,32,32,2,128,16,8192,128,1024,1024,1024,128,128
382,18833,18.56,82.97,Konda-Dora,4,4096,128,16,2,2,1024,128,1024,16,2048,2,64,128,512,128,128,2048,2,1024,16,2,16,2048,128,512,32,512,8192,16,8192,128,8,16,128,1024,128
383,18888,5.31,37.21,Konso,1024,8192,2048,8192,1024,8192,8192,128,1024,1024,64,2048,8,512,8192,128,8192,8192,16,128,8192,8,8192,2048,1024,512,512,512,8192,1024,8192,128,256,128,128,16,8192
384,18932,37.56,126.97,Urban S Korea,4,8,256,16,2,2,1024,16,16,2,64,2,64,128,512,2,128,256,16,1024,16,2,128,8,128,8192,8192,512,2,2,2,1024,256,128,128,16,16
385,18943,21.77,78.17,Korku,64,2,2,1024,2,2,2,2,2,128,2048,32,2,2,512,2048,128,8192,512,16,128,2,128,512,16,512,8192,512,8192,128,8192,1024,256,16,128,1024,1024
386,18976,65.17,176.76,Koryak,4,2,2,16,2,2,2,2,2,8192,64,2,2,2,512,4096,1024,8192,512,16,128,2,1024,32,16,8192,8192,8192,128,8192,128,1024,1024,128,1024,1024,8192
387,19014,-2.3,14.37,Kukuya Teke,2048,8192,2048,8192,8192,8192,8192,8192,8192,1024,64,2048,64,2048,512,1024,8192,2048,2,128,16,8,128,8192,128,8192,8192,8192,128,1024,2,8192,256,1024,1024,1024,8192
388,19022,-0.48,15.89,Kouyou,8192,8192,4096,8192,1024,8192,8192,1024,8192,8192,64,8192,64,2048,8192,8192,8192,8192,2,1024,8192,8192,1024,512,1024,8192,8192,512,8192,8192,8192,1024,8192,128,16,1024,1024
389,19025,-5.61,147.96,Kovai,4096,512,2,8192,1024,128,2,8192,2,1024,2048,8,2048,8,512,2048,128,2048,2,1024,1024,8,8192,512,1024,512,512,32,128,1024,8192,16,256,128,128,16,1024
390,19031,16.87,80.92,Koya,64,2,2,128,128,128,2,2,2,128,64,8,2,2,512,64,8192,256,512,1024,128,2,1024,2048,128,512,8192,512,8192,128,8192,1024,256,16,16,128,1024
391,19053,6.99,-9.47,Kpelle,8192,2,2,8192,1024,8192,2,2,2,1024,64,8192,2,2,512,8192,8192,8192,512,128,1024,8192,8192,2048,1024,8192,8192,8192,128,1024,8192,128,8192,16,16,1024,1024
392,19064,6.99,-9.47,Canela,64,2,2,8192,1024,128,128,2,2,1024,2048,8,2,2,2,1024,128,8192,2,128,1024,256,8192,32,128,8192,8192,2,128,1024,128,128,1024,1024,1024,2,8192
393,19086,4.76,-8.22,Kru,4,NaN,4,16,2,2,8192,NaN,2,1024,64,2,64,2,8192,1024,8192,2048,512,128,128,2,8192,2048,16,8192,8192,512,8192,1024,8192,128,256,128,16,1024,1024
394,19097,-6.2,149.53,Kaulong,64,4,64,128,128,1024,128,8192,8192,1024,2048,8,8,8,512,4096,128,2048,2048,128,128,2,1024,512,128,8192,8192,32,128,1024,8192,128,64,8192,8192,128,8192
395,19141,-12.68,-56.92,Kuikuru,64,4,64,128,128,1024,128,1024,1024,1024,64,8,8,8,8192,64,1024,8,16,16,128,2,8192,2048,128,8192,8192,512,128,1024,128,128,64,1024,16,16,1024
396,19196,32.55,76.12,Kullu,512,512,2048,128,1024,1024,1024,16,2,128,64,8,64,512,512,2048,1024,8192,16,128,16,2,16,512,128,32,2,32,2,128,8192,128,64,16,128,128,16
397,19262,-25.59,21.09,Juǀʼhoansi,8192,4,64,8192,8192,8192,128,8192,8192,8192,512,8192,512,8,512,8192,8192,8192,512,1024,8192,8192,8192,512,16,8192,8192,8192,8192,8192,8192,1024,8192,8192,8192,8192,8192
398,19273,-8.21,142.1,Kunga,128,2,2,1024,1024,16,2,2,2,16,8192,32,2,2,512,2048,16,2048,512,128,1024,2,8192,8,16,2,8192,32,128,16,8192,1024,256,8192,128,1024,1024
399,19284,-8.81,146.53,Kunimaipa,64,2,2,8192,1024,1024,2,2,2,8192,8192,8,2,2,32,2048,128,2048,2,1024,1024,64,8192,32,16,2,8192,32,128,8192,8192,1024,1024,1024,8192,1024,1024
400,19295,16.03,-16.48,Kunta,1024,256,32,1024,128,16,8192,128,8192,2,2048,32,2048,128,512,4,128,2,2,1024,16,2,2,8,128,2,8192,32,128,2,2,1024,2,16,128,128,128
401,19317,36.26,59.61,Khorasani Kurds,4,4,32,16,2,2,8192,128,1024,16,64,2,64,512,512,4,1024,2,2,128,16,2,2,512,128,512,512,2,128,16,128,128,2,2,128,16,16
402,19328,36.8,44.24,Barzani Kurd,4,2,2,16,2,2,2,2,2,2,8192,2,2,2,512,2,2,2,2,128,16,2,16,512,1024,2,8192,32,128,2,2,128,8,16,16,16,16
403,19377,0.33,34.48,Bukusu,1024,4096,2048,8192,1024,1024,8192,8192,8192,16,2048,8,64,8192,8192,128,1024,8192,2,128,1024,8,8192,8192,1024,8192,8192,8192,8192,16,8192,128,256,16,16,16,1024
404,19394,49.51,-115.76,Ktunaxa,256,4,64,128,128,128,16,2,2,1024,64,8,8,2,32,64,1024,256,2,1024,1024,2,8192,512,1024,8192,8192,32,128,1024,2,128,2,2,16,16,1024
405,19438,26.22,50.58,Kuwait,4,2,2,16,2,2,2,2,2,2,8192,2,2,2,512,1024,1024,2048,2,8192,16,2,16,8,1024,2,8192,512,2,2,2,8192,64,16,1024,16,128
406,19460,49.65,-125.44,Kwakwa̱ka̱’wakw,4,4,4,128,2,2,16,2,2,2,2048,8,8,2,512,4,128,2,512,16,16,2,128,512,128,8192,8192,512,128,2,128,128,2,16,2,16,16
407,19493,29.89,-91.9,Cajun,4,2,2,16,2,2,2,2,2,2,64,2,2,2,512,64,128,64,512,128,1024,2,1024,8,128,2,8192,8192,128,2,8192,128,8,16,16,128,16
408,19526,16.73,-92.63,Lacandon,4,2,2,16,2,2,2,2,2,1024,2048,2,2,2,512,4,16,2,16,16,1024,2,8192,512,16,512,8192,32,8192,1024,8192,1024,8,16,16,128,128
409,19537,35.03,-107.38,Kawaik,64,4,4,128,1024,1024,16,2,2,1024,2048,8,2048,2,512,4,1024,2,2,128,1024,2,8192,32,1024,8192,8192,512,8192,1024,128,128,256,1024,1024,128,1024
410,19548,19.91,99.84,Lahu (Thailand),4,2,2,16,2,2,2,2,2,128,8192,2,2,2,512,2048,1024,2048,512,128,1024,2,1024,512,1024,2,8192,32,128,128,8192,16,8,128,1024,16,1024
411,19614,19.91,99.84,Lala,4,4,4,16,2,2,8192,2,2,16,64,2,64,2,512,2048,8192,2048,16,128,128,2,8192,2048,1024,8192,8192,512,8192,16,8192,128,256,16,16,128,1024
412,19680,20.91,101.16,Lanten,4,4,32,16,2,2,128,128,1024,16,2048,2,2048,128,512,128,1024,2,2,16,16,2,16,512,128,512,512,512,8192,16,128,128,8,2,128,128,16
413,19691,18.11,102.52,Lao,4,512,32,16,2,2,8192,128,128,2,64,2,2048,8192,512,2,1024,2,16,1024,128,2,16,32,128,8192,8192,32,128,2,2,1024,8,2,128,128,2
414,19702,70.48,26.01,W Sáami,4,2,2,16,2,2,2,2,2,8192,2048,2,2,2,512,2048,1024,8192,512,128,1024,2,128,512,128,512,8192,512,8192,8192,2,128,256,128,16,128,1024
415,19724,56.71,24.81,Latvian,4,2,2,8192,1024,1024,2,2,2,16,64,8,2,2,512,4096,1024,8192,2,16,128,2,8192,512,128,512,8192,8192,8192,16,8192,128,256,128,128,128,128
416,19746,33.98,35.63,Lebanese Maronite,64,2,2,128,1024,1024,2,2,2,128,64,8,64,2,512,8,128,2,2,16,128,2,128,512,128,8192,8192,8192,8192,128,8192,1024,256,2,128,128,128
417,19790,-16.3,167.51,Mbotgote,256,512,32,8192,128,128,8192,1024,8192,1024,8192,32,64,2048,512,2048,128,8192,2048,1024,1024,256,1024,8192,1024,2,512,32,128,1024,8192,8192,64,128,128,1024,8192
418,19801,1.57,30.23,Lendu,4,256,4,16,2,2,8192,2,2,16,2048,2,512,2,8192,128,8192,8192,16,128,1024,2,8192,512,16,512,512,512,8192,16,8192,1024,256,128,16,1024,128
419,19856,2.72,30.64,Lese,8192,2,2,8192,128,8192,2,2,2,8192,64,8192,2,2,8192,8192,8192,8192,8192,128,1024,8192,8192,512,1024,8192,8192,512,2,8192,8192,1024,256,128,128,16,1024
420,19889,39.9,116.4,Li,4,2,2,16,2,2,2,2,2,128,8192,2,2,2,512,16,1024,256,512,128,16,2,128,32,1024,2,8192,512,2,128,2,16,64,128,128,16,1024
421,19922,44.4,8.94,Genoa,8192,2,2,8192,8192,8192,2,2,2,1024,2048,8192,2,2,512,4,16,2,2048,8192,128,8192,128,2048,1024,8192,8192,8192,2,1024,8192,8192,8192,1024,1024,16,1024
422,19966,22.81,108.36,Lisu,256,2,2,8192,128,128,2,2,2,16,8192,32,2,2,NaN,32,128,32,512,128,8192,1024,128,8,1024,2,8192,512,8192,16,128,128,256,128,128,128,1024
423,19977,56.32,22.01,Žemaitija,4096,2,2,8192,1024,1024,2,2,2,2,64,8,2,2,512,8192,1024,8192,2,16,128,8192,8192,2048,128,8192,8192,8192,128,2,8192,128,256,8192,8192,128,128
424,20032,22.81,108.36,Yi,1024,2,2,8192,128,16,2,2,2,16,2048,8192,2,2,512,32,16,8,2,1024,1024,8192,128,8,1024,2,8192,2,128,16,2,128,64,16,128,128,128
425,20087,57.42,-2.38,Lowland Scotland,4,2,2,16,2,2,2,2,2,2,64,2,2,2,512,32,128,64,512,1024,128,2,8192,512,128,32,8192,512,8192,2,8192,1024,256,128,16,128,128
426,20098,-18.35,26.5,Lozi,256,4,4,8192,8192,8192,8192,2,2,128,64,8,64,2,512,4,1024,8192,512,128,1024,64,8192,512,128,8192,8192,512,8192,128,8192,128,1024,16,16,128,1024
427,20109,18.27,98.11,Lua,64,2,2,16,2,2,2,2,2,2,2048,2,2,2,512,1024,1024,2048,2,16,1024,2,8192,8,1024,32,8192,32,2,2,128,1024,256,2,16,128,128
428,20131,18.27,98.11,Luba-Katanga,256,8,32,8192,8192,8192,128,8192,8192,16,2048,8,64,512,512,32,8192,32,16,128,128,1024,8192,2048,128,8192,8192,512,128,16,8192,1024,256,128,128,128,128
429,20142,-10.71,25.46,Hemba,1024,4096,2048,8192,8192,8192,8192,8192,8192,16,64,2,64,128,512,1024,1024,8192,2,128,128,256,8192,2048,128,8192,8192,512,8192,16,8192,128,256,128,128,128,128
430,20153,40.49,16.45,Lucania,256,256,4,8192,16,128,8192,2,2,2,2048,32,64,2,512,1024,2,2048,2,16,128,64,128,32,8192,32,8192,2,128,2,8192,2,8,2,2,16,128
431,20219,-5.04,20.71,Luba-Lulua,1024,4,32,8192,8192,8192,8192,8192,8192,128,64,8,64,128,8192,1024,8192,8192,2,128,1024,1024,8192,2048,128,8192,8192,512,8192,128,8192,128,256,128,16,128,1024
432,20230,-12.02,24.52,Lunda,1024,4,32,8192,8192,8192,8192,8192,8192,128,64,8,64,2048,512,1024,1024,8192,2048,128,128,256,8192,512,1024,8192,8192,512,8192,128,8192,1024,1024,128,128,128,128
433,20241,-0.09,34.76,Luo,4,4096,32,16,2,2,128,2,8192,16,2048,2,64,2,512,128,1024,2048,2,128,128,2,8192,2048,128,8192,8192,8192,8192,16,8192,128,256,128,16,128,1024
434,20252,-11.77,19.89,Luvale,4,4,4,8192,8192,8192,8192,2,2,128,2048,8,64,2,512,4,8192,2,2,128,128,1024,8192,512,1024,8192,8192,512,128,128,8192,128,1024,128,1024,16,1024
435,20318,41.51,20.52,Slavic Macedonian,4,2,2,16,2,2,2,2,2,16,2048,2,2,2,512,32,16,8192,16,1024,128,2,128,512,128,512,8192,512,128,16,8192,1024,256,128,1024,128,128
436,20362,-5.22,145.78,Madang,64,8,32,128,128,128,1024,16,128,1024,2,2,2048,128,8192,2,2,2,2,16,16,2,128,32,128,512,32,512,128,1024,8192,1024,8,16,16,128,1024
437,20417,8.49,123.3,Maguindanao,4,2,2,16,2,2,2,2,2,2,8192,2,2,2,512,2,2,2,16,128,16,2,2,32,1024,2,8192,32,2,2,128,1024,8,16,128,128,2
438,20439,-23.72,44.31,Mahafaly,1024,2,2,8192,1024,128,2,2,2,128,2048,8,2,2,512,256,1024,8192,2,128,1024,2,8192,2048,16,512,8192,512,128,128,8192,1024,1024,128,128,1024,1024
439,20477,6.17,35.58,Dizi,8192,8192,8192,8192,1024,1024,8192,8192,1024,8192,512,8192,512,512,512,8192,1024,2048,2,1024,1024,8192,8192,512,1024,512,8192,512,2,8192,128,1024,256,128,1024,128,8192
440,20516,-4.63,151.98,Makolkol,2048,512,256,8192,16,2,1024,128,2,2,8192,32,8192,32,512,2,2,2,2,128,1024,8192,8192,2048,1024,2,2,32,128,2,8192,128,2,2,2,16,16
441,20571,2.45,102.16,Malay,256,8,64,16,2,2,128,128,16,2,8192,2,64,128,512,2,128,2,2,16,16,2,2,32,128,2,8192,2,2,2,2,128,2,2,16,128,2
442,20604,-16.3,167.51,Namba Unknown,32,256,2,128,1024,128,2,2,2,8192,2048,8,2048,2,512,32,128,32,2,128,1024,2,8192,32,16,512,8192,32,8192,8192,8192,1024,256,128,128,1024,128
443,20615,7.0,-9.47,Malinke,4,8192,32,16,2,2,8192,8192,8192,128,64,8,64,512,512,2,1024,8192,2,128,128,2,8192,512,1024,8192,8192,512,8192,128,8192,128,256,16,16,16,1024
444,20626,39.71,2.62,Mallorca,256,2,2,16,2,2,2,2,2,2,8192,2,2,2,512,1024,16,2048,2,128,16,2,1024,8,1024,2,8192,512,2,2,8192,128,256,16,16,128,16
445,20681,-4.03,21.75,Mamvu,1024,4096,4,8192,1024,1024,8192,2,2,16,64,8192,512,2,8192,1024,8192,8192,2,128,1024,2,8192,512,16,8192,8192,32,2,16,8192,1024,1024,128,16,1024,1024
446,20714,43.7,126.19,Manchu,16,2,2,16,2,2,2,2,2,16,2048,2,2,2,8192,1024,128,2048,16,16,128,2,128,2048,1024,512,8192,32,128,16,2,128,64,128,16,16,1024
447,20758,-23.1,-134.97,Mangareva,32,2,2,128,1024,8192,2,2,2,128,2048,8,2,2,512,2048,128,2048,512,16,128,2,8192,512,16,8192,8192,8192,8192,128,8192,128,256,128,1024,1024,16
448,20791,7.1,125.03,Manobo,4,2,2,16,2,2,2,2,2,2,8192,2,2,2,512,2,2,2,512,1024,8192,2,1024,8,128,2,8192,32,2,2,8192,128,256,16,8192,128,16
449,20802,-2.56,147.28,Mantankor,32,2,2,8192,8192,8192,2,2,2,16,8192,8,2,2,8192,128,1024,8192,16,128,128,1024,1024,512,2,2,8192,512,128,16,128,128,256,1024,1024,8192,1024
450,20813,-2.09,146.87,Manus,64,2,2,128,128,2,2,2,2,2,8192,8,2,2,512,2048,128,8192,2,2,128,2,8192,512,16,2,8192,512,8192,2,8192,1024,64,128,16,1024,16
451,20818,-3.88,130.92,Manuwoko,4,256,4,16,2,2,16,2,2,128,8192,2,64,2,512,256,1024,256,2,16,16,2,128,32,1024,2,32,32,128,128,128,128,256,16,128,1024,128
452,20829,22.81,108.36,Maonan,64,2,2,8192,1024,8192,2,2,NaN,128,2048,8,2,2,512,4096,128,8192,2,16,128,1024,8192,2048,128,512,8192,8192,8192,128,8192,128,64,128,8192,128,16
453,20832,-10.13,148.82,Maopa,32,4,64,8192,1024,1024,128,2,2,1024,2048,8,2048,8,512,2048,128,8192,2,128,16,8,16,512,16,512,8192,512,128,1024,8192,1024,256,16,16,128,1024
454,20835,-39.23,175.6,Maori,64,2,2,128,8192,8192,2,2,2,2,8192,8,2,2,2,2048,16,2,2,16,16,2,8192,8,16,2,8192,32,8192,2,8192,1024,256,8192,8192,1024,16
455,20879,-4.98,145.19,Maring,256,2,2,128,128,16,2,2,2,1024,2048,8,2,2,512,2048,1024,8192,2,16,128,2,1024,512,2,2,8192,32,2,1024,8192,128,256,128,128,16,8192
456,20890,-6.73,146.96,Markham River,64,2,2,128,16,16,2,2,2,128,8192,32,2,2,32,4,128,2,512,1024,16,2,8192,8,1024,2,8192,2,128,128,8192,128,2,2,2,16,8192
457,20901,-9.78,-139.08,Marquesas,1024,2,2,128,1024,1024,16,2,2,16,2048,8,2,2,512,2048,1024,2048,2,16,2,2,8192,2048,128,512,8192,8192,128,16,8192,1024,256,128,128,128,1024
458,20923,8.71,167.73,Marshall,4,2,2,16,2,2,2,2,2,16,2048,2,2,2,512,64,128,32,512,128,128,2,8192,512,16,512,2,8192,8192,16,8192,1024,64,1024,1024,128,128
459,20934,14.6,-60.89,Martinique Urban Creole,4,32,2048,16,2,2,8192,128,1024,128,64,2,64,512,512,64,128,2048,2,128,1024,2,8192,512,128,8192,8192,8192,8192,128,8192,16,256,128,128,128,128
460,20945,11.85,14.84,Masa,2048,4,64,128,128,1024,128,1024,1024,1024,64,8,64,8,8192,1024,8192,8192,2,128,128,2,8192,512,1024,512,8192,32,8192,1024,8192,128,64,16,16,16,128
461,20956,-2.65,37.26,Maasai,1024,2,2,8192,1024,8192,2,2,2,8192,64,128,2,2,512,4096,8192,8192,2,128,8192,8,8192,2048,1024,8192,8192,512,8192,8192,8192,1024,256,8192,128,16,1024
462,20967,-3.38,36.68,Arusa Masai,1024,2,2,8192,8192,8192,2,2,2,128,64,8,2,2,512,128,1024,8192,2,1024,1024,256,8192,512,1024,8192,8192,512,8192,128,128,1024,1024,1024,16,16,1024
463,20978,-10.95,151.06,Massim,256,4,4,8192,1024,1024,16,2,2,128,8192,8,8,2,2,8,1024,2,2,128,128,8,1024,32,128,512,8192,32,8192,8192,8192,1024,8,16,128,128,16
464,20989,-26.18,-58.22,Wichí,4,2,2,16,2,2,2,2,2,8192,64,2,2,2,512,64,1024,2048,2,128,8192,2,8192,2048,1024,8192,8192,512,128,8192,128,1024,256,128,128,16,1024
465,21033,20.68,-88.2,Yucatan Maya,4,2,2,16,2,2,2,2,2,2,2048,2,2,2,512,64,1024,2,512,128,128,2,8192,32,16,512,8192,8192,8192,2,8192,1024,256,16,16,128,16
466,21044,3.58,28.29,Mayogo,1024,4,32,8192,8192,8192,8192,1024,8192,128,64,8192,64,512,8192,8192,1024,8192,16,1024,1024,8192,8192,512,128,8192,8192,32,128,128,128,1024,1024,128,128,1024,1024
467,21055,18.13,-96.84,Mazateco,4,2,2,16,2,2,2,2,2,128,64,2,2,2,512,64,1024,64,512,16,1024,2,8192,512,16,512,8192,8192,8192,128,8192,1024,8,16,16,128,128
468,21077,-4.16,18.8,Mbala,8192,8192,4096,8192,1024,8192,8192,1024,8192,128,2048,8,64,2048,512,128,8192,8192,16,128,1024,64,8192,2048,1024,8192,8192,8192,8192,128,8192,1024,256,128,16,16,1024
469,21093,-4.64,26.36,Mboko Sawa,4,4096,4,16,2,2,8192,2,2,128,64,2,64,2,512,4096,1024,8192,2,16,128,2,8192,512,16,8192,8192,8192,8192,128,8192,1024,256,128,128,128,128
470,21110,7.75,15.13,Mbum,64,32,4096,8192,8192,8192,8192,8192,8192,8192,64,8,512,2048,8192,4096,1024,8192,2,128,1024,2,8192,2048,1024,8192,8192,8192,8192,8192,8192,128,256,8192,8192,128,8192
471,21132,2.72,30.64,Mbuti,8192,2,2,8192,8192,8192,2,2,2,8192,64,8192,2,2,512,8192,8192,8192,8192,1024,8192,8192,8192,512,1024,8192,8192,512,2,8192,8192,1024,8192,128,1024,1024,1024
472,21170,29.26,0.22,Meherza,8192,8192,8192,8192,128,1024,8192,128,1024,1024,64,8,64,2048,512,8192,8192,2048,2048,16,8192,8192,8192,2048,1024,8192,8192,512,128,1024,8192,1024,64,128,128,16,1024
473,21176,24.66,93.9,Meitei,4,512,4,16,2,2,8192,2,2,16,8192,2,8192,512,512,128,1024,2048,2,128,1024,2,16,512,128,2,2,32,8192,16,2,128,1024,16,128,1024,128
474,21187,-9.13,147.46,Mekeo,256,2,2,8192,1024,128,2,2,2,2,8192,8,2,2,2,1024,2,8192,2,16,128,8,1024,8,128,2,8192,32,128,2,8192,128,8,1024,128,128,16
475,21198,7.86,-11.19,Mende,512,8,32,8192,8192,1024,128,1024,8192,128,64,8,64,512,512,4096,8192,8192,16,128,1024,2,8192,512,1024,8192,8192,512,8192,128,8192,128,256,128,128,128,1024
476,21209,45.01,-88.89,Mamaceqtaw,32,256,4,128,128,128,128,2,2,1024,2048,8,64,2,32,64,1024,2,2,128,8192,2,8192,512,1024,8192,8192,512,8192,1024,8192,1024,256,128,128,128,1024
477,21220,-0.58,101.34,Mentawai,4,2,2,16,2,2,2,2,2,16,8192,2,2,2,512,32,16,2048,2,128,1024,2,8192,32,128,2,2,32,2,16,128,1024,256,16,16,128,16
478,21231,20.06,102.62,Hmong,4,256,128,16,2,2,8192,2,2,2,2048,2,64,2,512,2,128,2,512,128,1024,2,128,2048,128,512,512,512,8192,2,128,1024,64,2,128,128,16
479,21242,-19.87,47.02,Merina,64,4,4,8192,8192,1024,8192,8192,8192,16,64,8,64,128,512,64,128,2,2,1024,128,256,8192,2048,8192,8192,8192,32,128,16,8192,128,256,8192,1024,1024,16
480,21253,-3.38,36.68,Meru,8192,4,4,8192,1024,1024,16,2,NaN,8192,64,2048,64,8,8192,8192,8192,8192,512,8192,16,8,16,512,1024,8192,8192,32,2,8192,128,1024,8192,128,1024,128,8192
481,21286,41.96,-92.57,Meshkwahkihaki,4,256,4,16,2,2,16,2,2,1024,64,2,8,2,512,64,1024,256,512,128,1024,2,1024,512,1024,512,512,8192,8192,1024,128,1024,1024,128,128,16,1024
482,21291,17.55,-99.5,Guerrero,64,4,64,8192,8192,8192,8192,8192,8192,2,2048,8,64,128,512,4,128,256,2,128,128,256,8192,512,16,512,512,512,8192,2,8192,128,256,1024,1024,1024,128
483,21319,19.91,99.84,Miao (Thailand),4,2,2,16,16,2,2,2,2,1024,2048,2,2,2,512,128,1024,2048,8192,1024,128,2,1024,2048,128,512,8192,512,128,1024,2,128,8192,16,128,128,16
484,21341,19.91,99.84,Middle Wahgi,64,512,256,128,1024,1024,128,2,128,8192,2048,8,8,2,512,4096,128,8192,2,16,128,2,8192,32,1024,8192,8192,512,8192,8192,8192,128,1024,8192,1024,16,8192
485,21385,-0.58,101.34,Minangkabau,4,256,4,16,2,2,16,2,2,16,2048,2,2048,2,512,32,1024,2,16,128,16,2,16,8,16,2,2,32,128,16,128,128,8,16,128,128,16
486,21440,12.01,-83.77,Miskito,4,4096,4,16,2,2,8192,2,2,16,64,2,64,2,512,32,8192,8192,2,128,128,2,8192,2048,128,512,8192,512,8192,16,8192,128,64,16,16,128,16
487,21484,17.07,-96.72,Mixtec,4,4,4,16,2,2,8192,2,2,16,2048,2,2048,2,512,2048,16,2048,16,128,128,2,8192,8192,1024,8192,8192,512,8192,16,128,128,64,128,16,16,16
488,21506,12.71,108.23,Mnong,4,2,2,16,2,2,2,2,2,2,8192,2,2,2,512,2,16,2,2,16,16,2,2,2048,16,2,8192,512,2,2,8192,128,8,2,16,1024,16
489,21594,34.15,-114.28,Aha Makhav,4,4,4,16,2,2,16,2,2,1024,2048,2,64,2,512,512,1024,2,16,128,1024,2,8192,512,128,8192,8192,32,8192,1024,8192,128,256,16,16,128,128
490,21647,47.88,106.9,Mongols,4,4,4,16,2,2,8192,2,2,2,8192,2,64,2,512,64,128,256,2,1024,128,2,8192,512,1024,2,8192,32,2,2,2,1024,256,16,1024,16,8192
491,21665,-4.41,140.01,Moni,8192,2,2,8192,128,16,2,2,2,16,8192,8192,2,2,8192,1024,128,2048,512,1024,1024,8192,8192,512,16,2,2,32,128,16,8192,8192,8,128,128,1024,8192
492,21693,49.19,16.6,Moravian,4,8,32,16,2,2,8192,8192,2,2,64,2,64,2,512,64,128,512,512,128,128,2,8192,32,128,8192,8192,8192,8192,2,8192,128,1024,1024,128,128,16
493,21704,54.23,44.06,Mordovian,256,2,2,8192,8192,8192,2,2,2,2,64,8,2,2,512,64,1024,256,8192,8192,128,8192,8192,32,1024,8192,8192,8192,128,2,128,1024,1024,128,1024,16,16
494,21737,31.43,-6.93,Moroccan Berbers,256,4,4,128,128,16,8192,2,2,1024,64,8,64,2,512,512,1024,8192,2,16,16,2,2,2048,8192,8192,8192,2,8192,1024,128,128,2,2,2,16,1024
495,21814,10.0,-73.0,Barí,64,2,2,8192,128,8192,2,2,2,1024,2048,8,2,2,512,4096,1024,8192,512,128,8192,1024,8192,512,16,8192,8192,8192,8192,1024,2,128,256,16,16,1024,8192
496,21825,-8.81,146.53,Motu,64,2,2,8192,1024,8192,2,2,2,16,2048,8,2,2,512,2048,16,8192,2,16,128,2,8192,32,16,8192,8192,512,128,16,8192,128,256,16,16,128,128
497,21852,22.81,108.36,Mulam,32,2,2,8192,1024,1024,2,2,2,2,2048,8192,2,2,512,64,16,256,2,128,128,8,1024,512,1024,32,8192,512,2,2,128,128,64,2,128,16,16
498,21869,23.4,85.35,Munda,128,256,32,1024,128,128,8192,128,1024,128,2048,32,2048,512,512,64,128,32,16,128,128,2,128,512,16,512,8192,32,128,128,8192,128,256,16,128,1024,128
499,21891,2.72,30.64,Mundu,64,2,2,8192,1024,1024,2,2,2,2,2048,8,2,2,8192,4,1024,256,16,128,128,64,8192,512,16,512,8192,8192,128,2,8192,1024,256,128,128,128,1024
500,21913,12.71,108.23,Muong,4,2,2,16,2,2,2,2,2,16,8192,2,2,2,512,256,8192,2048,512,16,16,2,16,512,16,2,8192,32,2,16,128,128,8,16,1024,1024,1024
501,21924,19.1,81.95,Muria Gond,64,2,2,128,1024,1024,2,2,2,1024,2048,8,2,2,512,4096,128,2048,2,128,1024,2,1024,512,1024,512,2,32,128,1024,8192,128,64,128,128,128,128
502,21946,-9.91,144.04,Murray Islanders,64,4,4,8192,1024,1024,16,2,2,1024,2048,8,8,2,2,64,1024,256,16,128,128,8,1024,32,16,8192,8192,32,8192,1024,8192,1024,256,1024,128,1024,1024
503,21951,5.45,36.26,Mursi,2048,512,128,128,1024,1024,2,16,2,16,2048,8,8192,2,512,512,8192,8192,16,128,8192,2,8192,512,1024,32,2,512,128,16,8192,1024,256,128,128,16,8192
504,21957,0.96,114.55,Nabai Murut,256,2,2,128,16,128,2,2,2,2,2048,8,2,2,512,64,1024,32,2,1024,1024,2,1024,512,128,512,8192,512,8192,2,8192,1024,64,16,16,128,128
505,22045,-10.09,-53.3,Mebêngôkre,64,2,2,128,128,1024,2,2,2,128,2048,8,2,2,512,2,1024,2,16,128,1024,2,8192,32,1024,8192,8192,32,8192,128,8192,128,64,16,16,2,1024
506,22056,36.65,117.12,Shandong,1024,2,2,128,1024,8192,2,2,2,1024,64,8,2,2,512,1024,8192,8192,2,128,128,2,128,32,1024,512,8192,512,128,1024,128,128,64,1024,128,1024,1024
507,22060,-5.6,144.12,Madang Unidentified,256,4,64,128,16,16,128,8192,8192,128,64,8,8,8,8192,2048,2,8192,512,128,1024,2,128,512,1024,512,8192,32,128,128,128,2,8,8192,16,2,1024
508,22065,-5.6,144.12,Douro,256,2,2,8192,1024,1024,2,2,2,2,64,8,2,2,8192,64,128,256,8192,128,128,1024,8192,2048,128,8192,8192,512,8192,2,8192,128,1024,128,8192,128,16
509,22067,64.7,43.39,Komi,4,2,2,16,2,2,2,2,2,2,2048,2,2,2,512,1024,1024,8192,512,128,16,2,8192,512,16,8192,8192,512,8192,2,128,128,1024,1024,1024,128,128
510,22100,26.21,127.72,Naha-shi,64,4,4,16,2,2,16,2,2,128,64,2,64,2,512,32,2,256,2048,128,128,2,128,32,16,2,512,512,128,128,8192,1024,256,128,1024,1024,128
511,22133,-4.28,152.92,Namatanai,64,2,2,128,1024,1024,2,2,2,2,64,8,2,2,512,2048,128,8192,2,1024,1024,2,8192,2048,2,8192,8192,32,128,2,8192,1024,256,16,1024,8192,1024
512,22166,0.2,35.09,Nandi,1024,4,64,8192,8192,8192,128,8192,1024,1024,64,8,8,8,512,16,1024,2048,2,1024,128,256,1024,512,128,8192,8192,512,128,1024,128,1024,1024,128,128,16,1024
513,22188,40.85,14.26,Naples & Coast,4,8192,8192,16,2,2,8192,2,2,2,64,2,64,2,512,8,1024,2,8192,1024,128,2,1024,32,128,512,512,512,128,2,8192,128,256,1024,8192,128,16
514,22215,-9.47,147.2,Nasioi,8192,8192,8192,8192,8192,1024,8192,1024,8192,8192,2048,8192,2048,8192,512,2048,1024,32,16,128,1024,8192,8192,512,1024,8192,8192,8192,2,8192,8192,16,256,128,128,1024,1024
515,22243,36.06,-109.18,Diné (Navaho),64,2,2,128,128,1024,2,2,2,1024,2048,8,2,2,512,8,16,2,2,128,1024,2,1024,512,1024,8192,8192,32,8192,1024,128,128,8,16,16,16,128
516,22248,22.81,108.36,Naxi,2048,2,2,8192,128,128,2,2,2,8192,2048,8192,2,2,512,4096,128,2048,2,128,16,8192,16,512,1024,32,8192,32,2,8192,2,128,256,128,128,16,8192
517,22254,43.27,26.93,N Bulgaria,4,4,32,16,2,2,8192,1024,128,2,8192,2,8192,32,2,32,2,256,2,128,16,2,16,8,128,2,2,2,2,2,8192,128,1024,8192,8192,128,128
518,22276,-20.45,32.71,Ndau,4,4,4,16,2,2,8192,2,2,128,64,2,64,2,8192,128,1024,8192,16,128,1024,2,1024,512,128,8192,8192,32,8192,128,8192,1024,256,16,16,1024,1024
519,22331,3.73,29.7,Ndongo,1024,4096,4096,16,2,2,8192,1024,8192,16,2048,2,64,2048,8192,1024,1024,8192,16,1024,1024,2,1024,512,1024,8192,8192,32,128,16,8192,1024,256,128,8192,16,128
520,22380,-4.51,154.2,Nehan,32,4,64,8192,128,128,128,8192,1024,1024,2048,8,2048,8,512,4096,16,8192,512,1024,1024,64,1024,512,128,8192,8192,512,128,1024,8192,1024,8,1024,1024,128,1024
521,22386,27.71,85.32,Nepalese,64,8,32,128,128,1024,128,8192,8192,2,64,8,64,8,2,2048,128,8192,2,16,128,2,1024,8192,2,8192,8192,512,2,2,8192,128,256,8192,8192,8192,1024
522,22408,17.17,-62.55,St. Kitts and Nevis,1024,2,2,8192,128,1024,2,2,2,128,64,8,2,2,512,64,128,8192,16,128,128,256,8192,512,128,8192,8192,8192,8192,128,8192,128,256,128,16,128,128
523,22430,24.55,-104.65,New Mexico Folk,4,4,2,16,2,2,8192,2,2,2,64,2,2,2,512,32,1024,2,2,128,128,2,8192,2048,128,8192,8192,32,8192,2,8192,128,256,16,128,128,16
524,22457,53.13,-57.66,Newfoundlander,4,2,2,16,2,2,2,2,2,16,64,2,2,2,512,2048,1024,8192,2,128,128,2,8192,2048,128,512,2,8192,8192,16,8192,128,64,1024,16,128,16
525,22463,53.13,-57.66,Kavieng,4,4,4,16,2,2,16,2,2,16,64,2,64,2,512,2,16,8,2048,1024,128,2,8192,32,16,512,8192,8192,128,16,8192,128,64,128,128,1024,128
526,22573,-14.48,30.71,Ngoni Zulu,256,8192,64,8192,8192,8192,8192,8192,8192,16,2048,8,512,8,8192,128,128,2048,2,1024,128,256,8192,512,1024,8192,8192,32,8192,16,8192,1024,1024,1024,1024,128,1024
527,22617,0.64,97.73,Nias,2048,2,2,8192,1024,8192,2,2,2,128,2048,8192,2,2,512,4,1024,2048,2,128,128,8192,128,512,1024,512,2,32,128,128,128,128,64,128,128,16,16
528,22639,25.31,82.97,N India Muslim,1024,4,32,128,128,8192,8192,128,1024,2,64,8,64,512,512,512,128,8192,16,128,128,2,16,2048,1024,8192,8192,32,8192,2,8192,128,8,128,16,16,16
529,22672,-19.05,-169.91,Niuean,4096,512,64,1024,128,1024,128,8192,1024,1024,8192,8,8192,8,512,512,1024,2048,512,1024,2,2,8192,2048,8192,8192,512,8192,8192,1024,8192,16,256,1024,16,2,16
530,22705,-19.05,-169.91,Wounaan,4,256,4,16,2,2,16,2,2,1024,2048,2,64,2,512,128,1024,2048,2,128,1024,2,8192,32,2,512,8192,512,8192,1024,8192,1024,256,16,16,1024,8192
531,22749,49.23,-124.8,Nuu-chah-nulth,256,8,64,128,128,128,128,8192,128,1024,2048,8,8,8,512,64,1024,32,2,16,1024,2,1024,32,128,512,512,512,8192,1024,128,128,64,16,16,16,1024
532,22754,36.75,3.05,Algeria,4,256,4,16,2,2,16,2,2,16,2048,2,2048,2,512,128,1024,2048,2,16,16,2,128,512,128,8192,8192,32,128,16,128,128,64,16,2,16,128
533,22760,30.08,78.26,Vedanta,4,2,2,16,2,2,2,2,2,8192,8,2,2,2,512,4096,16,2048,2,2,2,2,8192,2048,16,32,2,8192,8192,8192,8192,128,8,1024,128,1024,16
534,22804,58.92,7.72,Norwegian,4,2,2,16,2,2,2,2,2,2,2048,2,2,2,512,64,128,2,16,128,128,2,8192,32,1024,512,8192,8192,8192,2,8192,128,1024,128,8192,128,16
535,22848,-14.48,30.71,Nsenga,256,2,8192,8192,8192,8192,8192,8192,8192,1024,2048,8,64,2048,8192,4,1024,2,16,128,128,2,8192,512,1024,8192,8192,512,8192,1024,8192,128,256,8192,128,1024,1024
536,22861,11.01,29.71,Hjare,4,2,2,16,2,2,2,2,2,16,2048,2,2,2,512,32,1024,512,2,1024,128,2,1024,2048,16,32,8192,512,8192,16,8192,1024,1024,128,1024,1024,1024
537,22863,11.19,29.41,Katch,64,2,2,128,128,1024,2,2,2,16,2048,8,2,2,512,1024,1024,2048,16,1024,1024,2,8192,2048,8192,32,8192,512,8192,16,8192,1024,64,16,128,16,128
538,22865,11.01,29.71,Mirri,32,2,2,1024,1024,1024,2,2,2,16,2048,8,2,2,512,4,1024,8,16,1024,128,2,8192,2048,1024,512,8192,32,8192,16,8192,1024,256,16,128,128,1024
539,22867,12.0,30.75,Salar,256,8,64,128,128,1024,128,8192,8192,1024,64,8,64,128,512,256,8192,2048,2048,128,128,2,1024,512,1024,512,8192,512,8192,1024,8192,128,256,16,128,128,1024
540,22868,10.63,30.38,Talodi,4,2,2,16,2,2,2,2,2,128,2048,2,2,2,512,128,1024,2048,16,1024,128,2,1024,2048,1024,512,8192,512,8192,128,8192,1024,256,16,128,128,1024
541,22870,15.5,32.55,Nuer,4,4,64,16,2,2,128,2,2,128,2048,2,8,2,512,2,128,2,16,1024,1024,2,1024,512,1024,8192,8192,512,8192,128,8192,1024,256,128,128,16,1024
542,22881,-4.53,159.42,Nukumanu,64,2,2,8192,1024,8192,2,2,2,2,8192,8,2,2,512,128,16,8192,16,16,128,256,1024,8,16,2,8192,32,8192,2,8192,1024,64,2,2,128,2
543,22892,-3.15,142.36,Numugenan,4,2,2,16,2,2,2,2,2,128,2048,2,2,2,512,2,1024,2,2,2,128,2,8192,32,16,512,8192,32,128,128,8192,1024,8,2,128,1024,8192
544,22925,40.32,9.32,Barbagia,16,2,2,8192,2,8192,2,2,2,2,64,2,2,2,512,4,1024,2,2,128,128,2,128,32,128,512,8192,512,128,2,8192,128,8,16,128,128,128
545,23070,-4.41,140.01,Ok,1024,2,2,1024,1024,128,2,2,2,128,8192,32,2,2,512,2048,1024,2048,2,1024,128,8192,8192,512,128,2,2,32,128,128,8192,1024,256,128,128,128,1024
546,23073,-0.09,11.94,Okande,2048,8192,4096,8192,1024,1024,8192,1024,8192,1024,8192,8,64,2048,8192,16,16,256,512,128,128,256,8192,512,1024,8192,8192,32,128,1024,8192,1024,256,128,128,1024,1024
547,23090,45.09,23.2,Oltenia,4,2,2,16,2,2,2,2,2,2,8192,2,2,2,512,4,1024,2,2,128,128,2,16,32,1024,2,8192,32,128,2,2,128,1024,8192,8192,128,16
548,23112,-54.04,-68.57,Selk'nam,4,2,2,16,2,2,2,2,2,8192,2048,2,2,2,512,2048,1024,8192,2,16,8192,2,8192,512,128,8192,8192,512,8192,8192,128,1024,256,16,16,16,128
549,23123,-5.26,159.35,Ontong Java,4096,2,2,8192,8192,8192,2,2,2,16,2048,2048,2,2,512,1024,1024,256,512,128,128,1024,1024,512,1024,8192,8192,32,8192,16,8192,1024,256,1024,1024,128,16
550,23145,21.14,79.08,Kurukh,64,4,32,128,128,1024,8192,128,1024,1024,64,8,64,512,512,256,128,2048,2,128,128,2,1024,2048,128,8192,8192,512,128,1024,8192,128,64,128,128,128,128
551,23156,-3.74,-73.25,Maijuna,4,2,2,16,2,2,2,2,2,1024,64,2,2,2,512,4096,8192,2048,8192,128,16,2,8192,2048,16,512,8192,512,8192,1024,128,1024,64,16,16,1024,8192
552,23167,20.95,85.09,Oriya,4,2,2,16,2,2,2,2,2,16,2048,2,2,2,512,1024,1024,2048,16,128,16,2,128,512,128,512,8192,512,128,16,8192,128,256,16,128,128,16
553,23189,44.08,144.02,Orok,4,2,2,16,2,2,2,2,2,1024,64,2,2,2,512,4096,1024,8192,512,128,128,2,128,512,128,512,8192,512,128,1024,2,128,64,16,128,128,128
554,23200,-9.44,147.18,Orokaiva,256,2,2,128,1024,1024,2,2,2,128,2048,8,2,2,8192,2048,128,2048,2,16,1024,2,1024,32,1024,32,8192,32,128,128,8192,128,64,1024,1024,128,1024
555,23202,-9.47,147.2,Orokolo,2048,2,2,8192,1024,1024,2,2,2,128,2048,8,2,2,512,2048,128,2048,512,1024,16,8,128,32,16,8192,2,32,128,128,8192,1024,256,16,1024,1024,1024
556,23205,51.72,126.66,Oroqen,4,2,2,16,2,2,2,2,2,1024,2048,2,2,2,512,4096,128,8192,512,128,128,2,16,32,16,512,8192,8192,128,1024,128,1024,64,16,128,8192,8192
557,23211,43.02,44.66,Ossetia,32,2,2,8192,1024,8192,2,2,2,16,2048,128,2,2,8192,2048,128,8192,2,1024,128,8,1024,8,1024,2,8192,32,128,16,8192,128,1024,128,1024,16,16
558,23233,0.35,-78.12,Otavalo,4,4,4,16,2,2,16,2,2,1024,2048,2,8,2,2,4,2,2,16,16,1024,2,1024,2048,16,8192,8192,32,8192,1024,128,8192,256,16,16,128,16
559,23255,20.4,-98.2,Otomi,4,2,2,16,2,2,2,2,2,16,2048,2,2,2,512,2048,128,2048,2,128,1024,2,8192,512,16,512,8192,8192,8192,16,8192,128,256,128,1024,1024,16
560,23288,4.97,-54.43,Wayana,4,2,2,16,2,2,2,2,2,1024,64,2,2,2,512,1024,1024,2048,2,16,1024,2,8192,512,16,8192,8192,512,8192,1024,128,1024,64,16,16,128,1024
561,23343,22.99,120.22,Paiwan,256,2,2,8192,1024,1024,2,2,2,128,2048,8,2,2,512,64,128,8192,2,16,128,8,1024,512,128,512,8192,512,128,128,8192,128,64,16,8192,128,128
562,23350,33.68,73.04,Pakistani Classical,128,256,128,1024,128,16,8192,128,16,8192,8192,32,8192,128,512,2,2,2,512,8192,16,2,2,8192,8192,2,2,2,2,8192,2,2,2,2,2,8192,8192
563,23354,7.51,134.58,Palau,4,2,2,8192,8192,8192,2,2,2,2,8192,8,2,2,512,2048,128,8192,16,16,128,8,8192,8,1024,2,8192,512,8192,2,8192,128,1024,128,128,128,16
564,23370,9.83,118.73,Palawan,4,8192,2048,16,2,2,8192,128,1024,16,2048,2,2048,8192,512,2048,1024,2048,2,16,16,2,1024,32,16,512,512,32,128,16,8192,128,8,16,128,1024,1024
565,23420,31.91,-111.08,Tohono O’odham,64,2,4,128,1024,1024,16,2,2,16,2048,8,2,2,512,64,128,256,16,128,1024,2,8192,32,128,8192,8192,512,128,16,8192,1024,64,16,16,128,1024
566,23425,18.85,82.73,Paroja,32,8,8192,1024,128,1024,8192,8192,8192,128,64,8,64,2048,8192,2048,1024,8192,16,128,128,2,128,2048,1024,8192,8192,512,128,128,8192,1024,8,16,128,16,128
567,23464,5.04,32.45,Pari,256,256,4,128,1024,1024,16,2,2,128,2048,8,8192,2,512,64,1024,32,16,1024,1024,2,1024,512,1024,8192,2,512,8192,128,8192,1024,256,128,128,16,1024
568,23497,36.68,69.11,Pashtun,4,8,32,128,2,2,1024,128,8192,16,64,8,64,2,512,8,1024,8192,2,128,16,2,16,512,128,8192,8192,512,8192,16,128,16,8,16,128,128,16
569,23519,36.68,69.11,Chatiks si chatiks,4,4,4,16,2,2,16,2,2,128,2048,2,8,2,32,64,1024,256,2,128,1024,2,128,32,1024,8192,8192,512,128,128,128,128,256,16,16,2,128
570,23563,-5.11,18.42,Pende,256,4,64,128,1024,8192,128,8192,1024,2,512,8,512,8,512,4096,8192,2048,16,16,1024,2,8192,8192,1024,8192,8192,8192,8192,2,8192,128,256,128,16,16,128
571,23612,-1.87,103.25,Petalangan,16,2,2,16,2,2,2,2,2,2,8192,2,2,2,512,1024,1024,2,16,16,16,2,16,32,128,2,2,512,2,2,128,128,8,16,16,1024,16
572,23618,6.0,121.0,Sulu,4,4,4,16,2,2,16,2,2,2,64,2,64,2,512,1024,8192,8192,512,16,128,2,8192,512,128,8192,8192,32,8192,2,8192,128,64,128,8192,128,16
573,23640,4.03,-67.55,Piaroa,4096,256,128,128,16,1024,128,128,16,8192,2048,8,64,32,512,2048,8192,8192,8192,16,1024,2,8192,512,128,8192,2,8192,8192,8192,8192,1024,64,16,8192,128,8192
574,23662,4.03,-67.55,Piemonte,64,2,2,8192,1024,1024,8192,2,2,1024,64,8,64,2,512,64,128,8192,2,128,128,2,8192,512,128,8192,8192,8192,8192,1024,8192,128,64,1024,128,128,128
575,23684,-26.18,-58.22,Pilagá,4,256,4,16,2,2,16,2,2,8192,64,2,64,2,32,64,1024,8,2,1024,1024,2,1024,8,2,32,8192,32,2,8192,128,8192,256,16,16,8192,8192
576,23695,33.27,-112.16,Akimel O'odham,64,4,4,128,1024,1024,16,2,2,128,2048,8,8,2,512,64,128,2,512,128,1024,2,1024,32,16,8192,8192,512,8192,128,8192,128,64,16,16,1024,128
577,23728,-25.34,131.04,Aṉangu,64,8,64,8192,16,16,128,1024,1024,1024,2048,8,8,8,32,2048,16,8192,2,16,16,2,1024,512,1024,8192,8192,8192,8192,1024,8192,1024,256,16,16,1024,8192
578,23755,-9.47,147.2,Piva,4096,8,64,8192,1024,8192,128,8192,8192,8192,512,8192,8,8,8192,8192,128,8192,8192,128,1024,8192,8192,512,1024,8192,8192,8192,128,8192,8192,16,8,128,1024,16,1024
579,23827,49.68,21.76,C Polish Folk,4,2,64,8192,2,1024,8192,1024,128,2,64,8,64,128,512,64,1024,256,2,128,128,1024,8192,512,128,8192,512,8192,8192,2,8192,128,256,1024,1024,128,16
580,23849,38.95,-122.62,Eastern Pomo,4,256,4,16,2,2,16,2,2,1024,2048,2,8,2,512,256,1024,8192,2,16,1024,2,1024,512,16,8192,8192,8192,8192,1024,128,128,64,16,16,128,128
581,23882,-31.36,29.56,Pondo Xhosa,2048,8,64,8192,8192,8192,128,8192,8192,1024,64,8,64,8,8192,128,1024,8192,2,1024,1024,1024,8192,512,1024,8192,8192,512,2,1024,8192,1024,1024,16,16,128,1024
582,23904,19.17,-96.13,Popoluca,512,256,4,8192,128,16,16,2,2,2,2048,8,64,2,512,32,1024,32,2048,128,128,256,8192,8,128,32,8192,32,128,2,8192,1024,64,16,128,128,128
583,23915,37.01,-7.93,Algarve,4,2,2,16,2,2,2,2,2,2,2048,2,2,2,512,64,128,64,2,128,128,2,1024,512,16,512,8192,512,8192,2,8192,128,256,128,1024,1024,128
584,23926,15.29,74.12,Portuguese Goa,512,4,64,8192,128,8192,8192,1024,8192,16,64,8,64,128,512,8,1024,2,512,128,128,1024,8192,512,128,8192,8192,512,128,16,8192,128,256,8192,1024,1024,128
585,23970,15.29,74.12,Boricua,256,8,32,8192,128,128,8192,1024,8192,2,64,8,64,128,512,8,8192,8192,2,1024,1024,2,8192,512,128,8192,8192,512,8192,2,8192,128,64,16,16,128,128
586,23981,-10.85,-165.83,Pukapuka,4096,2,2,8192,1024,8192,2,2,2,16,2048,8,2,2,512,8,8192,2048,512,1024,128,256,8192,2048,8192,8192,8192,8192,8192,16,8192,1024,256,128,128,2,16
587,23997,26.85,100.22,Pumí,4,2,2,16,2,2,2,2,2,128,2048,2,2,2,512,2048,16,2048,16,1024,128,2,128,512,1024,32,8192,32,2,128,128,128,64,128,1024,128,128
588,24014,29.06,76.04,Punjab,4,256,128,16,2,2,1024,128,8192,2,64,2,64,32,512,2,128,2,2,1024,16,2,16,512,16,8192,8192,32,128,2,128,128,256,128,1024,128,16
589,24025,-6.31,143.95,Purari,2048,2,2,8192,128,128,2,2,2,128,8192,8,8,2,512,1024,1024,2048,2,16,128,8,8192,32,128,2,2,512,128,128,8192,128,8,16,16,16,1024
590,24052,38.85,-104.91,Kha'po Owingeh (Tewa),4,256,4,16,2,2,16,2,2,128,2048,2,64,2,32,16,16,2,2,1024,1024,2,128,2048,128,8192,8192,512,128,128,128,1024,64,128,128,16,8192
591,24069,19.3,97.96,Pwo Karen,64,2,2,128,128,16,2,2,2,2,8192,8,2,2,512,2048,128,2048,512,128,1024,2,128,8,128,2,8192,32,2,2,8192,128,8,2,16,1024,1024
592,24091,-13.53,-71.96,S Peruvian Quechua,128,2,2,1024,128,16,2,2,2,128,2048,32,64,2,512,4096,1024,8192,2,16,1024,2,8192,32,16,512,8192,8192,8192,128,8192,128,64,16,16,1024,1024
593,24102,-13.41,-72.2,Ch'unchu,4,4,32,16,2,2,8192,2,1024,128,2048,8,64,128,512,64,1024,2,512,1024,1024,2,8192,32,16,8192,8192,8192,8192,128,8192,128,64,1024,1024,1024,128
594,24157,27.02,74.21,Rajasthan,4,4096,128,16,2,2,8192,128,1024,16,2048,2,64,512,512,4,128,2,16,128,16,2,16,512,1024,2,8192,32,2,16,2,128,8,2,16,16,128
595,24195,14.94,39.15,Eritrean Rashaida,4096,4,4,8192,1024,1024,8192,2,2,128,64,8,64,2,512,4096,16,8192,512,1024,128,256,1024,512,128,8192,8192,512,128,128,8192,128,64,16,128,128,128
596,24245,-11.66,160.26,Mugaba,64,4,64,8192,1024,1024,128,2,2,2,2048,8,8,2,512,4096,1024,8192,2,16,128,8,8192,512,128,8192,8192,8192,8192,2,8192,1024,256,16,16,128,128
597,24278,12.5,108.23,Rade,4,2,2,16,2,2,2,2,2,2,64,2,2,2,8192,8192,1024,8192,2,1024,128,2,8192,512,128,8192,8192,8192,8192,2,8192,16,8,16,8192,1024,128
598,24300,-9.79,147.82,Rigo,4,4,4,16,2,2,16,2,2,2,64,2,64,2,8192,1024,2,2048,2,16,1024,2,1024,32,128,512,512,32,8192,2,8192,128,8,2,2,1024,128
599,24311,-22.9,-43.17,Rio,32,NaN,32,8192,128,128,8192,128,1024,2,8192,8,8192,128,512,64,16,256,8192,1024,1024,1024,1024,8,8192,2,2,32,128,2,8192,1024,64,16,16,16,1024
600,24399,44.95,22.1,Banat,4096,2,2,8192,1024,128,2,2,2,2,2048,8192,2,2,512,2048,2,2048,2,16,128,8,16,8,16,32,8192,32,128,2,8192,1024,256,16,1024,1024,128
601,24421,46.06,22.52,Hunedoara,4,2,2,16,2,2,2,2,2,16,8192,2,2,2,512,2048,1024,8192,2,128,128,2,128,512,16,2,8192,512,128,16,128,128,256,128,1024,128,128
602,24432,46.72,21.9,Crişana,4,2,2,16,2,2,2,2,2,16,512,2,2,2,2,4,1024,2,2,16,128,2,128,32,16,32,8192,32,128,16,8192,128,256,1024,8192,1024,128
