,soc_id,lat,lng,Preferred_name,line_1,line_2,line_3,line_4,line_5,line_6,line_7,line_8,line_9,line_10,line_11,line_12,line_13,line_14,line_15,line_16,line_17,line_18,line_19,line_20,line_21,line_22,line_23,line_24,line_25,line_26,line_27,line_28,line_29,line_30,line_31,line_32,line_33,line_34,line_35,line_36,line_37
0,10000,-9.0,161.0,'Are'are,8192,2,64,8192,1024,1024,2,2,2,128,64,8192,2,2,512,32,128,512,2,1024,8192,8192,8192,512,16,512,8192,32,128,128,8192,1024,256,128,8192,8192,1024
1,10027,-1.29,36.82,Abaluhya,256,4,2048,128,128,1024,8192,128,8192,128,2048,8,64,2048,512,8,1024,2,16,128,128,2,8192,2048,128,8192,8192,8192,8192,128,8192,1024,256,8192,16,1024,1024
2,10033,-5.55,150.14,Abelam,256,2,2,128,128,1024,2,2,2,128,8192,8,2,2,512,2,2,2,2,128,1024,2,8192,2,1024,2,8192,2,8192,128,8192,128,64,1024,16,1024,8192
3,10055,43.0,41.02,Abkhazia,512,8,64,8192,8192,8192,128,8192,8192,128,64,8,8,8,512,4096,8192,2048,16,1024,128,1024,8192,512,1024,8192,8192,8192,8192,128,8192,1024,1024,8192,1024,16,16
4,10077,28.21,95.53,Adi,256,4,64,8192,1024,1024,128,2,1024,16,64,8,8,8,512,1024,1024,8192,2,128,1024,2,16,32,1024,8192,8192,32,128,16,8192,1024,8,16,128,128,128
5,10099,2.95,32.93,Acoli,1024,8192,4096,128,1024,8192,8192,1024,8192,1024,2048,8,64,2048,512,1024,128,8192,2,1024,1024,2,8192,2048,128,8192,8192,512,128,1024,8192,128,256,128,128,128,1024
6,10137,9.31,42.12,Harari,1024,2,2,8192,8192,8192,2,2,2,16,8192,8192,2,2,512,16,128,256,2,128,128,8,128,NaN,8192,2,8192,32,2,16,2,128,64,128,128,16,128
7,10140,-6.8,146.56,Adzera,64,8,64,128,128,128,128,128,128,1024,2048,8,8,128,512,64,1024,256,16,128,128,2,8192,32,128,8192,8192,32,8192,1024,8192,128,8192,16,16,16,8192
8,10143,11.75,40.95,Afar,1024,8,64,128,1024,8192,128,8192,1024,128,64,8,8,8,512,4096,8192,8192,2,128,1024,2,1024,512,128,8192,8192,512,128,128,128,1024,256,16,128,128,1024
9,10176,34.01,71.52,Afridi,4,256,128,16,2,2,128,16,128,2,8192,2,2048,128,8192,32,2,256,2,128,128,2,128,32,1024,2,2,2,128,2,8192,2,2,2,16,128,16
10,10209,44.08,144.02,Sakhalin Ainu,8192,2,2,8192,128,8192,2,2,2,1024,64,8192,2,2,512,8192,8192,8192,8192,16,128,8192,8192,32,16,8192,8192,8192,128,1024,2,1024,8,16,128,1024,1024
11,10220,-3.15,142.36,Aitape,4,2,2,16,2,2,2,2,2,128,2048,2,2,2,512,2048,1024,2048,2,16,1024,2,128,8,16,32,8192,512,128,128,8192,1024,256,128,128,8192,8192
12,10231,-20.68,164.94,Ajie,1024,2,8192,8192,1024,8192,8192,2,2,1024,64,8192,2,2,512,2048,8192,8192,8192,8192,128,2,8192,2048,1024,512,2,8192,8192,1024,8192,128,256,128,128,128,128
13,10247,7.0,43.0,Ajuran,4096,256,64,1024,128,128,128,8192,16,8192,64,2048,8,8,512,2048,8192,8192,2,16,128,64,8192,2048,1024,8192,8192,512,128,8192,128,128,256,128,16,16,16
14,10264,-49.13,-74.45,Kawésqar,4,2,2,16,2,2,2,2,2,128,2048,2,2,2,512,2048,128,8192,2048,128,1024,2,1024,8,16,32,8192,8192,8192,128,8192,128,64,128,16,1024,128
15,10286,71.38,-156.48,Yu'pik,4,4,4,128,128,2,16,2,2,1024,2048,8,8,2,512,16,1024,32,16,1024,1024,2,1024,32,1024,8192,8192,512,8192,1024,128,128,64,16,16,16,128
16,10297,41.87,19.59,Ghegs,4,2,2,16,2,2,2,2,2,128,2048,2,2,2,512,2048,128,8192,16,128,128,2,128,32,128,32,8192,512,128,128,128,128,64,128,1024,1024,128
17,10374,46.62,8.04,Alpine Swiss,4,2,2,8192,128,1024,2,2,2,2,64,8,2,2,512,64,128,8192,512,128,128,2,8192,8,16,32,8192,512,128,2,8192,128,256,8192,8192,1024,128
18,10396,3.03,29.54,Alur,4,256,4096,16,2,2,8192,8192,8192,2,2048,2,64,2048,8192,1024,8192,8192,2,16,128,2,8192,32,16,512,8192,32,8192,2,8192,128,256,128,128,1024,128
19,10407,-9.82,-73.08,Amahuaca,256,2,2,8192,128,16,2,2,2,1024,2048,32,2,2,512,2048,1024,8192,2,16,16,8192,8192,512,128,512,8192,32,2,1024,128,128,256,16,16,16,1024
20,10418,27.7,128.82,Amami,4,4,4,16,2,2,8192,2,2,2,64,2,64,2,512,2,128,2,2,1024,16,2,128,32,128,8192,8192,32,2,2,128,128,2,2,128,128,1024
21,10442,6.73,38.4,Koorete,1024,4,32,8192,128,1024,128,8192,1024,128,2048,8,8,8,512,2048,1024,8,2,1024,1024,8,1024,2048,128,8192,8192,8192,8192,128,128,8192,64,128,2,1024,16
22,10445,-13.2,49.05,Antankarana,4096,8,64,8192,1024,8192,128,1024,1024,1024,64,8192,64,8,2,256,128,8192,16,128,128,8192,8192,2048,1024,8192,8192,512,128,1024,8192,1024,64,16,16,1024,1024
23,10451,36.06,103.83,Amdo,NaN,NaN,NaN,NaN,NaN,NaN,NaN,NaN,NaN,NaN,NaN,NaN,NaN,NaN,NaN,NaN,NaN,NaN,NaN,NaN,NaN,NaN,NaN,NaN,NaN,NaN,NaN,NaN,NaN,NaN,NaN,NaN,NaN,NaN,NaN,NaN,NaN
24,10495,14.03,38.31,Amhara,256,8,32,16,2,2,8192,128,1024,128,64,2,64,128,512,256,1024,8192,16,128,1024,2,128,512,1024,8192,8192,512,128,128,128,128,8,16,128,128,16
25,10506,23.98,121.6,Ami,256,2,2,128,1024,8192,2,2,2,8192,2048,8,2,2,512,64,16,2048,2,1024,1024,2,8192,512,1024,8192,8192,512,128,8192,8192,128,256,128,8192,16,1024
26,10528,9.89,8.85,Anaguta,4,4,4,16,2,2,8192,8192,8192,128,64,2,64,2,512,2048,8192,8192,2,128,128,2,8192,2048,16,8192,8192,512,8192,128,8192,128,256,128,16,1024,8192
27,10555,39.62,66.97,Bukharan Jews,4,4,64,16,2,2,128,16,128,2,64,2,64,8,512,2,128,2,2,128,16,2,2,32,1024,32,512,2,2,2,128,2,2,2,16,16,16
28,10572,36.52,-6.28,Cadiz,4,8,64,16,2,2,8192,1024,8192,2,64,2,64,128,512,32,128,8,2,1024,16,2,16,2048,1024,32,8192,512,8192,2,8192,2,2,2,1024,16,128
29,10583,11.62,92.72,Jarawa,1024,2,2,8192,2,16,2,2,2,1024,2048,8,2,2,512,1024,128,2048,8192,1024,16,8,1024,512,8192,512,8192,32,8192,1024,128,16,8,16,1024,16,1024
30,10594,19.63,78.05,Andh,64,2,2,8192,16,128,2,2,2,16,2048,8,2,2,512,64,128,2,16,128,128,64,128,512,128,512,8192,512,128,16,8192,128,256,128,1024,128,1024
31,10605,24.7,-78.01,Andros,32,2,2,8192,1024,1024,2,2,2,2,64,8192,2,2,512,64,128,32,512,1024,128,8192,8192,32,1024,8192,8192,512,8192,2,8192,8192,256,16,16,128,16
32,10627,26.2,92.93,Angami Naga,64,256,256,128,16,16,1024,16,16,16,2048,8,8,32,512,1024,16,8192,2,16,128,2,16,512,1024,32,512,2,2,16,8192,128,8,1024,16,16,1024
33,10649,9.89,8.85,Angas,4,256,4,16,2,2,16,2,2,1024,64,2,8192,2,8192,4096,1024,8192,2,16,8192,2,1024,512,1024,8192,8192,8192,8192,1024,8192,128,256,128,128,16,1024
34,10671,18.21,-62.98,Anguilla,1024,8,64,8192,1024,1024,128,128,2,1024,64,8,8,2,512,4096,8192,8192,512,16,1024,2,8192,512,128,8192,8192,8192,8192,1024,8192,128,256,1024,128,16,128
35,10682,-0.49,30.49,Ankole,1024,2,2,8192,8192,8192,2,2,2,128,64,8,2,2,512,64,128,64,2,128,128,1024,8192,32,16,8192,8192,512,8192,128,8192,1024,256,128,128,128,128
36,10771,33.31,44.36,Iraq,4,256,256,2,2,2,1024,128,16,2,8192,2,8192,128,512,1024,2,2,2,128,16,2,2,2,1024,2,8192,32,2,2,2,16,64,16,16,128,8192
37,10814,-38.94,-72.33,Mapuche,4,2,2,16,2,2,2,2,2,1024,8192,2,2,2,32,1024,2,2048,2,128,1024,2,8192,32,128,2,8192,2,8192,1024,128,1024,256,16,1024,1024,1024
38,10825,-6.16,149.01,Arawe,4,2,2,16,2,2,2,2,2,128,64,2,2,2,512,2048,128,2048,512,128,1024,2,1024,512,16,512,8192,8192,128,128,8192,128,256,16,16,1024,16
39,10827,57.11,49.99,Kirovskaya,4,2,2,16,2,2,2,2,2,128,2048,2,2,2,512,32,1024,8,16,16,128,2,1024,32,1024,512,8192,512,2,128,8192,128,1024,128,1024,1024,128
40,10847,-26.8,-65.21,Tucuman Gauchos,4,4,4,16,2,2,16,2,2,2,2048,2,2048,2,512,2048,1024,8192,2,16,128,2,8192,32,1024,512,8192,512,8192,2,8192,128,64,16,16,128,1024
41,10858,44.43,24.37,Arges,4,2,2,16,2,2,2,2,2,2,8192,2,2,2,512,64,1024,2,16,128,128,2,16,8,128,2,8192,512,128,2,128,1024,1024,1024,1024,1024,128
42,10885,40.18,44.51,Armenia,2,4,128,128,1024,1024,8192,8192,2,2,64,8,8192,32,2,2,128,2,16,128,128,2,128,2048,1024,8192,2,32,8192,2,8192,128,8,128,1024,16,16
43,10891,-3.15,129.38,Aru,256,512,64,128,16,16,128,128,1024,2,8192,8,64,8,512,32,128,256,2,16,1024,2,16,512,8192,2,8192,2,2,2,8192,16,2,16,16,128,128
44,10902,43.81,28.21,Aromanian,1024,2,2,8192,128,16,2,2,2,16,2048,32,2,2,512,2048,128,8192,2,128,128,8192,16,512,1024,512,2,32,128,16,128,1024,256,128,128,16,16
45,10929,7.93,39.65,Arsi,4,2,2,16,2,2,2,2,2,1024,2048,2,2,2,512,2048,128,2048,8192,1024,8192,2,1024,2048,1024,512,2,8192,2,1024,2,1024,256,128,16,128,128
46,10962,-1.33,133.17,Coastal Asmat,4,2,64,1024,1024,1024,128,8192,1024,128,2048,8,8,8,512,2048,1024,2048,2,16,128,2,8192,2048,1024,512,32,32,8192,128,8192,16,256,128,128,16,1024
47,10973,43.53,-5.66,Asturias,4,2,2,16,2,2,2,2,2,16,64,8,2,2,512,2048,16,8192,16,128,128,2,8192,512,1024,8192,8192,8192,2,16,8192,16,256,128,16,128,128
48,10979,61.95,-145.3,Ahtna,32,4,4,128,16,128,128,8192,1024,128,64,8,8,8,512,64,1024,512,2,128,1024,2,1024,32,128,8192,8192,512,8192,128,128,1024,256,128,128,16,1024
49,11067,-11.18,28.88,Aushi Bemba,256,2,2,8192,8192,8192,2,2,2,16,2048,8,2,2,2,2,128,2,16,16,128,256,8192,2048,1024,8192,8192,8192,8192,16,8192,128,1024,8192,128,16,128
50,11078,-13.12,130.28,Wadjiginy,4,8,64,16,2,2,128,128,8192,1024,64,2,64,128,8192,2048,128,2048,2,128,16,2,8192,8,16,512,8192,512,8192,1024,8192,1024,8,2,2,128,8192
51,11080,-13.12,130.28,British Australians,4,2,2,16,2,2,2,2,2,2,64,2,2,2,512,64,128,64,2,128,128,2,1024,32,128,32,8192,512,8192,2,8192,128,256,128,1024,128,16
52,11133,-15.92,-69.33,Aymara,64,2,2,128,128,16,8192,2,2,1024,2048,8,2,2,512,4096,8192,8192,2,128,1024,2,8192,512,128,8192,8192,32,8192,1024,8192,128,256,16,16,128,128
53,11144,-17.81,-63.15,Ayoréo,4,256,4,16,2,2,16,2,2,128,2048,2,2048,2,512,1024,1024,2048,8192,16,16,2,2,2048,1024,32,32,8192,8192,128,2,128,64,128,128,16,1024
54,11155,1.64,26.41,Azande,1024,4,4,8192,8192,8192,8192,2,2,128,64,8,64,2,512,1024,1024,8192,2,128,1024,1024,1024,2048,128,8192,8192,512,128,128,8192,1024,1024,16,1024,128,1024
55,11160,40.4,49.86,Azerbaijani,4,256,4,16,2,2,8192,128,1024,16,8192,2,8192,32,512,1024,1024,2,2,16,16,2,2,32,1024,2,2,32,2,16,2,2,1024,128,128,1024,1024
56,11210,-7.89,129.69,Babarisla,256,4,64,8192,1024,128,128,16,128,128,2048,8,64,8,8192,2,2,2,2,16,1024,64,128,512,8192,2,32,2,128,128,8192,1024,1024,1024,16,2,128
57,11215,1.61,16.04,Mbendjele,8192,8,4096,8192,8192,8192,8192,8192,8192,8192,64,8192,8,2048,512,8192,1024,8192,2,1024,8192,8192,8192,512,1024,8192,8192,8192,2,8192,8192,16,8192,8192,8192,1024,8192
58,11259,36.73,70.81,Badakhshan,2,NaN,4,NaN,NaN,NaN,16,2,2,NaN,NaN,NaN,512,2,NaN,NaN,NaN,NaN,NaN,NaN,NaN,NaN,NaN,NaN,NaN,NaN,8192,NaN,NaN,NaN,NaN,NaN,NaN,NaN,NaN,NaN,NaN
59,11281,-8.94,160.9,Baegu,4,2,8192,16,2,2,8192,2,2,8192,64,2,64,2,512,2048,2,8192,16,1024,128,2,8192,512,16,8192,2,512,128,8192,128,1024,256,1024,1024,8192,16
60,11309,14.37,24.9,Baggara,1024,8192,2048,128,128,128,2,8192,1024,128,64,8,64,512,512,256,1024,2048,2,128,128,2,1024,2048,1024,2,8192,512,8192,128,8192,128,256,16,16,128,1024
61,11342,-0.49,30.49,Bahima,1024,2,2,1024,128,128,2,2,2,128,8192,8,2,2,2,128,2,8192,2,128,16,2,16,32,128,2,8192,512,128,128,128,128,8,2,16,128,128
62,11364,-0.49,30.49,Bahima Bahinda,4,256,4,16,2,2,16,2,2,128,8192,2,64,2,2,2048,1024,8192,2,16,16,2,16,32,2,2,512,512,128,128,8192,1024,8,16,2,8192,8192
63,11375,-2.58,29.68,Hutu,4,4,4,16,2,2,16,2,2,2,2048,2,512,2,8192,1024,1024,8192,2,128,1024,2,8192,512,128,8192,8192,8192,8192,2,8192,128,256,8192,8192,1024,1024
64,11377,26.25,50.6,Al-Buainain,1024,4096,4,16,2,2,16,2,2,128,64,2,64,2,512,256,8192,8192,16,16,1024,2,8192,512,16,8192,8192,8192,128,128,8192,128,64,16,128,16,1024
65,11380,24.88,102.83,Bai,4,2,2,16,2,2,2,2,2,16,8,2,2,2,512,64,128,256,16,1024,1024,2,128,512,128,32,8192,32,128,16,2,128,8192,1024,1024,16,128
66,11397,0.96,114.55,Bajau Laut,4,4,4,16,2,2,16,2,2,2,2048,2,64,2,512,1024,2,2048,16,128,1024,2,1024,32,128,32,8192,8192,128,2,8192,128,8,16,16,1024,16
67,11402,-4.66,152.0,Baining,64,8,32,128,1024,8192,128,128,8192,128,2048,8,64,128,512,2048,16,8192,2048,16,1024,2,8192,2048,1024,8192,8192,512,128,128,8192,128,256,16,128,16,128
68,11490,6.76,40.3,Bale Oromo,256,4,2048,16,2,2,8192,8192,1024,1024,512,8,64,8192,8192,2048,1024,8192,16,16,128,2,128,512,128,512,8192,8192,8192,1024,128,128,64,16,16,1024,128
69,11496,-3.93,138.82,Lani,4096,2,2,8192,1024,128,2,2,2,1024,64,8,2,2,512,4096,8192,2048,2,16,128,8,8192,32,8192,512,8192,512,8192,1024,128,128,1024,128,1024,16,8192
70,11507,-8.5,115.24,Balinese,4,2,2,16,2,2,2,2,2,2,8192,2,64,2,512,2,16,2,2,128,16,2,2,8192,128,2,8192,2,128,2,2,1024,8,2,16,128,16
71,11518,43.39,43.56,Balkar,1024,2,2,8192,8192,8192,2,2,2,8192,64,8,2,2,512,64,1024,64,16,1024,128,8192,8192,2048,1024,512,8192,8192,8192,8192,8192,128,256,1024,1024,1024,1024
72,11529,12.63,-8.0,Bambara,256,8192,32,128,1024,1024,8192,8192,8192,16,2048,8,64,2048,512,1024,1024,2,16,128,128,2,8192,512,128,8192,8192,512,128,16,8192,128,256,16,1024,128,1024
73,11584,6.76,19.66,Banda,256,8,64,128,8192,8192,128,8192,8192,128,64,8,8,8,512,512,NaN,2048,16,128,1024,2,8192,2048,128,8192,8192,512,8192,128,8192,128,1024,128,8192,1024,1024
74,11600,2.72,30.64,BaNguana,4,4,4,2,2,2,8192,2,2,1024,64,2,64,2,512,2048,1024,8192,2,128,1024,2,8192,2048,16,8192,8192,512,128,1024,8192,16,8192,1024,128,8192,1024
75,11606,-9.78,149.88,Dawawa,64,8,64,128,128,1024,128,128,128,128,64,8,512,8,512,2048,1024,2048,512,128,1024,2,8192,512,128,512,512,8192,8192,128,128,128,256,128,16,128,1024
76,11617,19.89,75.3,Banjara,1024,4096,512,1024,128,128,8192,128,1024,128,64,32,64,512,512,512,8192,2048,16,16,16,2,2,2048,128,8192,8192,8192,128,128,128,16,8,16,16,1024,1024
77,11639,37.13,-113.65,Shoshone-Bannock,4,256,4,16,2,2,16,2,2,8192,2048,2,8192,2,32,32,128,32,2,1024,1024,2,16,32,16,32,2,32,2,8192,2,8192,1024,1024,8192,128,128
78,11672,-22.4,46.12,Bara,2048,512,32,128,1024,1024,8192,128,8192,1024,64,8,64,128,8192,1024,1024,8192,2,128,16,2,8192,512,1024,8192,8192,512,128,1024,8192,128,8,2,16,1024,8192
79,11683,22.34,31.61,Halfa-Assuan Nubians,4,4,4,16,2,2,8192,128,2,128,64,2,64,128,512,2048,1024,2048,2,128,128,2,128,512,1024,8192,8192,512,8192,128,128,128,8,16,1024,16,128
80,11760,54.23,56.16,Bashkirs,4,2,4,16,2,2,8192,2,2,2,2048,2,2,2,512,8,1024,2,2,1024,128,2,8192,32,1024,512,8192,8192,128,2,8192,1024,1024,128,8192,128,128
81,11793,0.31,32.57,Basoga,1024,8192,4096,128,1024,8192,8192,8192,8192,1024,2048,8,64,2048,512,128,1024,8192,2,128,1024,2,8192,2048,1024,8192,8192,512,128,1024,128,128,256,128,16,128,1024
82,11804,43.03,-1.91,Spanish Basques,64,2,2,8192,2,2,2,2,2,2,2048,2,2,2,512,64,128,64,2,128,128,2,8192,32,128,8192,8192,8192,8192,2,8192,128,256,1024,128,128,128
83,11826,30.61,53.19,Basseri,4,256,4,16,2,2,16,2,2,1024,8192,2,8192,2,8192,4,2,512,2,16,16,2,2,8,1024,2,2,32,128,1024,128,16,2,2,128,16,16
84,11859,3.1,98.49,Karo,16,8192,4096,16,2,2,8192,16,8192,2,64,2,64,2048,512,32,128,32,NaN,128,128,2,1024,512,128,8192,8192,512,128,2,8192,128,64,16,1024,128,16
85,11870,7.44,-5.28,Baoulé,4096,8192,4096,8192,8192,8192,8192,2,8192,1024,64,8,64,2,512,512,1024,8192,16,16,128,256,8192,512,8192,8192,8192,512,8192,1024,8192,128,256,128,16,16,1024
86,11881,48.79,11.49,Bayern (Bavarians),256,4,4,8192,8192,8192,8192,2,2,128,64,8,64,2,512,8,128,2,8192,1024,128,256,8192,512,128,8192,8192,8192,8192,128,8192,128,8192,8192,8192,128,128
87,11892,1.61,16.04,Baya,1024,8192,64,8192,1024,1024,8192,1024,8192,1024,64,8192,64,2048,8192,2048,1024,8192,512,1024,128,256,8192,2048,1024,8192,8192,512,8192,1024,8192,128,256,128,1024,128,1024
88,11925,13.83,29.41,Bedaria,256,8,64,16,128,1024,8192,8192,1024,1024,64,2,64,512,512,256,1024,2048,2,1024,128,2,128,2048,1024,512,8192,512,8192,1024,128,128,256,128,128,128,1024
89,11936,12.8,45.03,Kathiri Bedouin,256,8,64,128,16,128,128,2,1024,1024,64,8,8,8,512,2048,1024,8192,2,16,128,2,128,512,1024,8192,8192,32,128,1024,8192,128,8,2,16,128,128
90,11958,50.41,4.45,Walloon,4,2,2,16,2,2,2,2,2,2,64,2,2,2,512,2048,128,2048,2,128,1024,2,8192,32,128,32,8192,8192,8192,2,8192,1024,256,16,16,128,16
91,12002,-10.53,31.07,Bemba,256,4,32,8192,8192,8192,8192,8192,8192,16,64,8,64,2048,512,64,1024,2048,2,1024,128,1024,1024,512,128,8192,8192,512,8192,16,8192,1024,1024,16,16,128,1024
92,12024,25.13,82.56,Benares,4,4096,4,16,2,2,8192,2,2,128,2048,2,64,2,512,4,16,2048,512,1024,128,2,128,512,1024,512,512,32,128,128,128,1024,8,2,16,1024,16
93,12046,22.57,88.36,Bengal,4,512,128,16,2,2,8192,128,8192,2,64,2,64,512,512,4,1024,2,2,128,128,2,128,512,128,512,8192,32,128,2,128,1024,8,16,128,128,16
94,12084,29.26,0.22,Gourara Berbers,1024,8192,4096,8192,128,1024,8192,2,1024,1024,64,2048,64,2,512,2048,8192,2048,16,128,1024,8192,1024,512,128,512,8192,512,128,1024,8192,128,256,128,128,128,128
95,12112,-21.32,46.93,Betsileo,64,8,32,8192,128,1024,8192,8192,8192,128,64,8,64,2048,512,512,1024,8192,2,1024,128,8192,8192,2048,1024,8192,8192,2,128,128,8192,128,256,16,16,2,128
96,12134,18.94,81.9,Bhatra Sikh,4,2,2,1024,2,128,2,2,2,128,2048,8,2,2,512,128,1024,2048,2,1024,128,2,128,2048,1024,512,8192,512,128,128,8192,128,256,16,128,128,1024
97,12145,22.97,78.65,Bhil,512,4,32,128,16,128,8192,128,1024,1024,64,8,64,512,512,2048,1024,8192,2,128,128,2,128,2048,128,8192,8192,512,128,1024,8192,128,64,128,128,128,1024
98,12156,28.82,83.73,Bhotiyas,4,2,2,16,2,2,2,2,2,128,64,2,2,2,512,2048,128,2,2,16,128,2,128,2048,16,512,8192,8192,128,128,8192,128,1024,2,8192,1024,128
99,12178,22.5,85.5,Bhumij,4,2,2,16,2,2,2,2,2,16,2048,2,2,2,512,64,1024,8,16,128,128,2,16,512,128,512,8192,512,128,16,128,128,256,16,128,1024,128
100,12205,-3.71,141.68,Biami,256,2,2,8192,1024,1024,2,2,2,1024,2048,8,2,2,512,64,8192,8192,2,128,1024,256,8192,2048,128,8192,2,512,128,1024,8192,1024,256,128,1024,128,1024
101,12260,-8.37,141.53,Bine,4,256,4,16,2,2,16,2,2,1024,2048,2,8,2,512,32,1024,8192,16,128,1024,2,8192,512,1024,32,8192,512,128,1024,8192,128,256,16,16,128,16
102,12321,15.91,-85.95,Garifuna,2048,8192,8192,8192,128,1024,8192,8192,8192,128,2048,8,64,2048,8192,1024,128,2048,2,16,1024,64,8192,2048,1024,8192,8192,512,8192,128,8192,16,8,16,16,16,1024
103,12337,22.0,100.79,Blang,4,4,4,16,2,2,8192,2,2,16,2048,2,2048,2,512,128,16,2048,16,128,128,2,8192,512,128,8192,8192,512,128,16,128,128,8,16,16,128,16
104,12343,49.19,-113.3,Káínawa,64,4,4,128,128,128,128,2,2,1024,64,8,8,2,32,64,128,8,2,1024,1024,2,128,512,1024,8192,8192,512,128,1024,128,1024,64,16,16,2,128
105,12387,-4.27,144.96,Kire,64,32,64,128,128,16,128,1024,16,1024,2048,8,2048,8,512,1024,128,8192,2,16,128,2,1024,32,16,32,32,512,8192,1024,8192,128,256,16,16,128,1024
106,12409,49.73,13.37,Bohemian,4,8,64,16,2,2,8192,2,2,2,64,2,64,2,512,64,128,64,512,128,128,2,8192,32,128,8192,8192,8192,8192,2,8192,128,1024,8192,8192,16,16
107,12480,0.54,16.62,Bongili,1024,8192,64,128,1024,128,128,16,1024,1024,64,8,64,512,8192,2048,128,8192,2,128,128,2,1024,2048,16,8192,8192,512,128,1024,8192,1024,256,1024,1024,128,128
108,12483,18.55,82.73,Bonda,16,4,4,1024,128,1024,16,2,2,1024,64,8,8,2,512,2048,128,8192,2,16,1024,2,1024,2048,128,512,2,32,128,1024,8192,128,8,128,128,128,128
109,12530,-3.31,-71.86,Bora Witoto,64,2,2,128,2,2,2,2,2,128,2048,8,2,2,512,8,128,2,16,16,1024,2,8192,32,16,512,8192,8192,8192,128,8192,128,64,2,16,1024,128
110,12546,7.54,40.63,Borana,1024,8,1024,8192,1024,1024,128,1024,1024,1024,64,512,8,128,512,1024,1024,2048,2,1024,8192,8192,8192,2048,1024,512,8192,512,8192,1024,8192,1024,256,128,128,16,8192
111,12563,44.24,17.73,Bosnia,4,256,4,16,2,2,16,2,2,2,8192,2,8192,2,512,32,2,2,512,16,16,2,2,8,1024,2,2,2,2,2,8192,128,256,16,8192,128,128
112,12591,-7.71,-42.72,Piaui,4,2,2048,16,2,2,8192,16,1024,128,NaN,2,64,NaN,8192,2048,128,8192,2,128,128,2,8192,2048,1024,8192,8192,8192,8192,128,8192,128,64,16,2,16,16
113,12594,-23.55,-46.63,São Paulo,16,8,64,16,2,2,8192,128,1024,16,64,2,64,512,512,2048,128,8192,16,128,128,2,8192,2048,128,8192,8192,8192,8192,16,8192,128,64,128,128,128,16
114,12596,-12.57,-41.7,Salvador,256,4096,32,128,128,8192,8192,8192,8192,128,64,8,64,512,512,1024,1024,8192,512,128,1024,2,8192,2048,128,8192,8192,512,8192,128,8192,128,256,128,128,1024,1024
115,12607,47.21,-1.55,Brittany,4,2,2,16,2,2,2,2,2,2,2048,2,2,2,512,8,128,256,512,128,128,2,1024,2048,128,512,8192,8192,8192,2,8192,128,64,16,128,128,16
116,12640,44.5,26.65,Bucharest,4,2,2,16,2,2,2,2,2,16,8192,2,2,2,512,4096,128,8192,2,16,16,2,16,32,16,2,8192,32,8192,16,2,128,64,128,128,128,16
117,12662,2.72,30.64,Budu,4,4,4,16,2,2,16,2,2,2,64,2,64,2,512,8192,1024,2048,2,16,1024,2,8192,512,16,8192,512,8192,8192,2,8192,128,256,16,16,1024,128
118,12698,-6.0,155.0,Buin,64,2,2,128,8192,1024,2,2,2,128,2048,8,2,2,512,2048,128,8192,16,128,1024,2,8192,512,16,8192,8192,32,128,128,8192,128,256,128,1024,128,16
119,12739,41.61,23.97,Pirin,2,2,2,16,2,2,2,2,2,2,8192,2,2,2,512,2048,16,8192,16,128,128,2,128,8,16,2,8192,8192,128,2,8192,128,256,1024,1024,128,16
120,12750,41.57,24.7,Rhodope,4,2,2,16,2,2,8192,2,2,2,64,2,2,128,512,4096,128,8192,2,128,128,2,128,32,128,8192,8192,512,128,2,8192,128,256,1024,8192,128,16
121,12761,42.33,23.08,Sofia District,64,2,2,8192,8192,8192,2,2,2,128,8192,8,2,2,512,4096,128,2048,16,16,128,8,8192,512,1024,2,8192,8192,8192,128,8192,128,256,8192,8192,16,16
122,12772,41.93,25.55,Thrace,4,2,2,16,2,2,2,2,2,2,8192,2,2,2,2,32,16,512,2,16,128,2,128,8,128,2,8192,8192,2,2,8192,1024,256,1024,8192,128,16
123,12783,2.92,11.15,Bulu,1024,2,2,8192,8192,8192,2,2,8192,1024,64,8,64,2,512,1024,128,2048,2,128,128,256,8192,512,128,8192,8192,8192,8192,1024,8192,128,256,128,128,128,128
124,12794,-8.98,14.89,Northern Mbundu,8192,2,2,8192,128,1024,2,2,2,1024,512,8192,2,2,8192,8192,8192,8192,2,1024,128,8192,8192,8192,8192,8192,8192,8192,8192,1024,8192,1024,8,128,16,16,128
125,12816,-15.75,168.18,Bunlap,256,2,2,16,1024,1024,2,2,2,128,2048,8192,2,2,512,2,1024,2,512,128,1024,2,8192,512,8192,8192,8192,512,8192,128,8192,16,256,128,128,1024,1024
126,12838,5.82,37.57,Burji,4096,8,64,8192,16,1024,128,128,128,8192,2048,8192,64,128,8192,2048,128,8192,2,128,128,8192,1024,512,1024,512,8192,32,2,8192,2,16,256,128,128,16,8192
127,12849,21.95,96.08,Burmese,4,256,32,16,2,2,1024,128,8192,2,2048,2,2048,128,512,2,1024,2,512,1024,128,2,128,32,128,512,512,32,128,2,128,128,8,16,128,128,128
128,12860,36.0,76.0,Burusho,4,4096,4,16,2,2,8192,2,2,128,512,2,512,2,512,8,1024,32,512,128,16,2,16,2048,128,8192,8192,512,128,128,2,128,64,128,16,16,1024
129,12871,54.83,112.4,Buryat,4,4,32,16,2,2,8192,128,8192,2,8192,2,64,32,512,64,1024,256,2,16,1024,2,16,8,1024,2,8192,512,128,2,2,128,1024,1024,1024,128,16
130,12904,-6.7,147.62,Butala,4,256,4,16,2,2,16,2,2,128,2048,2,8,2,512,2,16,32,512,128,1024,2,8192,32,16,512,512,32,128,128,8192,128,256,1024,128,1024,128
131,12920,22.81,108.36,Bouyei,4,256,64,2,2,2,1024,1024,128,16,2048,2,2048,32,512,4,128,2,2,128,1024,2,128,512,128,32,32,32,128,16,128,16,2,2,1024,128,1024
132,12923,-9.87,142.58,Buzi,64,8,64,128,1024,1024,128,2,2,1024,2048,8,8,8,512,2048,128,8192,2,128,1024,2,8192,512,1024,8192,8192,512,128,1024,8192,128,256,1024,1024,16,1024
133,12931,-9.36,150.25,Bwaidoka,1024,2,2,8192,128,1024,2,2,2,8192,8,8,2,2,8192,2048,128,2048,2,128,1024,8,8192,2048,128,8192,2,512,8192,8192,8192,128,64,128,16,1024,8192
134,12948,57.81,28.33,Belarus,4,2,2,16,2,2,2,2,2,2,64,2,2,2,512,2048,1024,8192,2,128,128,2,1024,32,128,512,8192,512,2,2,8192,128,256,1024,1024,128,128
135,13025,-26.72,-52.17,Kaingang,128,512,64,128,128,16,128,8192,128,1024,2048,128,8192,128,512,2048,8192,8192,2,2,16,2,8192,32,128,512,8192,32,8192,1024,8192,1024,64,128,128,16,1024
136,13036,-31.77,-60.49,Guaraní,256,4,4,128,16,128,8192,2,2,1024,64,8,64,2,512,64,1024,32,2,1024,1024,2,8192,512,1024,8192,8192,512,128,1024,8192,1024,256,1024,1024,16,1024
137,13080,12.57,-81.7,San Andrés,4,4096,2048,16,2,2,8192,8192,8192,2,64,2,64,512,8192,64,128,64,2,16,128,2,8192,512,128,8192,8192,8192,8192,2,8192,128,64,16,16,128,16
138,13102,-12.27,-53.47,Kamayurá,64,2,2,128,128,128,2,2,2,1024,2048,8,2,2,512,8,1024,2,16,128,1024,2,8192,32,128,8192,8192,8192,8192,1024,2,128,8,16,16,128,1024
139,13124,12.56,104.99,Khmer,4,NaN,256,16,2,2,1024,NaN,1024,16,2048,2,8192,128,512,1024,16,2048,2,128,1024,2,16,32,128,32,512,32,128,16,128,128,8192,128,128,128,128
140,13135,-10.44,-75.15,Asháninka,8192,256,4,8192,128,16,128,2,2,128,2048,8192,8,128,512,8192,16,8192,2,128,1024,8192,1024,32,16,512,8192,32,128,128,8192,128,256,128,16,128,8192
141,13140,-10.44,-75.15,British Canadian,4,2,2,16,2,2,2,2,2,2,64,2,2,2,512,64,128,64,2,128,128,2,1024,512,128,32,8192,512,8192,2,8192,128,256,128,128,128,128
142,13157,23.12,113.26,Cantonese Folk,4,2,2,16,2,2,2,2,2,16,64,2,2,2,512,2,128,256,512,128,128,2,128,512,128,2,8192,512,8192,16,8192,128,8,16,1024,16,16
143,13168,-10.92,-50.18,Karajá,4,2,2,16,2,2,2,2,2,1024,2048,2,2,2,8192,8,1024,2,16,1024,8192,2,8192,32,2,8192,8192,32,128,1024,128,8192,256,16,128,128,1024
144,13190,64.59,-84.13,Kivallirmiut,64,2,2,128,16,2,2,2,2,1024,2048,8,2,2,512,64,16,2048,512,128,1024,2,1024,32,16,32,8192,512,8192,1024,128,1024,64,16,2,1024,1024
145,13223,12.47,-61.44,Carriacou,1024,2,8192,128,1024,8192,2,2,8192,1024,64,8,64,2,512,1024,1024,8192,2,128,128,2,8192,512,128,8192,8192,8192,8192,1024,8192,128,256,128,128,128,128
146,13234,55.25,-127.67,Dakelh,4,2,2,16,2,2,2,2,2,1024,2048,2,2,2,32,2048,128,8192,2,128,128,2,8192,32,16,32,8192,512,8192,1024,128,1024,64,16,128,1024,1024
147,13256,16.56,121.26,Casiguran,4,2,2,16,2,2,2,2,2,128,8192,2,2,2,512,256,128,2048,2,128,16,2,128,2048,1024,2,8192,2,2,128,2,1024,8,2,128,1024,1024
148,13289,-15.6,-72.08,Qulla,64,512,128,128,128,1024,1024,16,128,16,2048,8,2048,32,2,64,1024,256,16,128,1024,2,1024,32,128,512,32,32,8192,16,8192,128,64,128,16,1024,1024
149,13300,-1.46,-78.51,Chachi,4,2,2,16,2,2,2,2,2,2,8192,2,2,2,2,4,128,2,2,1024,1024,2,1024,8,128,2,8192,32,128,2,2,1024,64,2,2,128,8192
150,13321,52.58,32.75,Bryanskaya,256,2,2,8192,128,1024,2,2,2,2,2048,8,2,2,512,2048,128,2048,8192,1024,128,1024,128,32,1024,8192,8192,32,128,2,128,2,1024,128,128,16,128
151,13322,52.64,41.42,Urals,64,2,512,8192,1024,1024,8192,8192,1024,128,2048,8,64,8192,512,64,128,32,16,8192,128,256,8192,32,128,8192,8192,512,128,128,NaN,1024,256,128,8192,128,16
152,13333,22.97,78.65,C Indian Folk,64,32,64,128,16,128,1024,16,128,2,512,8,512,512,2,4,1024,2,2048,128,16,2,2,2048,128,8192,8192,32,8192,2,8192,16,2,2,128,128,1024
153,13388,-3.28,37.51,Chagga,1024,4,4,8192,1024,1024,16,2,2,128,64,8,8,2,512,4,1024,2,16,128,1024,64,8192,512,128,8192,8192,32,8192,128,128,1024,256,16,16,128,1024
154,13399,40.84,111.73,Chahar,1024,2,2,8192,128,16,2,128,2,8192,8192,32,2,2,512,4,16,2,2,8192,NaN,8,2,2,1024,2,8192,32,128,8192,2,2,64,16,16,128,8192
155,13476,43.4,45.71,Chechen,4,4,4,16,2,2,16,2,2,16,64,2,64,2,512,64,128,32,16,128,128,2,128,512,1024,512,512,512,8192,16,8192,128,256,1024,1024,128,16
156,13520,56.63,47.86,Mari,4,2,2,16,2,2,2,2,2,2,64,2,2,2,512,64,1024,64,2,1024,1024,2,8192,512,128,8192,8192,512,128,2,8192,128,64,16,16,128,16
157,13553,35.07,-98.24,Heévâhetaneo'o,4,2,2,16,2,2,2,2,2,128,2048,2,2,2,2,32,16,32,2,16,1024,2,128,32,2,512,8192,512,128,128,2,1024,64,1024,1024,8192,1024
158,13558,16.33,-92.56,Venustiano Carranza Tzotzil,2,NaN,128,NaN,NaN,NaN,8192,16,16,NaN,NaN,NaN,8192,32,NaN,NaN,NaN,NaN,NaN,NaN,NaN,NaN,NaN,NaN,NaN,NaN,2,NaN,NaN,NaN,NaN,NaN,NaN,NaN,NaN,NaN,NaN
159,13597,10.82,-73.69,Atanquez Kogi,4,4096,64,16,2,2,8192,1024,8192,16,64,2,64,128,512,2048,1024,8192,2,128,1024,2,8192,512,1024,8192,8192,512,8192,16,128,128,8,16,128,16,128
160,13630,-36.55,-71.55,Huaso,4,4,4,16,2,2,8192,2,2,2,2048,2,64,2,512,64,1024,32,16,128,128,2,8192,512,128,8192,8192,512,8192,2,8192,1024,64,16,128,128,16
161,13663,35.89,117.92,Chinese Urban Elite,4,256,4,16,2,2,16,2,2,2,64,2,64,2,512,16,16,256,16,1024,1024,2,16,8,8192,2,2,2,128,2,2,1024,8192,2,1024,16,128
162,13663; 62304,35.89,117.92,Chinese Urban Elite,4,512,256,16,2,2,1024,16,16,2,8192,2,8192,32,512,2,128,2,16,1024,16,2,128,512,128,32,32,32,2,2,128,128,8,2,128,128,2
163,13665,30.27,120.15,Hangzhou,1024,2,2,128,1024,1024,2,2,2,8192,64,8,2,2,512,1024,8192,8192,2,128,1024,2,16,2048,1024,8192,8192,32,128,8192,128,128,256,16,128,16,8192
164,13668,33.24,119.36,Lower Yangtze,4,2,2,16,2,2,2,2,2,16,64,2,2,2,512,32,16,256,2,1024,128,2,16,512,1024,8192,8192,512,2,16,2,128,8,16,128,16,16
165,13701,-19.02,-68.11,Chipaya,512,512,64,128,128,128,8192,128,16,8192,512,8,64,128,8192,2048,128,8192,2,128,128,2,8192,32,1024,8192,8192,32,2,8192,8192,128,1024,16,1024,1024,8192
166,13718,46.77,-88.48,Ojibwe,4,2,2,16,2,2,2,2,2,2,2048,2,2,2,32,64,1024,512,2,128,128,2,1024,512,2,8192,8192,8192,128,2,2,128,256,2,16,1024,128
167,13762,5.25,-76.82,Emberá,2,NaN,128,NaN,NaN,NaN,1024,16,16,NaN,NaN,NaN,8192,NaN,NaN,NaN,NaN,NaN,NaN,NaN,NaN,NaN,NaN,NaN,NaN,NaN,512,NaN,NaN,NaN,NaN,NaN,NaN,NaN,NaN,NaN,NaN
168,13773,32.77,-89.11,Choctaw,4,2,2,16,2,2,2,2,2,1024,64,2,2,2,512,8,128,2,16,128,128,2,8192,512,1024,8192,2,512,2,1024,128,128,64,16,16,16,1024
169,13784,-7.05,156.95,Choiseul,32,2,2,8192,8192,8192,2,2,2,16,8192,2,2,2,512,4,16,256,512,1024,1024,2,1024,8,2,2,8192,32,2,16,8192,8192,1024,1024,1024,8192,8192
170,13795,-9.79,22.87,Chokwe,256,8192,4096,8192,1024,8192,8192,8192,8192,1024,2048,8,64,2048,512,1024,8192,8192,16,128,128,1024,8192,2048,1024,8192,8192,512,8192,1024,8192,1024,256,128,128,16,16
171,13806,-24.71,34.74,Chopi,1024,4,4,8192,8192,8192,16,8192,8192,16,64,8,64,2,8192,1024,1024,8192,2,1024,128,2,8192,2048,128,8192,8192,512,8192,16,8192,1024,256,128,128,16,1024
172,13850,68.73,177.49,Chaunsky Chuckchi,4,2,2,16,2,2,2,2,2,1024,2048,2,2,2,512,4096,1024,8192,2,16,1024,2,1024,512,128,512,8192,512,128,1024,128,1024,64,16,128,128,16
173,13883,53.69,54.27,Chuvash,64,2,2,8192,1024,1024,2,2,2,16,2048,8,2,2,512,64,1024,256,2,1024,128,64,8192,2048,1024,8192,8192,512,128,16,8192,128,1024,1024,1024,128,16
174,13894,47.31,24.75,Cluj,4,2,2,16,2,2,2,2,2,2,2048,2,2,2,512,64,128,64,512,128,128,2,128,8,128,2,8192,32,128,2,128,128,1024,1024,8192,128,128
175,13927,-10.44,-75.15,Cocama,NaN,NaN,32,NaN,NaN,NaN,128,16,128,NaN,NaN,NaN,64,128,NaN,NaN,NaN,NaN,NaN,NaN,NaN,NaN,NaN,NaN,NaN,NaN,8192,NaN,NaN,NaN,NaN,NaN,NaN,NaN,NaN,NaN,NaN
176,13971,1.78,-78.79,Palenquero,64,8192,32,8192,128,1024,8192,1024,8192,1024,64,8,64,2048,512,4096,1024,8192,2,128,1024,1024,8192,512,128,8192,8192,512,8192,1024,8192,1024,256,16,128,128,1024
177,13982,11.24,-74.21,Costeño,64,4,32,8192,128,1024,8192,128,8192,2,512,8,512,512,512,64,1024,2,16,128,128,256,8192,512,128,8192,8192,8192,8192,2,8192,128,64,128,128,128,16
178,13987,2.44,-76.61,Páez,NaN,NaN,8192,NaN,NaN,NaN,8192,1024,1024,NaN,64,2048,NaN,NaN,NaN,NaN,NaN,NaN,NaN,NaN,NaN,NaN,NaN,NaN,NaN,NaN,512,NaN,NaN,NaN,NaN,NaN,NaN,NaN,NaN,NaN,NaN
179,13993,34.6,-98.39,Nʉmʉnʉʉ,256,4,4,128,128,1024,16,2,2,128,2048,8,8,2,32,8,128,2,2,1024,1024,2,1024,512,128,8192,8192,512,8192,128,128,128,64,16,16,1024,128
180,14004,-18.87,47.5,Comoros,256,4,32,128,2,128,128,128,1024,16,64,8,64,128,512,8,128,2,16,128,16,2,1024,32,128,512,8192,512,128,16,8192,1024,8,128,128,128,128
181,14026,-8.24,-74.66,Shipibo-Conibo,32,2,2,8192,128,1024,2,2,2,1024,2048,8,2,2,512,2048,128,8192,16,1024,1024,2,1024,32,16,8192,8192,512,8192,1024,8192,128,64,16,128,16,128
182,14037,-21.22,-159.77,Cook Is Maori,64,2,2,8192,8192,8192,8192,2,2,16,2048,8,64,2,512,8,1024,2,2,8192,128,256,8192,2048,1024,8192,8192,8192,8192,16,8192,128,256,128,1024,128,16
183,14070,68.83,-101.5,Inuinnait,4,2,2,16,2,2,2,2,2,1024,2048,2,2,2,512,64,128,2,16,128,1024,2,1024,32,16,512,8192,512,128,1024,8192,128,8,16,128,1024,1024
184,14081,22.03,-104.93,Cora,4,4,4,16,2,2,16,2,2,128,2048,2,64,2,512,64,128,32,2,128,128,2,1024,2048,128,8192,8192,512,128,128,8192,128,64,16,128,128,128
185,14103,42.36,9.26,Haute Corse,4,2,2,16,2,2,2,2,2,2,8192,2,2,2,2,32,16,32,2,128,128,2,16,8,1024,2,8192,512,128,2,8192,128,8,16,128,16,16
186,14125,53.45,-108.91,Nehiyaw (Plains Cree),4,256,4,128,2,2,16,2,2,1024,2048,8,64,2,32,64,128,256,2,1024,1024,2,128,512,1024,8192,8192,512,128,1024,2,1024,8,16,16,2,1024
187,14136,38.93,-95.23,Mvskoke,256,4,32,128,1024,1024,128,1024,1024,1024,2048,8,8,8,512,64,1024,8192,16,128,1024,2,1024,512,128,8192,8192,512,128,1024,128,1024,256,128,16,128,128
188,14147,35.27,24.28,Crete,4,2,2,16,2,2,2,2,2,128,8192,2,2,2,512,16,128,256,16,128,16,2,2,8,128,2,8192,512,128,128,8192,128,64,16,16,128,16
189,14158,44.22,17.64,N Croatia,256,2,2,8192,8192,2,2,2,2,16,8192,2,2,2,512,32,2,256,512,16,16,1024,2,32,8192,2,8192,32,2,16,2,1024,8192,8192,8192,16,128
190,14180,23.1,-82.24,Afro-Cuban,256,8192,2048,8192,8192,8192,8192,8192,8192,16,64,8,64,2048,512,32,128,2,2048,128,128,8192,1024,512,1024,512,8192,8192,8192,16,8192,128,256,128,1024,128,128
191,14191,23.11,-82.36,Havana Folk,4,4096,32,16,2,2,8192,16,8192,2,2048,2,2048,32,2,64,128,32,2,128,128,2,1024,512,128,512,8192,8192,128,2,8192,128,64,128,1024,16,16
192,14224,-3.69,-61.46,Kulina,128,2,2,8192,1024,1024,2,2,2,8192,2048,32,2,2,512,512,1024,8192,2,1024,128,256,8192,2048,128,32,8192,32,2,8192,8192,1024,256,128,1024,128,1024
193,14235,9.57,-78.82,Guna,4,2,2,16,2,2,2,2,2,128,2048,2,2,2,512,1024,2,8192,2,16,128,2,1024,512,128,8192,8192,512,8192,128,8192,128,8,2,16,128,128
194,14328,22.0,100.79,Tai Lue,4,2,2,16,2,2,2,2,2,16,2048,2,2,2,512,1024,16,2048,2,1024,128,2,1024,512,128,32,8192,512,128,16,128,1024,2,16,16,128,16
195,14378,-4.02,138.89,Dani,8192,2,2,8192,1024,8192,2,2,2,128,8192,8,2,2,512,2048,8192,8192,2,16,128,2,8192,32,16,8192,8192,8192,128,128,8192,128,256,1024,1024,1024,1024
196,14422,36.79,-95.93,Lenape,64,4,4,128,16,128,128,1024,8192,1024,2048,2,2,2,512,2048,2,2048,512,128,1024,2,128,512,128,8192,8192,512,8192,1024,8192,1024,256,1024,1024,16,128
197,14444,56.65,9.97,Danish,4,4,4,16,2,2,8192,2,2,2,64,2,64,2,512,64,128,8,512,128,1024,2,8192,512,128,8192,8192,8192,8192,2,8192,128,256,1024,1024,128,16
198,14466,37.87,32.49,Dervish,4,2,2,128,128,2,2,2,2,2,8192,2,2,2,2,2048,16,8192,2,16,16,2,128,8192,1024,2,8192,32,128,2,128,128,8,2,16,128,16
199,14477,18.75,81.78,Dhurwa Gond,32,2,2,1024,1024,1024,2,2,2,128,2048,8,2,2,512,4096,1024,8192,16,128,16,2,1024,512,1024,512,8192,512,128,128,8192,128,1024,1024,1024,128,1024
200,14521,32.71,-117.16,Kumeyaay,64,4096,4,128,128,128,16,2,2,128,64,8,64,2,512,32,128,32,16,128,128,2,8192,512,128,8192,512,512,128,128,8192,8192,256,16,16,1024,1024
201,14562,48.34,8.5,Baden-Württemberg,64,2,2,16,2,2,2,2,2,16,64,2,2,2,2,1024,1024,8192,512,1024,1024,2,8192,32,128,8192,8192,8192,8192,16,8192,128,256,1024,128,128,128
202,14576,7.78,33.0,Dinka,4,2,2,128,2,2,2,2,2,1024,2048,8,2,2,512,2,1024,8192,16,1024,1024,2,8192,512,1024,8192,8192,512,8192,1024,8192,128,256,128,128,128,16
203,14598,12.56,-16.26,Jola-Fonyi,1024,2,2,8192,1024,8192,2,2,2,128,2048,8,2,2,512,4096,128,8192,16,1024,1024,64,1024,512,1024,8192,8192,512,128,128,8192,128,1024,1024,1024,128,1024
204,14653,43.53,28.53,Dobrudzha,4,2,2,16,2,2,2,2,2,2,8192,2,2,2,2,32,2,64,2,128,128,2,16,8,128,2,8192,512,2,2,128,1024,1024,1024,8192,16,16
205,14664,-9.64,150.69,Dobu,64,2,2,128,1024,1024,2,2,2,128,2048,8,2,2,512,4096,1024,2048,16,128,1024,2,8192,512,128,8192,2,512,128,128,8192,1024,64,128,128,128,1024
206,14675,14.42,-3.32,Dogon,256,4,64,128,1024,128,128,8192,8192,1024,2048,8,64,128,512,4,128,2,2,128,128,2,8192,512,128,8192,8192,512,8192,1024,8192,128,256,16,16,16,128
207,14694,6.3,36.56,Basketo,1024,8,64,8192,1024,8192,128,8192,1024,1024,64,512,8,128,512,1024,8192,8192,512,128,8192,8192,8192,2048,1024,8192,8192,8192,8192,1024,8192,128,256,128,128,128,1024
208,14697,15.36,-61.39,Dominica,256,2,2,128,128,1024,2,2,2,1024,64,8,2,2,512,64,1024,8192,2,128,128,2,8192,512,128,8192,8192,8192,8192,1024,8192,128,256,16,16,128,128
209,14702,26.64,106.63,Dong,256,2,2,8192,128,1024,2,2,2,128,2048,8,2,2,512,4,16,2,512,128,128,8,128,32,1024,32,8192,512,128,128,128,1024,8,16,1024,128,16
210,14708,24.61,80.48,Dorla,32,2,2,1024,1024,128,2,2,2,128,2048,8,2,2,512,4096,128,2048,2,128,128,2,1024,512,128,8192,8192,32,128,128,8192,128,256,128,128,128,128
211,14752,42.06,20.65,Dragas,64,2,2,8192,128,8192,2,2,2,128,64,8,64,2,8192,64,1024,256,16,128,128,1024,128,512,1024,8192,8192,512,128,128,128,128,1024,128,1024,16,128
212,14774,6.25,37.0,Dorze,1024,2,2,8192,1024,1024,2,2,2,1024,64,8192,2,2,512,1024,8192,8192,512,1024,8192,8192,8192,2048,1024,512,2,512,128,1024,2,128,256,128,2,16,1024
213,14785,31.8,35.1,Al-Muwaḥḥidūn,1024,512,128,128,16,1024,1024,16,8192,2,64,8,8192,512,512,2048,128,8192,2,16,16,2,128,512,1024,8192,8192,512,128,2,128,128,8,2,128,16,16
214,14801,-4.16,152.46,Duke of York,64,8,64,128,1024,1024,128,1024,1024,1024,2048,8,2048,32,512,1024,16,8192,2,1024,128,2,1024,2048,1024,512,512,512,128,1024,8192,1024,256,128,1024,128,128
215,14807,-0.76,12.84,Adouma,2048,2,2,8192,8192,8192,2,2,2,128,2048,8,2,2,512,1024,128,2048,2048,16,128,256,1024,512,1024,32,8192,32,128,128,128,128,1024,128,128,128,128
216,14818,54.89,-1.57,Durham Pitmen,64,2,2,128,128,1024,2,2,2,16,64,8,2,2,512,64,1024,64,512,128,1024,2,8192,512,128,8192,8192,8192,8192,16,8192,1024,256,1024,1024,128,16
217,14840,0.96,114.55,Dusun,4,2,2,16,2,2,8192,2,2,2,64,2,64,2,8192,2048,16,8192,2,1024,1024,2,1024,512,16,512,512,32,128,2,8192,128,256,128,16,1024,1024
218,14851,51.92,4.47,Nederlanders,64,2,2,128,1024,1024,2,2,2,16,64,8,2,2,512,64,128,64,2,128,128,2,8192,512,128,8192,8192,512,8192,16,8192,128,256,1024,1024,128,128
219,14862,-2.07,110.87,Dayak,4,4,4,1024,2,16,16,2,2,16,8192,32,8,2,2,1024,2,8192,2,16,128,2,16,2,16,2,8192,32,2,16,8192,1024,64,128,128,1024,1024
220,14994,30.9,31.11,Egypt,4,256,32,16,128,2,8192,128,2,16,8192,8,8192,2,512,4,1024,2,16,128,16,2,16,512,128,8192,8192,512,128,16,128,1024,8,16,128,16,16
221,14999,-4.41,140.01,Eipo,8192,2,2,1024,1024,16,2,2,2,1024,2048,8192,2,2,512,2048,8192,2048,2,16,128,8192,8192,8192,128,512,2,512,8192,1024,8192,128,64,16,128,1024,1024
222,15027,-0.74,18.11,Ekonda Mongo,1024,4,64,8192,8192,8192,8192,2,8192,1024,2048,8,64,2,512,1024,1024,8192,2,1024,1024,256,8192,2048,128,8192,8192,512,8192,1024,8192,128,1024,1024,128,16,128
223,15093,51.45,-2.58,Bristol,256,4,4,128,16,1024,8192,2,2,2,64,8,64,2,512,64,128,256,512,128,128,2,8192,512,1024,8192,8192,512,8192,2,8192,128,64,8192,128,128,128
224,15098,52.74,1.53,Norfolk,4,2,2,16,2,2,2,2,2,2,64,2,2,2,512,64,128,64,512,128,128,2,128,512,128,512,8192,512,8192,2,8192,128,64,16,16,128,128
225,15148,65.62,171.69,Anadysky Chukchi,4,4,4,16,2,2,16,2,2,1024,512,2,2048,2,512,32,128,256,16,128,1024,2,8192,512,128,8192,8192,32,8192,1024,8192,128,64,16,16,1024,1024
226,15170,-15.3,166.91,Espiritu Santo,256,512,64,8192,1024,8192,128,8192,1024,1024,2048,8,2048,8,512,64,1024,8,16,128,1024,2,8192,2048,1024,512,8192,512,8192,1024,8192,1024,256,1024,1024,128,1024
227,15181,58.36,25.58,Estonian,4,2,2,16,2,2,2,2,2,128,64,2,2,2,512,4096,128,8192,2,16,128,2,1024,32,128,512,8192,8192,8192,128,8192,128,256,128,1024,16,16
228,15225,62.01,-6.77,Faroe Islands,64,8,64,128,128,1024,128,8192,1024,16,64,8,64,8,512,64,1024,8,512,128,128,2,8192,512,1024,8192,8192,8192,8192,16,8192,1024,256,1024,128,2,128
229,15247,-3.09,133.01,Fakfak,64,2,2,128,8192,1024,2,2,2,2,8192,8,2,2,512,1024,16,8192,16,1024,1024,2,128,8,128,2,8192,2,2,2,8192,8192,1024,8192,8192,1024,8192
230,15280,5.13,-1.27,Fante,1024,4,4096,8192,8192,8192,8192,8192,8192,1024,512,8,64,2048,512,4,1024,2,512,1024,1024,64,8192,2048,128,8192,8192,8192,8192,1024,8192,128,256,8192,8192,128,1024
231,15282,-8.94,160.9,Fataleka,32,2,2,8192,1024,1024,2,2,2,1024,64,8,2,2,512,4096,16,8192,512,1024,8192,2,8192,512,16,512,512,512,128,1024,128,8192,8192,16,8192,1024,8192
232,15302,-18.89,178.4,Fiji,32,8,32,8192,8192,8192,128,1024,1024,128,64,8,64,128,512,2048,1024,8192,2048,1024,128,1024,8192,512,128,8192,8192,512,8192,128,8192,1024,1024,1024,1024,128,128
233,15313,64.12,29.52,Finnish,4,2,2,16,2,2,2,2,2,128,64,2,2,2,512,64,1024,256,2,128,1024,2,8192,512,1024,8192,8192,8192,8192,128,8192,1024,1024,128,128,128,16
234,15335,-6.59,147.85,Kâte,4,256,4,16,2,2,16,2,2,128,2048,2,8,2,512,32,128,2048,512,128,1024,2,1024,32,16,512,2,512,128,128,8192,1024,8,16,128,128,128
235,15368,47.5,-114.33,Bitterroot Salish,32,2,2,128,128,128,2,2,2,1024,64,8,2,2,32,8,1024,2,2,128,1024,2,8192,512,1024,8192,8192,512,8192,1024,2,1024,8,2,16,16,1024
236,15379,-8.65,121.07,Nage,256,2,2,8192,1024,8192,2,2,2,2,2048,8,2,2,512,2,1024,2,8192,1024,128,8,8192,512,128,8192,8192,8192,8192,2,8192,1024,256,8192,8192,1024,16
237,15390,7.18,1.99,Fon,256,2,2,128,128,128,2,2,2,128,2048,8,2,2,512,256,1024,8192,16,128,1024,2,8192,512,1024,8192,8192,512,8192,128,8192,128,8,16,128,128,1024
238,15401,-6.52,145.61,Fore,64,2,2,128,2,16,2,2,2,128,2048,8,2,2,512,1024,128,2048,512,128,128,2,8192,32,2,512,8192,8192,8192,128,8192,1024,256,128,128,8192,1024
239,15412,-0.79,29.04,Forest Bira,8192,4,4,8192,1024,1024,16,2,2,8192,2048,8192,64,2,8192,8192,1024,2048,2,1024,1024,8192,8192,32,8192,512,8192,2,2,8192,8192,1024,8192,16,16,16,1024
240,15439,45.2,4.03,Auvergne,4,4,4,16,2,2,16,2,2,128,64,2,64,2,512,8,1024,64,512,128,128,2,8192,2048,1024,8192,8192,8192,8192,128,8192,128,64,16,128,16,16
241,15445,47.0,2.0,Berry,4,2,2,16,2,2,2,2,2,2,2048,2,2,2,512,64,1024,32,512,128,128,2,1024,512,128,8192,8192,8192,8192,2,128,128,256,128,1024,128,16
242,15489,48.83,-64.48,French Canadians,4,2,2,16,2,2,2,2,2,2,2048,2,2,2,512,64,1024,256,512,128,128,2,8192,32,128,8192,8192,512,8192,2,8192,128,64,16,128,128,128
243,15497,48.78,-0.68,Normandy,4,2,2,16,2,2,2,2,2,16,64,2,2,2,512,64,128,32,512,128,128,2,8192,8,128,512,8192,8192,8192,16,8192,1024,64,16,16,128,128
244,15500,43.31,-1.58,French Basques,4,2,2,16,2,2,2,2,2,8192,64,2,2,2,512,32,128,8,2,16,128,2,8192,32,16,8192,8192,8192,8192,8192,8192,128,1024,8192,8192,1024,128
245,15522,46.07,13.23,Friuli,64,2,2,8192,1024,1024,2,2,2,2,64,8,2,2,512,64,1024,64,2048,8192,128,1024,8192,512,128,512,8192,512,8192,2,8192,1024,256,1024,128,128,16
246,15533,17.91,-62.85,St. Barthélemy,4,2,2,16,2,2,2,2,2,2,64,2,2,2,512,64,128,64,16,128,128,2,8192,32,128,32,8192,8192,8192,2,8192,128,64,2,16,128,16
247,15544,13.8,8.98,Wodaabe,1024,4096,2,128,1024,8192,8192,2,2,1024,64,8,2,2,512,4096,8192,8192,512,128,1024,2,8192,2048,1024,8192,8192,32,8192,1024,8192,128,256,128,128,1024,1024
248,15566,12.89,23.47,Fur,1024,4,4,1024,16,16,16,2,2,128,64,32,64,2,8192,2048,1024,8192,16,1024,128,2,128,2048,1024,512,8192,32,8192,128,8192,1024,64,16,16,16,1024
249,15577,6.09,10.3,Fut,4,4,4,8192,2,8192,128,2,2,1024,64,2,64,2,512,2048,8192,8192,16,128,1024,2,8192,512,16,8192,8192,512,8192,1024,8192,1024,1024,128,1024,1024,1024
250,15610,-8.81,146.53,Fuyuge,4,2,2,16,2,2,2,2,2,128,8192,2,2,2,32,32,16,512,16,1024,1024,2,128,8,16,2,8192,2,128,128,8192,2,1024,128,8192,1024,128
251,15643,21.77,84.36,Gadaba,32,2,2,8192,16,128,2,2,2,128,2048,32,2,2,512,4096,1024,2048,2,128,128,64,128,2048,1024,512,8192,512,8192,128,8192,1024,256,16,128,1024,128
252,15676,42.94,-9.19,Galicia,64,2,2,128,1024,1024,2,2,2,16,2048,8,2,2,2,64,128,8192,16,128,128,2,1024,512,1024,8192,8192,512,8192,16,8192,128,256,1024,1024,128,16
253,15687,9.31,42.19,Kottu,1024,2,64,128,1024,8192,128,2,2,128,64,8,2,8,512,1024,1024,8192,2,128,1024,2,128,512,1024,8192,8192,32,128,128,8192,128,64,16,128,128,1024
254,15703,6.25,37.0,Gamo,8192,2,2,8192,1024,1024,8192,8192,2,8192,64,512,64,2,512,1024,8192,8192,512,128,1024,8192,8192,2048,1024,8192,8192,8192,8192,8192,8192,128,256,128,128,16,128
255,15709,24.68,90.09,A·chik Mande,4,8,4096,16,2,2,8192,2,1024,16,2048,2,64,2,512,128,1024,2048,2,128,128,2,8192,512,16,512,512,32,128,16,8192,128,8,16,16,128,16
256,15720,30.21,78.92,Garhwal,256,4,32,128,128,128,128,1024,128,128,2048,8,2048,128,512,256,1024,8192,8192,16,128,2,16,512,1024,512,512,512,128,128,128,128,64,16,128,128,16
257,15725,7.54,40.63,Garre,1024,8,32,128,1024,1024,128,8192,1024,1024,64,8,64,8,512,1024,8192,8192,512,128,1024,2,8192,512,1024,512,512,512,8192,1024,8192,1024,256,128,128,1024,8192
258,15731,22.25,71.19,Saurashtra,512,32,64,128,128,128,128,16,16,16,512,8,512,8,2,4,128,2,2,128,128,2,128,512,128,32,8192,32,128,16,8192,128,2,128,128,128,128
259,15780,22.81,108.36,Gelao,512,2,2,8192,128,1024,2,2,2,16,2048,8,2,2,512,32,128,256,512,128,128,64,1024,2048,1024,32,8192,512,128,16,8192,128,8,128,1024,16,128
260,15797,41.69,44.8,Kakheti,4,2,2,8192,1024,8192,2,2,2,16,8192,128,2,2,512,32,128,256,512,1024,128,2,128,32,1024,2,8192,512,128,16,8192,1024,1024,16,16,16,128
261,15798,39.78,30.52,Adjari,1024,2,2,8192,1024,8192,2,2,2,1024,64,8192,2,2,512,1024,1024,8192,16,8192,128,8192,8192,512,8192,8192,2,512,8192,1024,8192,8192,256,128,128,2,16
262,15819,48.22,16.35,Bavaria Munich High Germany,4,4096,1024,2,2,2,8192,2,1024,128,64,2,64,8192,512,2,128,2,512,1024,128,2,128,2048,128,8192,512,8192,128,128,128,16,256,8192,8192,128,8192
263,15830,54.29,10.88,Schleswig-Holstein,64,4,64,128,1024,1024,128,2,2,128,64,8,64,2,512,64,128,256,512,1024,1024,2,8192,512,128,8192,8192,8192,8192,128,8192,128,256,1024,128,128,128
264,15841,51.88,6.91,Rhine-Westphalia,4,2,2,16,2,2,2,2,2,2,512,2,2,2,512,64,128,512,512,128,128,2,8192,32,128,512,8192,512,8192,2,8192,1024,64,1024,1024,128,2
265,15852,51.33,12.37,Urban E Germans,4,8192,2048,8192,2,2,8192,8192,1024,1024,64,8192,64,8192,512,2,16,2,16,128,128,8192,128,32,1024,512,512,8192,2,1024,8192,128,256,1024,8192,8192,8192
266,15868,6.66,-1.61,Ghana: Urban,1024,NaN,8192,8192,NaN,NaN,8192,NaN,8192,16,64,8,64,2048,8192,32,1024,8,512,NaN,128,256,8192,2048,128,8192,8192,512,8192,16,8192,128,256,16,1024,16,128
267,15871,6.99,35.58,Bench-Maji,8192,2,2,8192,8192,8192,2,2,2,1024,64,8192,2,2,512,8192,8192,8192,2,128,8192,8192,8192,2048,16,8192,8192,8192,8192,1024,8192,1024,256,16,16,1024,128
268,15890,6.25,37.0,Gidole,1024,2,2,8192,1024,1024,2,2,2,1024,2048,8192,2,2,512,4096,8192,2048,16,128,128,1024,8192,512,1024,512,8192,32,2,1024,128,128,64,128,1024,16,1024
269,15896,-8.1,156.83,I-Kiribati,32,2,2,8192,128,8192,2,2,2,16,2048,8,2,2,512,2,1024,2,512,128,128,2,8192,512,128,512,8192,8192,8192,16,8192,128,64,16,16,128,16
270,15907,43.22,142.86,Nivkh,4,2,2,16,2,2,2,2,2,16,64,2,2,2,512,2048,8192,8192,512,128,128,2,1024,32,16,2,8192,512,128,16,2,128,8,16,16,128,128
271,15929,6.41,-10.75,Dan,8192,4096,4096,8192,8192,1024,8192,1024,8192,1024,64,8192,64,2048,512,8192,8192,8192,8192,8192,8192,8192,8192,512,1024,8192,8192,512,8192,1024,8192,8192,8192,128,1024,16,1024
272,15973,12.0,-71.5,Wayuu,4,2,2,16,2,2,2,2,2,128,2048,2,2,2,512,2048,1024,8192,2,128,128,2,8192,2048,16,512,8192,512,8192,128,128,128,64,2,128,1024,1024
273,15978,-9.07,143.2,Gizra,64,2,2,8192,1024,1024,2,2,2,1024,2048,8,2,2,512,4096,128,8192,2,128,1024,2,8192,512,16,8192,2,512,8192,1024,8192,128,256,128,128,1024,16
274,15984,-8.86,143.4,Kerewo,32,2,2,8192,1024,128,2,2,2,16,8192,32,2,2,8192,2048,128,2048,2,16,16,8,128,8,16,2,8192,512,128,16,8192,8192,1024,16,16,8192,1024
275,15995,-6.16,35.75,Gogo,2048,4,2,8192,8192,8192,8192,8192,8192,1024,512,8,512,2,512,2048,1024,8192,2,128,1024,256,8192,512,128,8192,8192,8192,8192,1024,8192,128,1024,8192,8192,1024,1024
276,16028,21.14,79.08,Gond,512,8,2,128,1024,1024,2,128,2,128,64,8,64,2,512,4096,128,2048,2,128,128,2,1024,512,1024,8192,8192,8192,8192,128,8192,128,64,128,128,128,16
277,16039,23.7,86.94,Kanyapur,4,512,32,16,16,2,128,128,1024,2,2048,2,2048,128,512,2,128,8192,2,1024,16,2,2,2048,128,2,8192,32,128,2,8192,128,8,2,128,1024,16
278,16083,39.57,20.76,Greek Epirus,4,256,128,16,2,2,1024,128,1024,2,8192,2,8192,32,512,16,2,2,2,128,16,2,2,8,128,2,2,2,2,2,8192,1024,8,16,16,128,16
279,16094,37.34,22.35,Kalamata,2,256,32,16,2,2,8192,1024,1024,2,64,2,512,8192,512,1024,2,8192,2,1024,16,2,2,512,128,8192,512,2,2,2,8192,1024,8,16,128,128,16
280,16100,42.18,2.91,Pontos,4,256,4,16,2,2,8192,2,2,2,512,2,512,2,512,4096,128,2048,16,128,16,2,128,512,128,8192,8192,512,128,2,8192,1024,64,16,1024,128,16
281,16127,65.61,-37.63,Tunumiit,4,256,4,16,2,2,16,2,2,1024,8192,8,2,2,512,1024,1024,2048,2,16,1024,2,8192,2048,128,2,8192,512,8192,1024,8192,1024,256,16,16,128,1024
282,16138,12.22,-61.61,Grenada,1024,2,8192,8192,1024,8192,8192,8192,8192,1024,64,8,64,2,512,2048,128,8192,2,128,1024,2,8192,512,128,8192,8192,8192,8192,1024,8192,128,256,128,128,128,128
283,16170,-9.57,160.14,Guale,4096,2,2,8192,1024,1024,2,2,2,8192,8192,8192,2,2,512,4096,1024,256,2048,1024,128,8192,8192,32,128,512,2,512,2,8192,128,1024,256,1024,128,1024,8192
284,16182,16.31,-61.43,Guadeloupe,1024,4096,8192,128,1024,8192,8192,8192,8192,1024,64,8,64,2048,512,1024,8192,2048,512,128,128,2,8192,512,128,8192,8192,8192,8192,1024,8192,128,256,128,128,128,128
285,16193,8.74,-66.23,Guahibo,32,2,2,1024,128,16,2,2,2,1024,512,32,2,2,512,4096,1024,8192,2,128,1024,2,1024,512,128,512,8192,512,8192,1024,128,1024,64,16,1024,128,1024
286,16292,1.61,16.04,Ngundi,2048,8,64,8192,8192,8192,8192,8192,1024,1024,64,8,64,8,512,1024,8192,8192,512,16,128,256,8192,2048,128,8192,8192,32,8192,1024,8192,1024,1024,1024,128,1024,1024
287,16363,48.29,20.69,Hungarian Roma,4,8,2,16,2,2,128,2,2,1024,64,2,64,2,512,8,1024,32,16,1024,128,2,8192,2048,128,2,512,512,8192,1024,8192,1024,64,16,128,16,128
288,16402,-4.88,29.66,Hadimu,256,2,32,128,128,128,128,1024,8192,16,64,8,64,128,512,4,1024,2,2,128,1024,2,8192,512,128,8192,8192,32,128,16,128,128,256,2,16,128,1024
289,16424,53.0,-132.0,Haida,64,4,64,128,128,128,128,2,2,1024,2048,8,8,2,32,64,128,2,512,1024,1024,2,1024,512,128,512,8192,512,8192,1024,128,1024,64,16,128,1024,1024
290,16429,-9.47,147.2,Hahon,64,4,4,8192,1024,1024,16,2,2,8192,2048,8192,8,2,512,2048,2,2048,NaN,8192,128,8192,8192,512,1024,8192,8192,512,2,8192,8192,128,256,128,128,16,8192
291,16446,18.59,-72.3,Haiti,256,8192,32,128,1024,8192,8192,8192,8192,128,64,8,64,2048,512,2048,1024,8192,16,1024,1024,2,8192,512,1024,8192,8192,512,8192,128,8192,1024,256,128,128,128,128
292,16457,23.37,113.76,Hakka,4,2,2,16,2,2,2,2,2,16,2048,2,2,2,512,2048,128,2048,2,16,16,2,128,512,128,8192,8192,32,128,16,8192,128,8,16,128,128,16
293,16473,-9.47,147.2,Halia,4096,2,2,8192,1024,1024,2,2,2,8192,64,8192,2,2,512,64,128,256,NaN,1024,1024,8192,8192,32,1024,512,2,32,2,8192,8192,128,256,128,128,128,8192
294,16479,13.83,29.41,Hamar,4096,8,64,1024,1024,1024,8192,8192,1024,8192,64,512,64,512,512,512,8192,8192,16,1024,128,8192,1024,512,1024,8192,8192,512,8192,8192,128,8192,256,128,128,16,8192
295,16517,-6.8,146.56,Anga,2048,2,2,8192,1024,128,2,2,2,128,2048,8192,2,2,512,2048,1024,2048,16,16,128,8,8192,2048,128,32,2,512,2,128,8192,128,64,16,128,16,1024
296,16545,16.56,121.26,Hanunoo,4,256,4,16,2,2,2,2,2,2,8192,2,2,2,512,2,128,8192,512,128,16,2,128,32,16,2,8192,512,8192,2,8192,1024,256,2,16,8192,2
297,16578,-3.58,35.0,Hadza,64,4,4,8192,1024,1024,16,2,2,8192,64,8,8,2,512,512,1024,8192,2,1024,1024,1024,8192,512,128,8192,8192,8192,8192,8192,8192,1024,256,128,1024,128,1024
298,16589,11.74,8.52,Hausa Kanawa,4,4,32,16,2,2,128,8192,8192,16,64,2,64,128,512,4096,1024,8192,16,1024,1024,2,128,2048,128,8192,8192,32,8192,16,8192,1024,256,128,128,16,1024
299,16600,38.98,-114.3,Havsuwʼ Baaja,4,4,4,16,2,2,16,2,2,16,2048,2,8,2,32,64,1024,8,16,16,1024,2,1024,512,128,8192,8192,8192,128,16,8192,1024,64,16,2,128,128
300,16611,20.0,-155.82,Native Hawai'i,16,4,4,16,2,2,16,2,2,2,64,2,64,2,512,4096,8192,8192,8192,16,1024,2,8192,512,128,8192,8192,8192,8192,2,8192,128,256,1024,1024,1024,2
301,16622,11.19,29.41,Hawazma,4,2,2,16,2,2,2,2,2,16,64,2,64,2,512,1024,1024,2048,16,1024,128,2,1024,2048,128,512,8192,512,8192,16,8192,1024,8,16,128,128,1024
302,16633,-1.32,31.8,Haya,1024,8192,2048,8192,8192,1024,8192,128,1024,128,64,8,64,512,512,32,1024,64,2,16,16,8,128,32,128,8192,8192,32,2,128,128,1024,256,1024,16,1024,8192
303,16644,34.81,67.82,Hazara,128,2,2,1024,128,2,2,2,2,2,8192,32,2,2,512,2,16,2,2,128,16,2,2,32,128,2,8192,32,128,2,128,128,2,2,16,16,16
304,16655,12.8,45.03,Yemenite Jews,4,256,4,16,2,2,16,128,2,16,2048,2,64,2,512,2,16,2,2,128,16,2,2,512,8192,512,8192,2,2,16,2,128,8,2,2,16,1024
305,16666,57.26,-7.33,South Uist,256,2,2,128,1024,1024,2,2,2,128,64,8,2,2,512,32,1024,64,16,128,128,2,8192,512,128,8192,8192,8192,8192,128,8192,1024,256,128,128,128,16
306,16688,-7.73,35.69,Hehe,4,4,64,8192,8192,8192,128,8192,8192,128,64,8,64,512,8192,1024,1024,8192,16,128,128,2,8192,2048,128,8192,8192,512,8192,128,8192,128,256,16,128,128,1024
307,16710,-14.11,28.28,Tumbuka,1024,8,64,8192,1024,8192,128,8192,8192,128,64,8,8,8,2,128,128,2048,2,16,128,1024,8192,512,128,8192,8192,8192,2,128,8192,128,64,8192,128,128,128
308,16750,19.15,84.22,Hill Saora,4,2,2,16,2,2,2,2,2,128,2048,2,2,2,512,2048,1024,2048,2,128,128,2,1024,512,16,512,8192,512,8192,128,8192,128,64,2,128,128,16
309,16787,-19.4,13.91,Himba,8192,4,4096,8192,8192,1024,8192,8192,128,1024,2048,8192,512,2048,512,8192,1024,8192,2,128,8192,8192,8192,2048,128,8192,8192,512,128,1024,8192,128,1024,1024,1024,1024,8192
310,16792,25.88,84.29,Bhojpuri,4,2,2,16,2,2,8192,2,2,2,8192,2,2,2,512,4,1024,2048,2,128,16,2,128,512,128,512,512,512,128,2,8192,128,64,16,128,1024,16
311,16809,43.22,142.86,Hokkaido Ainu,4,2,64,8192,2,2,128,2,2,1024,2048,2,8,8,512,2,1024,8192,2,1024,1024,2,2,32,128,512,8192,512,8192,1024,2,1024,256,16,16,128,128
312,16825,-9.44,159.97,Honiara,32,4,4,8192,1024,1024,8192,2,2,2,64,8,64,2,512,64,128,64,2048,1024,128,1024,8192,512,128,8192,8192,32,8192,2,8192,1024,1024,16,1024,128,128
313,16831,36.06,-109.18,Hopituh Shi-nu-mu,64,4,4,128,1024,1024,16,2,2,1024,2048,8,2048,2,512,8,1024,2,16,1024,1024,2,1024,32,128,8192,8192,512,8192,1024,128,1024,256,128,128,2,128
314,16869,35.95,103.28,Hui,4,2,2,16,2,2,2,2,2,128,2048,2,2,2,512,8,128,32,512,1024,128,2,16,32,1024,512,8192,512,128,128,2,1024,64,16,128,128,128
315,16875,20.65,-103.42,Wixáritari,4,8,32,16,2,2,8192,2,2,1024,64,2,64,128,512,2048,8192,8192,512,128,1024,2,8192,512,16,512,8192,512,8192,1024,8192,128,64,16,16,1024,128
316,16919,47.6,19.36,Magyar,4,2,2,16,2,2,2,2,2,16,64,2,2,2,512,64,128,64,2,1024,128,2,8192,512,1024,8192,8192,8192,8192,16,8192,1024,256,1024,1024,128,16
317,16930,41.09,-123.68,Natinixwe,8192,2,2,8192,128,128,2,2,2,1024,64,128,2,2,512,2048,128,8192,2,128,1024,256,16,2048,128,8192,8192,512,8192,1024,2,128,64,16,128,16,1024
318,16963,-2.56,147.28,Iatmul,64,512,64,8192,2,2,8192,8192,128,1024,2048,8,2048,2,512,2048,128,2048,2,16,128,2,8192,2048,16,32,8192,512,8192,1024,8192,128,256,1024,128,1024,1024
319,16974,1.55,110.35,Iban,4,2,2,16,2,2,2,2,2,2,8192,2,2,2,512,2,16,8192,2,16,16,2,128,8,16,2,8192,512,128,2,2,1024,8,16,128,1024,2
320,16996,5.85,6.85,Igbo,256,4,64,16,2,2,128,1024,8192,16,2048,2,2048,128,512,2,8192,2,2,128,128,2,8192,512,128,8192,8192,512,128,16,128,16,256,128,128,128,1024
321,17029,7.25,144.44,Ifaluk,4,2,2,16,2,2,2,2,2,2,2048,2,2,2,512,2048,2,8192,8192,16,128,2,1024,8,128,512,8192,32,8192,2,8192,1024,64,1024,1024,128,16
322,17062,16.83,121.17,Ifugao,64,2,2,1024,16,16,2,2,2,2,8192,32,2,2,512,2,16,8192,2,16,128,256,16,32,16,2,8192,512,128,2,8192,128,8,128,128,1024,1024
323,17106,16.55,120.8,Ibaloi,64,2,2,128,128,128,2,2,2,16,8192,8,2,2,512,4096,16,8192,2,16,128,2,1024,8,128,2,8192,512,128,16,8192,128,8,16,128,128,128
324,17150,16.08,120.62,Ilocano,4,2,2,16,2,2,2,2,2,2,8192,2,2,2,32,2,2,2,2,128,16,2,2,2,128,2,8192,2,2,2,2,1024,8,2,2,16,2
325,17183,15.91,79.74,Andhra Pradesh,4,256,32,16,2,2,8192,128,8192,2,64,2,64,512,512,2,128,2,2,1024,16,2,2,512,16,8192,8192,32,2,2,8192,1024,64,2,16,128,16
326,17194,10.16,-61.43,Indo-Trinidad,4,2,2,128,2,2,2,2,2,2,64,8,2,2,512,64,128,2,2,128,128,2,128,32,128,8192,8192,8192,128,2,8192,128,8,2,16,128,16
327,17227,43.4,44.82,Ingush,4,4,4,16,2,2,8192,2,2,2,512,2,512,2,512,64,1024,32,2,128,128,2,1024,512,128,8192,8192,8192,8192,2,8192,1024,256,128,16,128,128
328,17232,64.23,-76.54,Nunatsiaqmiut,8192,2,2,8192,16,8192,2,2,2,8192,64,2048,2,2,512,8192,8192,8192,16,1024,8192,8192,8192,2048,16,512,2,8192,8192,8192,2,8192,64,2,2,16,8192
329,17234,56.54,-79.22,Netsilik,8192,2,2,8192,8192,8192,2,2,2,8192,64,512,2,2,512,8192,8192,8192,8192,1024,8192,8192,8192,2048,128,8192,2,8192,8192,8192,2,128,1024,16,2,16,8192
330,17236,60.02,-70.02,Nunavimmiut,4,2,2,16,2,2,2,2,2,128,2048,2,2,2,512,64,1024,8,2,128,1024,2,8192,2048,16,512,2,8192,8192,128,8192,1024,256,128,2,16,128
331,17249,38.42,45.76,Iran,4,2,4,16,2,2,2,2,2,128,8192,2,2,2,512,2,1024,2,2,128,16,2,2,8,1024,2,8192,512,2,128,2,128,8,16,1024,128,16
332,17265,-1.33,133.17,Papua,256,2,2,128,1024,16,2,2,2,128,8192,8,2,2,2,2,16,2,2,16,16,2,128,32,16,2,8192,512,128,128,8192,1024,1024,128,1024,1024,1024
333,17271,54.59,-5.93,Ulster,4,2,2,16,2,2,2,2,2,16,64,2,2,2,512,64,128,64,512,1024,128,2,8192,512,128,512,8192,8192,8192,16,8192,128,256,128,16,128,16
334,17282,51.25,-85.32,Haudenosaunee,256,4,4,128,128,1024,128,1024,1024,1024,2048,8,8,8,512,8,128,2,2,128,1024,2,1024,512,128,8192,8192,512,8192,1024,128,128,64,128,128,16,128
335,17330,45.08,13.85,Croatian Istria,64,2,2,8192,8192,8192,2,2,2,128,64,8,2,2,8192,64,128,8,16,128,128,1024,1024,512,1024,512,2,512,2,128,128,16,64,16,128,16,128
336,17350,41.45,14.25,Lettino,16,2,2,16,2,2,2,2,2,16,64,2,2,2,512,2048,128,8192,16,128,128,2,128,32,1024,512,8192,32,2,16,128,16,8,2,16,16,16
337,17359,41.82,15.77,Gargano,4,4,4,16,2,2,8192,2,2,2,64,2,64,2,512,32,128,32,2,128,128,2,1024,32,1024,2,8192,512,128,2,8192,128,2,16,16,128,16
338,17375,44.34,10.49,Emilia-Romagna,4,NaN,64,2,2,2,8192,NaN,1024,128,8192,2,64,8192,512,16,1024,8,2,128,128,2,16,2,1024,32,8192,8192,2,128,2,16,64,128,16,16,16
339,17378,43.37,13.21,Umbria-Marche,1024,2,2,8192,1024,1024,2,2,2,128,2048,8192,8192,2,2,2048,128,2048,2,1024,128,1024,128,32,1024,32,8192,512,128,128,128,128,64,128,128,16,128
340,17403,45.21,12.27,Chioggia,4,2,2,16,2,2,2,2,2,16,64,2,2,2,512,64,16,256,2,16,128,2,128,8,128,2,8192,512,8192,16,8192,128,8,16,16,16,128
341,17414,38.92,1.29,Ibiza,4,256,4,16,2,2,16,2,2,2,2048,2,2048,2,512,1024,16,8192,512,16,16,2,16,8,1024,2,2,32,128,2,2,16,8192,2,16,16,16
342,17436,-11.24,-53.2,Yawalapiti,4,4,4,16,2,2,16,2,2,1024,2048,2,8,2,512,8,1024,2,2,128,1024,2,8192,2048,1024,8192,8192,8192,8192,1024,8192,128,256,16,16,128,128
343,17469,2.86,102.17,Jakun,1024,2,2,8192,128,16,2,2,2,16,8192,8192,2,2,512,32,128,2048,2,1024,16,8,8192,32,16,2,2,32,128,16,8192,1024,8,16,16,1024,16
344,17474,5.55,101.33,Jahai,1024,8,1024,128,128,128,8192,8192,1024,128,2048,8192,64,8192,512,2048,1024,2048,2,16,128,2,1024,512,128,512,8192,8192,8192,128,128,128,8,16,1024,128,16
345,17480,17.97,-76.43,Jamaican,1024,8,64,8192,1024,8192,128,8192,8192,128,64,8,64,8,512,1024,128,8192,512,128,128,64,8192,512,128,8192,8192,512,8192,128,8192,128,256,128,128,16,1024
346,17502,35.67,139.65,Tokyo,4,2,4,16,2,2,16,2,2,2,8192,2,8192,2,512,16,16,256,512,1024,16,2,2,8,16,2,2,512,2,2,2,1024,8,16,128,1024,1024
347,17535,10.3,9.82,Bankalawa Jarawa,4,2,2,16,2,2,8192,2,8192,8192,64,2,64,2,8192,512,8192,2048,2,128,8192,2,8192,2048,1024,8192,8192,512,8192,8192,8192,1024,256,128,128,1024,1024
348,17546,19.44,84.26,Jaunsari,64,2,2,8192,8192,1024,2,2,2,1024,2048,2,2,2,2,4096,16,8192,2,128,128,1024,8192,8,1024,32,8192,2,128,1024,2,1024,1024,1024,1024,1024,8192
349,17557,-7.57,110.82,South Jakarta,4,512,32,16,2,2,8192,128,8192,2,8192,2,8192,8192,512,2,16,2,16,1024,1024,2,2,32,16,2,8192,32,128,2,2,16,2,2,1024,128,2
350,17579,29.95,-90.07,New Orleans Creole,4,8,2048,16,2,2,8192,128,8192,1024,64,2,64,8192,512,4,8192,8192,512,1024,1024,2,8192,512,1024,8192,8192,512,8192,1024,8192,128,256,128,128,16,1024
351,17584,40.84,-73.86,Mixed New York Jews,128,2,2,2,16,2,2,2,2,16,8192,2,2,2,512,2,128,2,2,128,128,2,8192,8192,128,2,8192,8192,8192,16,8192,128,64,128,128,128,1024
352,17587,12.0,37.25,Falasha,16,2,2,1024,128,2,2,2,2,2,8192,32,2,2,8192,2,128,2,2,128,16,2,1024,32,128,2,8192,32,2,2,8192,128,8,16,8192,128,128
353,17599,33.87,-5.54,Moroccan Jews,4,2,2,16,2,2,2,2,2,128,8192,2,2,2,512,2048,128,2048,16,128,16,2,16,8,16,2,8192,512,2,128,2,128,8,16,128,8192,1024
354,17609,33.8,10.84,Tunisian Jews,4096,2,2,1024,16,2,2,2,2,2,8192,32,2,2,512,2,8192,2,512,1024,128,2,128,512,128,8192,8192,32,128,2,128,1024,8,16,128,128,128
355,17610,40.71,-74.0,Ashkenazi New York Jews,4,2,2,16,2,2,2,2,2,2,2048,2,2,2,2,32,2,2,2,128,128,2,128,32,16,32,8192,8192,128,2,8192,1024,256,1024,8192,1024,2
356,17661,22.81,108.36,Jinghpaw,1024,4,4,8192,128,16,16,2,2,8192,2048,8192,512,2,512,NaN,128,2048,16,8192,128,8192,8192,512,1024,512,8192,512,2,8192,128,2,8192,1024,1024,1024,1024
357,17667,-2.11,-78.35,Jivaro,4,2,2,16,2,2,2,2,2,1024,64,2,2,2,512,8192,8192,8192,2,128,8192,2,1024,512,16,8192,8192,8192,8192,1024,8192,128,64,16,128,16,128
358,17689,18.81,82.71,Jhodia,32,4,32,1024,128,1024,128,16,1024,128,64,8,64,512,8192,512,8192,2,16,8192,128,2,128,2048,1024,512,8192,512,8192,128,8192,1024,64,16,128,16,1024
359,17700,31.76,35.21,Israeli Jews,4,2,2,16,2,2,2,2,2,2,8192,2,2,2,2,1024,128,2048,512,1024,16,2,16,8,1024,2,8192,2,2,2,2,16,8,2,16,16,16
360,17733,-11.24,-53.2,Yudjá,512,4,64,128,1024,128,128,8192,128,1024,2048,8,8,8,512,16,128,256,2,128,1024,2,1024,32,16,8192,8192,32,8192,1024,8192,8192,256,16,128,1024,1024
361,17755,8.61,0.82,Kabiyé,1024,4,2,128,8192,8192,16,2,2,128,64,8,64,2,NaN,256,1024,2048,2,128,128,2,8192,512,1024,8192,8192,512,8192,128,8192,1024,256,16,16,1024,1024
362,17766,35.7,-0.62,Kabyle,4,2,2,16,2,2,2,2,2,2,2048,2,2,2,512,64,128,64,512,128,1024,2,128,32,16,32,8192,32,2,2,8192,1024,256,128,16,1024,128
363,17865,-5.8,144.68,Kakoli,64,2,2,128,128,128,2,2,2,1024,2048,8,2,2,512,4096,128,8192,2,16,128,2,8192,32,1024,512,8192,512,8192,1024,8192,128,256,16,16,1024,8192
364,17884,36.89,73.26,Kalash,128,256,2048,1024,128,16,128,1024,1024,1024,8192,32,8,128,512,1024,128,2048,2,16,1024,64,16,32,1024,2,2,32,128,1024,2,128,256,128,128,1024,8192
365,17887,3.93,-53.12,Kalina,4,4,4,16,2,2,16,2,2,1024,2048,2,64,2,8192,32,128,256,2,128,128,2,1024,32,16,512,8192,512,128,1024,8192,128,256,16,1024,1024,1024
366,17920,46.18,45.0,Torghut Kalmyks,256,2,2,1024,16,16,2,2,2,128,8192,32,2,2,512,64,128,256,16,1024,1024,2,128,8,128,2,8192,32,2,128,8192,1024,256,128,1024,128,1024
367,17931,46.18,45.0,Buzawa Kalmyks,4,2,2,16,2,2,2,2,2,16,64,2,2,2,512,64,128,512,512,1024,128,2,1024,32,128,8192,8192,32,128,16,128,1024,256,128,1024,128,128
368,17936,-6.31,143.95,Bosavi,1024,512,64,8192,1024,8192,128,8192,128,1024,2048,8192,8,8,512,4096,1024,8192,2,128,1024,2,8192,512,16,8192,512,512,128,1024,8192,128,64,128,1024,1024,1024
369,17997,-10.98,26.73,Kanioka,1024,8192,8192,8192,8192,8192,8192,8192,8192,16,64,8,64,2048,8192,2,1024,8192,2,16,128,2,8192,512,128,8192,8192,32,8192,16,8192,128,1024,8192,128,128,1024
370,18129,-4.64,145.98,Waskia,64,256,64,128,1024,128,128,1024,128,8192,2048,8,8,8,8192,4096,128,2048,2,128,1024,2,8192,32,1024,32,512,512,128,8192,8192,1024,256,1024,1024,128,8192
371,18173,33.77,76.57,Kashmiri Dards,4,256,256,2,2,2,8192,1024,16,2,8192,2,8192,32,512,4,128,64,512,128,128,2,16,8,128,2,2,32,2,2,8192,128,64,128,1024,1024,128
372,18283,-10.65,-53.57,Kayabí,64,2,2,128,128,128,2,2,2,128,64,8,2,2,512,64,1024,256,16,128,1024,2,1024,512,128,512,8192,8192,8192,128,8192,1024,64,2,2,16,1024
373,18294,43.22,76.85,Kazakh Steppe Nomads,4,4,4,16,2,2,8192,2,2,2,2048,2,2048,2,512,64,2,32,2,1024,128,2,1024,512,1024,32,32,32,128,2,8192,128,8,2,1024,16,16
374,18305,-5.75,132.73,Kai Islanders,256,4,64,128,16,128,128,16,128,16,512,8,512,8,2,32,2,2048,2,16,128,2,128,32,1024,8192,8192,2,2,16,8192,128,64,2,2,16,16
375,18349,37.09,-82.34,Appalachia,4,2,2,16,2,2,8192,2,2,2,64,2,64,2,512,64,128,64,512,128,128,2,1024,32,128,8192,8192,512,128,2,8192,128,64,16,16,128,16
376,18371,8.52,76.93,Kerala,4,8,32,16,128,2,8192,2,8192,128,64,8,64,512,512,8,128,2,2,1024,16,2,16,512,128,8192,8192,512,128,128,2,128,8,2,16,128,2
377,18393,65.87,87.84,Ket,1024,2,2,16,2,2,2,2,2,1024,2048,2,2,2,512,2048,1024,2048,512,128,1024,2,8192,512,1024,8192,8192,512,2,1024,128,1024,1024,128,128,128,1024
378,18431,62.22,70.64,Khanty,4,2,2,16,2,2,2,2,2,128,2048,2,2,2,512,4096,1024,8192,16,16,8192,2,8192,512,128,512,8192,512,128,128,128,1024,256,16,128,128,128
379,18448,31.95,77.1,Khattak,128,512,256,1024,16,16,1024,16,16,8192,64,32,64,512,512,1024,128,8192,2,16,128,2,16,512,8192,32,32,32,2,8192,8192,2,2,2,2,2,8192
380,18536,-4.75,155.4,Tuluun,64,2,2,8192,1024,8192,2,2,2,2,64,8,2,2,2,4096,128,2048,2,128,1024,256,8192,2048,16,8192,8192,512,8192,2,8192,1024,1024,128,1024,1024,16
381,18569,35.07,-98.24,Ka'igwu,2048,4,4,128,128,128,16,2,2,1024,2048,8,8,2,32,64,128,2,2,1024,1024,2,1024,512,1024,8192,8192,512,128,1024,128,1024,64,16,16,16,128
382,18591,-0.36,35.28,Kipsigis,1024,4,4,8192,8192,8192,8192,2,2,1024,64,8,64,2,512,32,1024,8192,512,128,1024,8,8192,512,16,8192,8192,8192,8192,1024,8192,1024,1024,1024,8192,128,1024
383,18596,43.22,76.85,Kyrgyz,4,4,4,16,2,2,8192,2,2,2,2048,2,64,2,512,4096,128,2048,2,128,128,2,1024,512,128,8192,8192,512,128,2,8192,128,64,16,1024,128,16
384,18624,36.54,22.39,Inner Mani,32,2,2,128,16,16,2,2,2,16,2048,8,2,2,512,64,128,8192,2,16,128,2,128,32,128,512,8192,32,128,16,128,128,64,16,128,128,128
385,18635,-8.54,143.45,Kiwai,64,4,4,8192,1024,8192,16,2,2,16,2048,8,64,2,8192,2048,2,8192,2048,1024,128,1024,1024,8,16,8192,8192,512,128,16,8192,8192,1024,128,128,8192,1024
386,18778,15.91,79.74,Kolam,512,4096,32,128,16,128,8192,16,1024,1024,2048,32,64,2048,512,8,1024,2,16,128,128,2,128,2048,1024,512,8192,512,8192,1024,128,128,8,16,128,128,16
387,18811,-5.33,139.81,Kombai,64,256,4,8192,1024,1024,16,2,2,16,2048,8,2048,2,512,64,1024,512,16,128,1024,256,1024,32,16,32,32,2,128,16,8192,128,1024,1024,1024,128,128
388,18833,18.56,82.97,Konda-Dora,4,4096,128,16,2,2,1024,128,1024,16,2048,2,64,128,512,128,128,2048,2,1024,16,2,16,2048,128,512,32,512,8192,16,8192,128,8,16,128,1024,128
389,18888,5.31,37.21,Konso,1024,8192,2048,8192,1024,8192,8192,128,1024,1024,64,2048,8,512,8192,128,8192,8192,16,128,8192,8,8192,2048,1024,512,512,512,8192,1024,8192,128,256,128,128,16,16
390,18932,37.56,126.97,Urban S Korea,4,8,256,16,2,2,1024,16,16,2,64,2,64,32,512,2,128,256,16,1024,16,2,128,32,128,8192,8192,512,2,2,2,1024,256,128,128,16,16
391,18943,21.77,78.17,Korku,4,2,2,1024,2,2,2,2,2,128,2048,32,2,2,512,2048,128,8192,2,16,128,2,128,2048,16,512,8192,512,8192,128,8192,128,256,16,128,1024,1024
392,18976,65.17,176.76,Koryak,4,2,2,16,2,2,2,2,2,8192,64,2,2,2,512,4096,1024,8192,512,16,128,2,1024,32,16,8192,8192,8192,128,8192,128,1024,1024,128,1024,1024,8192
393,19014,-2.3,14.37,Kukuya Teke,2048,8192,2048,8192,8192,8192,8192,8192,8192,1024,64,2048,64,2048,512,1024,8192,2048,2,128,16,8,128,8192,128,8192,8192,8192,128,1024,2,8192,256,1024,1024,1024,8192
394,19022,-0.48,15.89,Kouyou,8192,8192,4096,8192,1024,8192,8192,1024,8192,128,64,8,64,2048,8192,2048,8192,8192,16,1024,128,8192,1024,512,1024,8192,8192,512,8192,128,8192,1024,256,128,16,1024,1024
395,19025,-5.61,147.96,Kovai,4096,2,2,8192,1024,128,2,2,2,128,2048,8,2,8,512,2048,128,2048,2,1024,1024,2,8192,512,1024,512,512,32,128,128,8192,16,256,128,128,16,1024
396,19031,16.87,80.92,Koya,32,2,2,128,128,128,2,2,2,128,64,8,2,2,512,64,8192,256,2,1024,128,2,1024,2048,128,512,8192,512,8192,128,8192,128,256,16,16,128,1024
397,19053,6.99,-9.47,Kpelle,8192,2,2,8192,1024,8192,2,2,2,1024,64,8192,2,2,512,8192,8192,8192,512,128,1024,8192,8192,2048,1024,8192,8192,8192,128,1024,8192,128,8192,16,16,1024,1024
398,19064,-14.0,-47.68,Canela Krahô,64,2,2,8192,1024,128,2,2,2,1024,2048,8,2,2,512,1024,128,2,2,128,1024,256,8192,32,128,8192,8192,512,128,1024,128,8192,1024,1024,1024,1024,8192
399,19086,4.76,-8.22,Kru,4,NaN,4,2,2,2,8192,NaN,2,1024,64,2,64,2,8192,1024,8192,2048,512,128,128,2,8192,2048,16,8192,8192,512,8192,1024,8192,128,256,128,16,1024,1024
400,19097,-6.2,149.53,Kaulong,64,4,64,128,128,1024,128,8192,8192,1024,2048,8,8,8,512,4096,128,2048,2048,128,128,2,1024,512,128,8192,8192,32,128,1024,8192,128,64,8192,8192,128,8192
401,19141,-12.68,-56.92,Kuikuru,64,4,64,128,128,1024,128,1024,1024,1024,64,8,8,8,8192,64,1024,8,16,16,128,2,8192,2048,128,8192,8192,512,128,1024,128,128,64,1024,16,16,1024
402,19196,32.55,76.12,Kullu,4,8192,2048,128,2,2,8192,2,2,16,64,8,64,2,512,64,1024,8192,16,128,16,2,16,512,128,2,2,512,2,16,128,128,64,16,128,128,16
403,19262; 30012,-25.59,21.09,Juǀʼhoansi,8192,8,64,8192,8192,8192,128,8192,8192,8192,512,8192,512,8,512,8192,8192,8192,512,1024,8192,8192,8192,512,16,8192,8192,8192,8192,8192,8192,1024,8192,8192,8192,8192,8192
404,19273,-8.21,142.1,Kunga,64,512,256,128,128,1024,2,16,2,1024,8,8,8192,2,8192,512,8192,8192,2,16,128,2,8192,32,1024,32,2,32,8192,1024,8192,1024,1024,128,16,128,1024
405,19284,-8.81,146.53,Kunimaipa,64,2,2,8192,1024,1024,2,2,2,8192,8192,8,2,2,32,2048,128,2048,2,1024,1024,64,8192,32,16,2,8192,32,128,8192,8192,1024,1024,1024,8192,1024,1024
406,19295,16.03,-16.48,Kunta,1024,256,32,1024,128,16,8192,128,8192,2,2048,32,2048,128,512,4,128,2,2,1024,16,2,2,8,128,2,8192,32,128,2,2,1024,2,16,128,128,128
407,19317,36.26,59.61,Khorasani Kurds,4,4,32,16,2,2,8192,128,1024,16,64,2,64,512,512,4,1024,2,2,128,16,2,2,512,128,512,512,2,128,16,128,128,2,2,128,16,16
408,19328,36.8,44.24,Barzani Kurd,4,2,2,16,2,2,2,2,2,2,8192,2,2,2,512,2,2,2,2,128,16,2,16,512,1024,2,8192,32,128,2,2,128,8,16,16,16,16
409,19377,0.33,34.48,Bukusu,1024,4096,2048,8192,1024,1024,8192,8192,8192,16,2048,8,64,8192,8192,128,1024,8192,2,128,1024,8,8192,8192,1024,8192,8192,8192,8192,16,8192,128,256,16,16,16,1024
410,19394,49.51,-115.76,Ktunaxa,256,4,64,128,128,128,16,2,2,1024,64,8,8,2,32,64,1024,256,2,1024,1024,2,8192,512,1024,8192,8192,32,128,1024,2,128,2,2,16,16,1024
411,19438,26.22,50.58,Kuwait,4,2,2,16,2,2,2,2,2,2,8192,2,2,2,512,1024,1024,2048,2,8192,16,2,16,8,1024,2,8192,512,2,2,2,8192,64,16,1024,16,128
412,19460,49.65,-125.44,Kwakwa̱ka̱’wakw,4,4,4,16,2,2,16,2,2,2,2048,2,2,2,512,2,128,2048,512,128,16,2,128,512,128,8192,8192,32,128,2,128,128,2,2,2,16,16
413,19493,29.89,-91.9,Cajun,4,2,2,16,2,2,2,2,2,2,64,2,2,2,512,64,128,64,512,128,1024,2,1024,8,128,2,8192,8192,128,2,8192,128,8,16,16,128,16
414,19526,16.73,-92.63,Lacandon,4,2,2,16,2,2,2,2,2,1024,2048,2,2,2,512,4,16,2,16,16,1024,2,8192,512,16,512,8192,32,8192,1024,8192,1024,8,16,16,128,128
415,19537,35.03,-107.38,Kawaik,64,4,4,128,1024,1024,16,2,2,1024,2048,8,2048,2,512,4,1024,256,2,128,1024,2,8192,32,1024,8192,8192,512,8192,1024,128,128,256,1024,1024,128,1024
416,19548,19.91,99.84,Lahu (Thailand),4,2,2,16,2,2,2,2,2,2,8192,2,2,2,512,16,1024,2048,16,128,1024,2,1024,32,1024,2,8192,32,128,2,8192,16,1024,128,1024,128,1024
417,19614,-13.35,30.52,Bantu Lala,4,4,4,16,2,2,8192,2,2,16,64,2,64,2,512,2048,8192,2048,16,128,128,2,8192,2048,1024,8192,8192,512,8192,16,8192,128,256,16,16,128,1024
418,19680,20.91,101.16,Lanten,4,4,32,16,2,2,128,128,1024,16,2048,2,2048,128,512,128,1024,2,2,16,16,2,16,512,128,512,512,512,8192,16,128,128,8,2,128,128,16
419,19691,18.11,102.52,Lao,4,512,32,16,2,2,8192,128,128,2,64,2,2048,128,512,2,1024,2,16,1024,1024,2,16,32,128,8192,8192,32,8192,2,128,1024,8,2,128,128,2
420,19702,70.48,26.01,W Sáami,4,2,2,16,2,2,2,2,2,8192,2048,2,2,2,512,2048,1024,8192,512,128,1024,2,128,512,128,512,8192,512,8192,8192,2,128,256,128,16,128,1024
421,19724,56.71,24.81,Latvian,4,2,2,8192,1024,1024,2,2,2,16,64,8,2,2,512,4096,1024,8192,2,16,128,2,8192,32,1024,512,8192,8192,8192,16,8192,128,256,128,128,128,128
422,19746,33.98,35.63,Lebanese Maronite,64,2,2,128,1024,2,2,2,2,2,64,8,2,2,512,1024,128,2048,2,16,128,2,128,512,128,8192,8192,8192,8192,2,8192,1024,256,2,128,128,128
423,19790,-16.3,167.51,Mbotgote,256,512,32,8192,128,128,8192,1024,8192,1024,8192,32,64,2048,512,2048,128,8192,2048,1024,1024,256,1024,8192,1024,2,512,32,128,1024,8192,8192,64,128,128,1024,8192
424,19801,1.57,30.23,Lendu,4,256,4,16,2,2,8192,2,2,16,2048,2,512,2,8192,128,8192,8192,16,128,1024,2,8192,512,16,512,512,512,8192,16,8192,1024,256,128,16,1024,128
425,19856,2.72,30.64,Lese,8192,2,2,8192,128,8192,2,2,2,8192,64,8192,2,2,8192,8192,8192,8192,8192,128,1024,8192,8192,512,1024,8192,8192,512,2,8192,8192,1024,256,128,128,16,1024
426,19889,39.9,116.4,Li,4,2,2,16,2,2,2,2,2,128,8192,2,2,2,512,16,1024,256,512,128,16,2,128,32,1024,2,8192,512,2,128,2,16,64,128,128,16,1024
427,19922,44.4,8.94,Genoa,8192,2,2,8192,8192,8192,2,2,2,1024,2048,8192,2,2,512,4,16,2,2048,8192,128,1024,128,2048,1024,8192,8192,8192,2,1024,8192,8192,8192,1024,1024,16,1024
428,19966,22.81,108.36,Lisu,256,2,2,8192,128,128,2,2,2,16,8192,32,2,2,NaN,32,128,32,512,128,8192,1024,128,8,1024,2,8192,512,8192,16,128,128,256,128,128,128,1024
429,19977,56.32,22.01,Žemaitija,4,2,2,16,2,2,2,2,2,2,2048,2,2,2,512,32,128,8192,512,128,128,2,8192,2048,128,8192,8192,8192,128,2,8192,128,256,8192,8192,128,128
430,20032,22.81,108.36,Yi,64,2,2,128,128,1024,2,2,2,1024,2048,8,2,2,512,4096,128,8192,16,1024,1024,2,1024,512,128,8192,8192,512,8192,1024,128,1024,8192,16,1024,16,1024
431,20087,57.42,-2.38,Lowland Scotland,4,2,2,16,2,2,2,2,2,2,64,2,2,2,512,32,128,64,512,1024,128,2,8192,512,128,32,8192,512,8192,2,8192,1024,256,128,16,128,128
432,20098,-18.35,26.5,Lozi,256,4,4,8192,8192,8192,8192,2,2,128,64,8,64,2,512,4,1024,8192,512,128,1024,2,8192,512,128,8192,8192,512,8192,128,8192,128,1024,16,16,128,1024
433,20109,18.27,98.11,Lua,64,2,2,16,2,2,2,2,2,2,2048,2,2,2,512,1024,1024,2048,2,16,1024,2,8192,8,1024,32,8192,32,2,2,128,1024,256,2,16,128,128
434,20131,-6.73,23.94,Luba,1024,4,32,8192,8192,8192,8192,2,8192,128,64,8,64,2,8192,1024,8192,8192,2,128,1024,1024,8192,2048,128,8192,8192,512,8192,128,8192,128,256,128,16,128,1024
435,20142,-10.71,25.46,Hemba,1024,4096,2048,8192,8192,8192,8192,8192,8192,16,64,2,64,128,512,1024,1024,8192,2,128,128,256,8192,2048,128,8192,8192,512,8192,16,8192,128,256,128,128,128,128
436,20153,40.49,16.45,Lucania,16,256,4,2,2,2,16,2,2,16,64,2,64,2,512,2048,128,2048,2,128,128,2,128,512,1024,512,512,32,128,16,128,128,64,128,1024,128,1024
437,20219,-5.04,20.71,Luba-Lulua,8192,8192,8192,8192,8192,8192,8192,8192,8192,2,64,8192,64,2,512,8192,8192,8192,16,16,1024,8192,8192,512,1024,8192,8192,8192,8192,2,8192,128,256,128,16,16,128
438,20230,-12.02,24.52,Lunda,1024,4,32,8192,8192,8192,8192,8192,8192,128,64,8,64,2048,512,1024,1024,8192,2048,128,128,256,8192,512,1024,8192,8192,512,8192,128,8192,1024,1024,128,16,128,128
439,20241,-0.09,34.76,Luo,4,4096,32,16,2,2,128,2,8192,16,2048,2,64,2,512,128,1024,2048,2,128,128,2,8192,2048,128,8192,8192,8192,8192,16,8192,128,256,128,16,128,1024
440,20252,-11.77,19.89,Luvale,256,4,64,8192,8192,8192,8192,8192,8192,128,64,8,64,2,512,4,8192,2,2,128,128,1024,8192,512,1024,8192,8192,512,128,128,8192,128,1024,128,1024,16,1024
441,20318,41.51,20.52,Slavic Macedonian,4,2,2,16,2,2,2,2,2,16,2048,2,2,2,512,32,16,8192,16,128,128,2,128,512,128,512,8192,32,128,16,8192,128,256,128,1024,128,128
442,20362,-5.22,145.78,Madang,64,8,32,128,128,128,1024,16,128,1024,2,2,2048,128,8192,2,2,2,2,16,16,2,128,32,128,512,32,512,128,1024,8192,1024,8,16,16,128,1024
443,20417,8.49,123.3,Maguindanao,4,2,2,16,2,2,2,2,2,2,8192,2,2,2,512,2,2,2,16,128,16,2,2,32,1024,2,8192,32,2,2,128,1024,8,16,128,128,2
444,20439,-23.72,44.31,Mahafaly,1024,2,2,8192,1024,128,2,2,2,128,2048,8,2,2,512,256,1024,8192,2,128,1024,2,8192,2048,16,512,8192,512,128,128,8192,1024,1024,128,128,1024,1024
445,20477,6.17,35.58,Dizi,8192,8192,8192,8192,1024,1024,8192,8192,1024,8192,512,8192,512,512,8192,8192,1024,2048,2,1024,1024,8192,8192,512,1024,512,8192,512,2,8192,128,1024,256,128,1024,128,8192
446,20516,-4.63,151.98,Makolkol,2048,512,256,8192,16,2,1024,128,2,2,8192,32,8192,32,512,2,2,2,2,128,1024,8192,8192,2048,1024,2,2,32,128,2,8192,128,2,2,2,16,16
447,20571,2.45,102.16,Malay,256,8,64,16,2,2,128,128,16,2,8192,2,64,128,512,2,128,2,512,16,16,2,2,32,128,2,8192,2,2,2,2,128,2,2,16,128,2
448,20604,-16.3,167.51,Namba Unknown,32,256,2,128,1024,128,2,2,2,8192,2048,8,2048,2,512,32,128,32,2,128,1024,2,8192,32,16,512,8192,32,8192,8192,8192,1024,256,128,128,1024,128
449,20615,7.0,-9.47,Malinke,4,8192,32,16,2,2,8192,8192,8192,128,64,8,64,512,512,256,1024,8192,2,128,128,2,8192,512,1024,8192,8192,512,8192,128,8192,128,256,16,128,16,1024
450,20626,39.71,2.62,Mallorca,4,2,2,2,2,2,2,2,2,2,8192,2,2,2,512,1024,1024,2048,2,128,16,2,128,8,1024,2,8192,512,2,2,8192,16,256,128,16,16,8192
451,20681,-4.03,21.75,Mamvu,4,256,4,16,1024,2,8192,2,2,16,64,2,512,2,8192,1024,8192,8192,2,128,1024,2,8192,512,16,8192,8192,32,128,16,8192,1024,1024,16,16,1024,1024
452,20714,43.7,126.19,Manchu,16,2,2,16,2,2,2,2,2,16,2048,2,2,2,8192,1024,128,2048,16,16,128,2,128,2048,1024,512,8192,32,128,16,2,128,64,128,16,16,1024
453,20758,-23.1,-134.97,Mangareva,32,2,2,128,1024,8192,2,2,2,128,2048,8,2,2,512,2048,128,2048,512,16,128,2,8192,512,16,512,8192,8192,8192,128,8192,128,256,1024,1024,1024,16
454,20791,7.1,125.03,Manobo,4,2,2,16,2,2,2,2,2,2,8192,2,2,2,512,2,2,2,512,1024,8192,2,1024,8,128,2,8192,32,2,2,8192,128,256,16,8192,128,16
455,20802,-2.56,147.28,Mantankor,32,2,2,8192,8192,8192,2,2,2,16,8192,8,2,2,8192,128,1024,8192,16,128,128,1024,1024,512,2,2,8192,512,128,16,128,128,256,1024,1024,8192,1024
456,20813,-2.09,146.87,Manus,64,2,2,128,128,2,2,2,2,2,8192,8,2,2,512,2048,128,8192,2,2,128,2,8192,512,16,2,8192,512,8192,2,8192,1024,64,128,16,1024,16
457,20818,-3.88,130.92,Manuwoko,4,256,4,2,2,2,16,2,2,128,8192,2,64,2,512,256,1024,256,2,16,16,2,128,32,1024,2,32,32,128,128,128,128,256,16,128,1024,128
458,20829,22.81,108.36,Maonan,64,2,2,8192,1024,8192,2,2,NaN,128,2048,8,2,2,512,4096,128,8192,2,16,128,1024,8192,2048,128,512,8192,8192,8192,128,8192,128,64,128,8192,128,16
459,20832,-10.13,148.82,Maopa,32,4,64,8192,1024,1024,128,2,2,1024,2048,8,2048,8,512,2048,128,8192,2,128,1024,8,16,512,16,512,8192,512,128,1024,8192,1024,256,16,16,128,1024
460,20835,-39.23,175.6,Maori,64,2,2,128,8192,8192,2,2,2,2,8192,8,2,2,2,2048,16,2,2,16,16,2,8192,8,16,2,8192,32,8192,2,8192,1024,256,8192,8192,1024,16
461,20879,-4.98,145.19,Maring,256,2,2,128,128,16,2,2,2,1024,2048,8,2,2,512,2048,1024,8192,2,16,128,2,1024,512,2,2,8192,32,2,1024,8192,128,256,128,128,16,8192
462,20890,-6.73,146.96,Markham River,64,2,2,128,16,16,2,2,2,128,8192,32,2,2,32,4,128,2,512,1024,16,2,8192,8,1024,2,8192,2,128,128,8192,128,2,2,2,16,8192
463,20901,-9.78,-139.08,Marquesas,1024,2,2,128,1024,1024,16,2,2,16,2048,8,2,2,512,2048,1024,2048,2,16,2,2,8192,2048,128,512,8192,8192,128,16,8192,1024,256,128,128,128,1024
464,20923,8.71,167.73,Marshall,4,2,2,16,2,2,2,2,2,16,2048,2,2,2,512,64,128,32,512,128,128,2,8192,512,16,512,2,8192,8192,16,8192,1024,64,1024,1024,128,128
465,20934,14.6,-60.89,Martinique Urban Creole,4,32,2048,16,2,2,8192,128,1024,128,64,2,64,512,512,64,128,2048,2,128,1024,2,8192,512,128,8192,8192,8192,8192,128,8192,16,256,128,128,128,128
466,20945,11.85,14.84,Masa,2048,4,64,128,128,1024,128,1024,1024,1024,64,8,64,8,8192,1024,8192,8192,2,128,128,2,8192,512,1024,512,8192,32,8192,1024,8192,128,64,16,16,16,128
467,20956,-2.65,37.26,Maasai,1024,2,2,8192,1024,8192,2,2,2,8192,8192,8,2,2,512,4096,8192,8192,2,128,8192,8,8192,2048,1024,8192,8192,512,8192,8192,8192,1024,256,8192,8192,16,1024
468,20967,-3.38,36.68,Arusa Masai,1024,2,2,8192,8192,8192,2,2,2,128,64,8,2,2,512,128,8192,8192,2,1024,1024,256,1024,512,1024,8192,8192,512,8192,128,128,1024,1024,1024,16,16,1024
469,20978,-10.95,151.06,Massim,256,4,4,8192,1024,1024,16,2,2,128,8192,8,8,2,2,8,1024,2,2,128,128,8,1024,32,128,512,8192,32,8192,128,8192,1024,8,16,128,128,16
470,20989,-26.18,-58.22,Wichí,4,2,2,16,2,2,2,2,2,8192,64,2,2,2,512,64,1024,2048,16,128,8192,2,8192,2048,16,512,8192,512,128,8192,128,1024,256,16,16,16,1024
471,21033,20.68,-88.2,Yucatan Maya,4,2,2,16,2,2,2,2,2,2,2048,2,2,2,512,64,1024,2,512,128,128,2,8192,32,16,512,8192,8192,8192,2,8192,1024,256,16,16,128,16
472,21044,3.58,28.29,Mayogo,1024,4,32,8192,8192,1024,8192,1024,8192,128,64,8192,64,512,8192,8192,1024,8192,16,1024,1024,8192,8192,512,128,8192,8192,32,128,128,128,1024,1024,128,128,1024,1024
473,21055,18.13,-96.84,Mazateco,4,2,2,16,2,2,2,2,2,128,64,2,2,2,512,64,1024,64,512,16,1024,2,8192,512,16,512,8192,8192,8192,128,8192,1024,8,16,16,128,128
474,21077,-4.16,18.8,Mbala,8192,8192,4096,8192,1024,8192,8192,1024,8192,128,2048,8,64,2048,512,128,8192,8192,16,128,1024,64,8192,2048,1024,8192,8192,8192,8192,128,8192,1024,256,128,16,16,1024
475,21093,-4.64,26.36,Mboko Sawa,4,4096,4,2,2,2,8192,2,2,128,64,2,64,2,512,4096,1024,8192,2,16,128,2,8192,512,16,8192,8192,8192,8192,128,8192,1024,256,128,128,128,128
476,21110,7.75,15.13,Mbum,64,32,4096,8192,8192,8192,8192,8192,8192,8192,64,8,512,2048,8192,4096,1024,8192,2,128,1024,2,8192,2048,1024,8192,8192,8192,8192,8192,8192,128,256,8192,8192,128,8192
477,21132,2.72,30.64,Mbuti,8192,2,2,8192,8192,8192,2,2,2,8192,64,8192,2,2,512,8192,8192,8192,8192,1024,8192,8192,8192,512,1024,8192,8192,512,2,8192,8192,1024,8192,128,1024,1024,1024
478,21170,29.26,0.22,Meherza,8192,8192,8192,8192,128,1024,8192,128,1024,1024,64,8,64,2048,512,8192,8192,2048,2048,16,8192,8192,8192,2048,1024,8192,8192,512,128,1024,8192,1024,64,128,128,16,1024
479,21176,24.66,93.9,Meitei,4,512,4,16,2,2,8192,2,2,16,8192,2,8192,512,512,128,1024,2048,2,128,1024,2,16,512,1024,2,2,32,8192,16,2,128,1024,16,128,1024,128
480,21187,-9.13,147.46,Mekeo,64,4,4,128,1024,128,16,2,2,128,2048,8,8,2,2,2048,128,2048,2,2,128,2,128,32,128,512,8192,512,128,128,8192,128,8,1024,128,128,1024
481,21198,7.86,-11.19,Mende,512,8,32,8192,8192,1024,128,1024,8192,128,64,8,64,512,512,4096,8192,8192,16,128,1024,2,8192,512,1024,8192,8192,512,8192,128,8192,128,256,128,128,128,1024
482,21209,45.01,-88.89,Mamaceqtaw,32,4,4,128,128,128,128,2,2,1024,2048,8,64,2,32,64,1024,2,2,128,8192,2,8192,512,1024,8192,8192,512,8192,1024,8192,1024,256,128,128,128,1024
483,21220,-0.58,101.34,Mentawai,4,2,2,16,2,2,2,2,2,16,8192,2,2,2,512,2048,128,2048,2,128,1024,2,8192,32,128,2,2,512,2,16,128,16,256,128,128,128,16
484,21231,20.06,102.62,Hmong,4,256,128,16,2,2,8192,2,2,16,2048,2,64,2048,512,2,1024,2048,512,128,1024,2,128,2048,16,512,512,512,8192,16,8192,1024,256,16,128,1024,16
485,21242,-19.87,47.02,Merina,64,4,4,8192,8192,1024,8192,8192,2,16,64,8,64,2,512,64,128,8192,2,128,128,256,8192,2048,16,8192,8192,32,128,16,8192,128,256,8192,1024,1024,8192
486,21253,-3.38,36.68,Meru,8192,4,4,8192,1024,1024,16,2,NaN,8192,64,2048,64,8,8192,8192,8192,8192,512,8192,16,8,16,512,1024,8192,8192,32,2,8192,128,1024,8192,128,1024,128,8192
487,21286,41.96,-92.57,Meshkwahkihaki,4,256,4,16,2,2,16,2,2,1024,64,2,8,2,512,64,1024,256,512,128,1024,2,1024,512,1024,512,512,8192,8192,1024,128,1024,1024,128,128,16,1024
488,21288,14.06,-86.86,Honduras,2,NaN,64,NaN,NaN,NaN,8192,8192,1024,NaN,NaN,NaN,2048,8192,NaN,NaN,NaN,NaN,NaN,NaN,NaN,NaN,NaN,NaN,NaN,NaN,8192,NaN,NaN,NaN,NaN,NaN,NaN,NaN,NaN,NaN,NaN
489,21291,17.55,-99.5,Guerrero,64,4,64,8192,8192,8192,8192,8192,8192,2,2048,8,64,128,512,4,128,256,2,128,128,256,8192,512,16,512,512,512,8192,2,8192,128,256,1024,1024,1024,128
490,21319,19.91,99.84,Miao (Thailand),4,2,2,16,2,2,2,2,2,1024,2048,2,2,2,512,128,1024,2048,8192,1024,128,2,1024,2048,128,512,8192,512,128,1024,2,128,8192,16,1024,128,16
491,21341,-5.86,144.76,Kuma,64,512,256,128,1024,1024,128,2,128,8192,2048,8,8,2,512,4096,128,8192,2,16,128,2,8192,32,1024,8192,8192,512,8192,8192,8192,128,1024,8192,1024,16,8192
492,21385,-0.58,101.34,Minangkabau,4,256,4,16,2,2,16,2,2,16,2048,2,2048,2,512,4,1024,2,16,128,16,2,16,8,16,2,2,32,128,16,128,128,8,16,128,128,16
493,21440,12.01,-83.77,Miskito,4,4096,4,16,2,2,8192,2,2,16,64,2,64,2,512,32,8192,8192,2,128,128,2,8192,2048,128,512,8192,512,8192,16,8192,128,64,16,16,128,16
494,21484,17.07,-96.72,Mixtec,4,4,4,16,2,2,8192,2,2,16,2048,2,2048,2,512,2048,16,2048,16,128,128,2,8192,8192,1024,8192,8192,512,8192,16,128,128,64,128,16,16,16
495,21506,12.71,108.23,Mnong,4,2,2,16,2,2,2,2,2,2,8192,2,2,2,512,2,16,2,2,16,16,2,2,2048,16,2,8192,512,2,2,8192,128,8,2,16,1024,16
496,21594,34.15,-114.28,Aha Makhav,4,4,4,16,2,2,16,2,2,1024,2048,2,64,2,512,512,1024,2,16,128,1024,2,8192,512,128,8192,8192,32,8192,1024,8192,128,256,16,16,128,128
497,21647,47.88,106.9,Mongols,4,4,4,16,2,2,16,2,2,2,8192,2,8192,2,512,64,128,2,2,8192,16,2,16,512,1024,8192,8192,32,2,2,2,1024,256,16,1024,16,8192
498,21665,-4.41,140.01,Moni,8192,2,2,8192,128,16,2,2,2,16,8192,8192,2,2,8192,1024,128,2048,512,1024,1024,8192,8192,512,16,2,2,32,128,16,8192,8192,8,128,128,1024,8192
499,21693,49.19,16.6,Moravian,4,8,32,16,2,2,8192,2,2,2,64,2,64,2,512,64,128,512,512,128,128,2,8192,32,128,8192,8192,8192,8192,2,8192,128,1024,1024,128,128,16
500,21704,54.23,44.06,Mordovian,256,2,2,8192,8192,8192,2,2,2,2,64,8,2,2,512,64,1024,256,2048,8192,128,8192,8192,32,1024,8192,8192,8192,128,2,128,8192,1024,16,1024,16,128
501,21737,31.43,-6.93,Moroccan Berbers,256,4,4,128,128,128,128,2,8192,1024,64,8,64,512,512,4096,1024,8192,2,16,16,2,16,2048,8192,8192,8192,32,8192,1024,128,128,2,2,128,16,128
502,21814,10.0,-73.0,Barí,64,2,2,8192,128,8192,2,2,2,1024,2048,8,2,2,512,4096,1024,8192,512,128,8192,1024,8192,512,16,8192,8192,8192,8192,1024,2,128,256,16,16,1024,8192
503,21825,-8.81,146.53,Motu,64,2,2,8192,1024,1024,2,2,2,16,2048,8,2,2,512,2048,16,8192,2,16,128,2,8192,32,16,8192,8192,512,128,16,8192,128,256,16,16,128,128
504,21852,22.81,108.36,Mulam,32,2,2,8192,1024,1024,2,2,2,2,2048,8192,2,2,512,64,16,256,2,128,128,8,1024,512,1024,32,8192,512,2,2,128,128,64,2,128,16,16
505,21869,23.4,85.35,Munda,128,256,32,1024,128,128,8192,128,1024,128,2048,32,2048,512,512,64,128,32,16,128,128,2,128,512,16,512,8192,512,128,128,8192,128,256,16,128,1024,128
506,21891,2.72,30.64,Mundu,64,2,2,8192,1024,1024,2,2,2,2,2048,8,2,2,8192,4,1024,256,16,128,128,64,8192,512,16,512,8192,8192,128,2,8192,1024,256,128,128,128,1024
507,21913,12.71,108.23,Muong,4,2,2,16,2,2,2,2,2,16,8192,2,2,2,512,256,8192,2048,512,16,16,2,16,512,16,2,8192,32,2,16,128,128,8,16,1024,1024,1024
508,21924,19.1,81.95,Muria Gond,64,2,2,128,1024,128,2,2,2,1024,2048,8,2,2,512,4096,16,8192,512,128,1024,2,1024,32,2,32,8192,32,128,1024,8192,128,256,1024,1024,8192,8192
509,21946,-9.91,144.04,Murray Islanders,64,4,4,8192,1024,1024,16,2,2,1024,2048,8,8,2,8192,64,1024,256,2,128,128,8,8192,32,16,8192,8192,32,8192,1024,8192,1024,256,1024,128,1024,1024
510,21951,5.45,36.26,Mursi,2048,512,128,128,1024,1024,2,16,2,16,2048,8,8192,2,512,512,8192,8192,16,128,8192,8192,8192,512,1024,32,2,512,128,16,8192,1024,256,128,128,16,8192
511,21957,0.96,114.55,Nabai Murut,4096,2,2,128,128,128,2,2,2,2,64,8,2,2,512,64,1024,32,2,128,1024,2,1024,512,128,512,8192,512,8192,2,8192,1024,64,16,16,128,128
512,22045,-10.09,-53.3,Mebêngôkre,64,2,2,128,128,1024,2,2,2,128,2048,8,2,2,512,2,1024,2,16,128,1024,2,8192,32,1024,8192,8192,32,8192,128,8192,128,64,16,16,2,1024
513,22056,36.65,117.12,Shandong,1024,2,2,128,1024,2,2,2,2,2,64,8,2,2,512,1024,8192,8192,2,128,128,2,128,32,1024,512,8192,512,128,2,128,1024,8,1024,128,1024,16
514,22060,-5.6,144.12,Madang Unidentified,256,4,64,128,16,16,128,8192,8192,128,64,8,8,8,8192,2048,2,8192,512,128,1024,2,128,512,1024,512,8192,32,128,128,128,2,8,8192,16,2,1024
515,22065,40.97,-8.59,Duoro,256,2,2,8192,1024,1024,2,2,2,2,64,8,2,2,512,4096,128,2048,512,128,128,64,8192,2048,128,32,8192,512,8192,2,8192,128,256,1024,1024,128,16
516,22067,64.7,43.39,Komi,4,2,2,16,2,2,2,2,2,128,2048,2,2,2,512,1024,1024,8192,16,1024,16,2,8192,32,128,512,8192,512,8192,128,128,128,1024,1024,1024,1024,1024
517,22100,26.21,127.72,Naha-shi,4,4,4,16,2,2,16,2,2,128,8192,2,64,2,512,2048,2,2048,512,128,16,2,128,8,16,2,512,512,128,128,8192,1024,256,128,1024,1024,128
518,22133,-4.28,152.92,Namatanai,4,2,2,16,2,2,2,2,2,16,8192,2,2,2,512,32,1024,256,2,128,1024,2,1024,512,16,512,8192,32,128,16,8192,128,256,16,16,1024,128
519,22166,0.2,35.09,Nandi,1024,4,64,8192,8192,8192,128,8192,1024,1024,64,128,8,8,512,16,1024,2048,2,1024,1024,256,1024,512,128,8192,8192,512,2,1024,128,128,1024,128,16,16,1024
520,22188,40.85,14.26,Naples & Coast,4,8192,8192,16,2,2,8192,2,2,2,64,2,64,2,512,8,1024,2,8192,1024,128,2,1024,32,128,512,512,512,128,2,8192,128,256,1024,8192,128,16
521,22215,-9.47,147.2,Nasioi,8192,8192,8192,8192,8192,1024,8192,1024,8192,8192,2048,8192,2048,8192,512,2048,1024,32,16,128,1024,8192,8192,512,1024,8192,8192,8192,2,8192,8192,16,256,128,128,1024,1024
522,22243,36.06,-109.18,Diné (Navaho),64,2,2,128,128,1024,2,2,2,1024,2048,8,2,2,512,8,16,2,2,128,1024,2,1024,512,1024,8192,8192,32,8192,1024,128,128,64,16,16,16,128
523,22248,22.81,108.36,Naxi,2048,2,2,8192,128,128,2,2,2,8192,2048,8192,2,2,512,4096,128,2048,2,128,16,8192,16,512,1024,32,8192,32,2,8192,2,128,256,128,128,16,8192
524,22254,43.27,26.93,N Bulgaria,4,4,32,16,2,2,8192,1024,128,2,8192,2,8192,32,2,32,2,256,2,128,16,2,16,8,128,2,2,2,2,2,8192,128,1024,8192,8192,128,128
525,22276,-20.45,32.71,Ndau,4,4,4,16,2,2,8192,2,2,128,64,2,64,2,8192,128,1024,8192,16,128,1024,2,1024,512,128,8192,8192,32,8192,128,8192,1024,256,16,16,1024,1024
526,22331,3.73,29.7,Ndongo,1024,4096,4096,16,2,2,8192,1024,8192,16,2048,2,64,2048,8192,1024,1024,8192,16,1024,1024,2,1024,512,1024,8192,8192,32,128,16,8192,1024,256,128,8192,16,128
527,22380,-4.51,154.2,Nehan,32,4,64,8192,128,128,128,8192,1024,1024,2048,8,2048,8,512,4096,16,8192,512,1024,1024,64,1024,512,128,8192,8192,512,128,1024,8192,1024,8,1024,1024,128,1024
528,22386,27.71,85.32,Nepalese,64,8,32,128,128,1024,128,8192,8192,2,64,8,64,8,2,2048,128,8192,2,16,128,2,1024,8192,2,8192,8192,512,2,2,8192,128,256,8192,8192,8192,1024
529,22408,17.17,-62.55,St. Kitts and Nevis,1024,2,2,8192,128,1024,2,2,2,128,64,8,2,2,512,2048,128,8192,16,128,128,256,8192,512,128,8192,8192,8192,8192,128,8192,128,256,128,16,128,128
530,22430,24.55,-104.65,New Mexico Folk,4,4,2,16,2,2,8192,2,2,2,64,2,2,2,512,32,1024,2,2,128,128,2,8192,2048,128,8192,8192,32,8192,2,8192,128,256,16,128,128,16
531,22457,53.13,-57.66,Newfoundlander,4,2,2,16,2,2,2,2,2,16,64,2,2,2,512,2048,1024,8192,2,128,128,2,8192,2048,128,512,2,8192,8192,16,8192,128,64,1024,16,128,16
532,22463,-2.57,150.8,New Ireland,4,4,4,16,2,2,16,2,2,16,64,2,64,2,512,2,16,8,2048,1024,128,2,8192,32,16,512,8192,8192,128,16,8192,128,64,128,128,1024,128
533,22573,-14.48,30.71,Ngoni Zulu,256,8192,64,8192,8192,8192,8192,8192,8192,16,2048,8,512,8,8192,128,128,2048,2,1024,128,256,8192,512,1024,8192,8192,32,8192,16,8192,1024,1024,1024,1024,128,1024
534,22617,0.64,97.73,Nias,1024,2,2,8192,1024,8192,2,2,2,128,2048,8192,2,2,512,2048,1024,2048,2,128,128,8192,128,512,1024,512,2,32,128,128,128,128,64,128,128,16,16
535,22639,25.31,82.97,N India Muslim,1024,4,32,128,128,8192,8192,128,1024,2,64,8,64,512,512,512,128,8192,16,128,128,2,16,2048,1024,8192,8192,32,8192,2,8192,128,8,128,16,16,16
536,22672,-19.05,-169.91,Niuean,4096,512,64,1024,128,1024,128,8192,1024,1024,64,8,8192,8,512,512,1024,2048,512,1024,2,2,8192,2048,8192,8192,8192,8192,8192,1024,8192,16,256,1024,16,2,16
537,22705,5.25,-76.82,Waunana,4,256,4,16,2,2,16,2,2,1024,2048,2,64,2,512,128,1024,2048,2,128,1024,2,8192,32,2,512,8192,512,8192,1024,8192,1024,256,16,16,1024,8192
538,22749,49.23,-124.8,Nuu-chah-nulth,256,8,64,128,128,128,128,8192,128,1024,2048,8,8,8,512,64,1024,32,2,16,1024,2,1024,32,1024,512,512,512,8192,1024,128,128,64,16,16,16,1024
539,22754,36.75,3.05,Algeria,4,256,4,2,2,2,16,2,2,16,2048,2,2048,2,512,128,1024,2048,2,16,16,2,128,512,128,8192,8192,32,128,16,128,128,64,16,2,16,128
540,22760,30.08,78.26,Vedanta,4,2,2,16,2,2,2,2,2,8192,8,2,2,2,512,4096,16,2048,2,2,2,2,8192,2048,16,32,2,8192,8192,8192,8192,128,8,1024,128,1024,16
541,22804,58.92,7.72,Norwegian,4,2,2,16,2,2,2,2,2,2,2048,2,2,2,512,64,128,256,16,128,128,2,8192,32,1024,512,8192,8192,8192,2,8192,128,1024,128,8192,128,16
542,22826,44.68,-63.74,Acadien,4,2,2,16,2,2,2,2,2,2,64,2,2,2,512,64,1024,64,16,1024,8192,2,8192,512,128,8192,8192,512,8192,2,8192,1024,64,16,16,128,16
543,22848,-14.48,30.71,Nsenga,256,2,8192,8192,8192,8192,8192,8192,8192,1024,2048,8,64,2048,8192,4,1024,2,16,128,128,2,8192,512,1024,8192,8192,512,8192,1024,8192,128,256,8192,128,1024,1024
544,22861,11.01,29.71,Hjare,4,2,2,16,2,2,2,2,2,16,2048,2,2,2,512,32,1024,512,2,1024,128,2,1024,2048,16,32,8192,512,8192,16,8192,1024,1024,128,1024,1024,1024
545,22863,11.19,29.41,Katch,32,256,256,128,1024,1024,128,128,128,128,2048,8,8192,8,512,256,1024,2048,2,1024,128,2,8192,512,128,8192,512,512,8192,128,8192,1024,256,128,128,1024,1024
546,22865,11.01,29.71,Mirri,32,2,2,1024,1024,1024,2,2,2,16,2048,8,2,2,512,4,1024,8,16,1024,128,2,8192,2048,1024,512,8192,32,8192,16,8192,1024,256,16,128,128,1024
547,22867,12.0,30.75,Salar,256,8,64,128,128,1024,128,8192,8192,1024,64,8,64,128,512,256,8192,2048,2048,128,128,2,1024,512,1024,512,8192,512,8192,1024,8192,128,256,16,128,128,1024
548,22868,10.63,30.38,Talodi,4,2,2,16,2,2,2,2,2,128,2048,2,2,2,512,128,1024,2048,16,1024,128,2,1024,2048,1024,512,8192,512,8192,128,8192,1024,256,16,128,128,1024
549,22870,15.5,32.55,Nuer,4,4,64,16,2,2,128,2,2,128,2048,2,64,2,512,2,128,2,16,1024,1024,2,1024,512,1024,8192,8192,512,8192,128,8192,128,256,128,128,16,1024
550,22881,-4.53,159.42,Nukumanu,64,2,2,8192,1024,8192,2,2,2,2,2048,8,2,2,512,128,1024,256,16,16,128,256,1024,8,16,2,8192,32,8192,2,8192,1024,256,2,1024,128,16
551,22892,-3.15,142.36,Numugenan,4,2,2,16,2,2,2,2,2,128,2048,2,2,2,512,2,1024,2,2,2,128,2,8192,32,16,512,8192,32,128,128,8192,1024,8,2,128,1024,8192
552,22925,40.32,9.32,Barbagia,16,2,2,8192,2,8192,2,2,2,2,64,2,2,2,512,4,1024,2,2,128,128,2,128,32,128,512,8192,512,128,2,8192,128,8,16,128,128,128
553,22980,-5.03,32.81,Nyamwezi,NaN,NaN,4,NaN,NaN,NaN,8192,2,2,NaN,NaN,NaN,64,2,NaN,NaN,NaN,NaN,NaN,NaN,NaN,NaN,NaN,NaN,NaN,NaN,8192,NaN,NaN,NaN,NaN,NaN,NaN,NaN,NaN,NaN,NaN
554,23070,-4.41,140.01,Ok,1024,2,2,1024,1024,128,2,2,2,128,8192,32,2,2,512,2048,1024,2048,2,1024,128,8192,8192,512,128,2,2,32,128,128,8192,1024,256,128,128,128,1024
555,23073,-0.09,11.94,Okande,256,2,2,128,1024,8192,2,2,2,1024,64,8,2,2,512,128,8192,8192,8192,1024,16,2,8192,2048,128,8192,8192,512,8192,1024,8192,1024,256,128,1024,128,128
556,23090,45.09,23.2,Oltenia,4,2,2,16,2,2,2,2,2,2,8192,2,2,2,512,4,1024,2,2,128,128,2,16,32,1024,2,8192,32,128,2,2,128,1024,8192,8192,128,16
557,23112,-54.04,-68.57,Selk'nam,4,2,2,16,2,2,2,2,2,8192,2048,2,2,2,512,2048,1024,8192,2,16,8192,2,8192,512,128,8192,8192,512,8192,8192,128,1024,256,16,16,16,128
558,23123,-5.26,159.35,Ontong Java,64,2,2,8192,8192,8192,2,2,2,16,2048,8,2,2,8192,8,NaN,2,2,128,128,1024,8192,512,1024,8192,8192,8192,8192,16,8192,1024,256,1024,128,128,128
559,23145,21.14,79.08,Kurukh,64,8,32,128,128,1024,8192,128,1024,16,64,8,64,512,512,64,128,2048,2,1024,128,2,1024,512,128,8192,8192,512,128,16,8192,128,64,128,128,128,128
560,23156,-3.74,-73.25,Maijuna,4,2,2,16,2,2,2,2,2,1024,64,2,2,2,512,4096,8192,2048,8192,128,16,2,8192,2048,16,512,8192,512,8192,1024,128,1024,64,16,16,1024,8192
561,23167,20.95,85.09,Oriya,4,2,2,16,2,2,2,2,2,16,2048,2,2,2,512,1024,1024,2048,16,128,16,2,128,512,128,512,8192,512,128,16,8192,128,256,16,128,128,16
562,23189,44.08,144.02,Orok,4,2,2,16,2,2,2,2,2,1024,64,2,2,2,512,4096,1024,8192,512,128,128,2,128,512,128,512,8192,512,128,1024,2,128,64,16,128,128,128
563,23200,-9.44,147.18,Orokaiva,256,2,2,128,1024,1024,2,2,2,128,2048,8,2,2,8192,2048,128,2048,2,16,1024,2,1024,32,1024,32,8192,32,128,128,8192,128,64,1024,1024,128,1024
564,23202,-9.47,147.2,Orokolo,2048,2,2,8192,1024,1024,2,2,2,128,2048,8,2,2,512,2048,128,2048,512,1024,16,2,128,32,16,8192,2,32,128,128,8192,1024,256,16,1024,1024,1024
565,23205,51.72,126.66,Oroqen,4,2,2,16,2,2,2,2,2,1024,2048,2,2,2,512,4096,128,8192,512,128,128,2,16,32,16,512,8192,8192,128,1024,128,1024,64,16,128,8192,8192
566,23211,43.02,44.66,Ossetia,32,2,2,8192,1024,8192,2,2,2,16,2048,128,2,2,8192,2048,128,8192,2,1024,128,8,1024,8,1024,2,8192,32,128,16,8192,128,1024,128,1024,16,16
567,23233,0.35,-78.12,Otavalo,4,4,4,16,2,2,16,2,2,1024,2048,2,8,2,2,4,2,2,16,16,1024,2,1024,2048,16,8192,8192,32,8192,1024,128,8192,256,16,16,128,16
568,23255,20.4,-98.2,Otomi,4,2,2,16,2,2,2,2,2,16,2048,2,2,2,512,2048,128,2048,2,128,1024,2,8192,512,16,512,8192,8192,8192,16,8192,128,256,128,1024,1024,16
569,23288,4.97,-54.43,Wayana,4,2,2,16,2,2,2,2,2,1024,64,2,2,2,512,1024,1024,2048,2,16,1024,2,8192,512,16,8192,8192,512,8192,1024,128,1024,64,16,16,128,1024
570,23343,22.99,120.22,Paiwan,256,2,2,8192,1024,1024,2,2,2,128,2048,8,2,2,512,64,128,8192,2,16,128,8,1024,512,128,512,8192,512,128,128,8192,128,64,16,8192,128,128
571,23350,33.68,73.04,Pakistani Classical,4,256,128,16,2,2,8192,128,128,16,8192,2,8192,128,512,2,2,2,512,8192,16,2,2,8,1024,2,2,32,2,16,128,128,8,16,1024,1024,16
572,23354,7.51,134.58,Palau,4,2,2,8192,8192,8192,2,2,2,2,8192,8,2,2,512,2,128,8192,16,16,128,8,8192,8,1024,2,8192,512,8192,2,8192,128,1024,128,128,128,16
573,23370,9.83,118.73,Palawan,4,8192,2048,16,2,2,8192,128,1024,16,2048,2,2048,8192,512,2048,1024,2048,2,16,16,2,1024,32,16,512,512,32,128,16,8192,128,8,16,128,1024,1024
574,23420,31.91,-111.08,Tohono O’odham,64,2,4,128,1024,1024,16,2,2,128,2048,8,2,2,512,64,128,256,512,128,1024,2,8192,32,128,8192,8192,512,128,128,8192,1024,64,16,16,128,1024
575,23425,18.85,82.73,Paroja,32,8,8192,1024,128,1024,8192,8192,8192,128,64,8,64,2048,8192,2048,1024,8192,16,128,128,2,128,2048,1024,8192,8192,512,128,128,8192,1024,8,16,128,16,128
576,23464,5.04,32.45,Pari,256,2,2,128,1024,1024,2,2,2,128,2048,8,2,2,512,64,1024,32,16,1024,1024,2,1024,512,1024,8192,8192,512,8192,128,8192,1024,256,128,128,16,1024
577,23497,36.68,69.11,Pashtun,4,8,32,128,2,2,1024,128,8192,16,64,8,64,128,512,8,1024,8192,2,128,16,2,16,512,128,8192,8192,512,8192,16,128,16,8,16,128,128,16
578,23519,36.7,-97.08,Chahiksichahiks,4,4,4,16,2,2,16,2,2,128,2048,2,8,2,32,64,1024,256,2,128,1024,2,128,32,1024,8192,8192,512,128,128,128,128,256,16,16,2,128
579,23563,-5.11,18.42,Pende,256,4,64,128,1024,8192,128,8192,1024,2,512,8,512,8,512,4096,8192,2048,16,16,1024,2,8192,8192,1024,8192,8192,8192,8192,2,8192,128,256,128,16,16,128
580,23607,-13.53,-71.96,N Peruvian Quechua,NaN,NaN,32,NaN,NaN,NaN,128,128,1024,NaN,NaN,NaN,64,128,NaN,NaN,NaN,NaN,NaN,NaN,NaN,NaN,NaN,NaN,NaN,NaN,8192,NaN,NaN,NaN,NaN,NaN,NaN,NaN,NaN,NaN,NaN
581,23612,-1.87,103.25,Petalangan,16,2,2,16,2,2,2,2,2,2,8192,2,2,2,512,1024,1024,2,16,16,16,2,16,32,128,2,2,512,2,2,128,128,8,16,16,1024,16
582,23618,6.0,121.0,Sulu,4,4,4,16,2,2,16,2,2,2,64,2,64,2,512,1024,8192,8192,512,16,128,2,8192,512,128,8192,8192,32,8192,2,8192,128,64,128,8192,128,16
583,23640,4.03,-67.55,Piaroa,2048,512,256,128,16,128,128,128,16,1024,64,8,64,128,512,4096,128,8192,512,16,16,2,8192,32,128,512,2,32,2,1024,8192,1024,64,16,2,8192,8192
584,23662,45.73,7.42,Cuneo,64,2,2,8192,1024,1024,2,2,2,16,64,8,2,2,512,64,128,8192,2,128,128,2,8192,512,128,8192,8192,8192,8192,16,8192,128,64,1024,128,128,128
585,23684,-26.18,-58.22,Pilagá,4,256,4,16,2,2,16,2,2,8192,64,2,64,2,32,64,1024,8,2,1024,1024,2,1024,8,2,32,8192,32,2,8192,128,8192,256,16,16,8192,8192
586,23695,33.27,-112.16,Akimel O'odham,64,4,4,128,2,1024,16,2,2,128,2048,8,64,2,512,64,128,2,512,128,1024,2,1024,32,16,8192,8192,512,8192,128,8192,128,64,16,16,1024,128
587,23728,33.27,-112.16,Amangu,64,8,64,16,2,2,128,2,1024,1024,2048,8,8,8,512,2048,16,8192,2,16,16,2,1024,512,16,8192,8192,32,8192,1024,8192,1024,256,16,16,1024,128
588,23755,-9.47,147.2,Piva,4096,8,64,8192,1024,8192,128,8192,8192,8192,512,8192,8,8,8192,8192,128,8192,8192,128,1024,8192,8192,512,1024,8192,8192,8192,128,8192,8192,16,8,128,1024,16,1024
589,23827,49.68,21.76,C Polish Folk,4,2,64,8192,2,1024,8192,1024,128,2,64,8,64,128,512,64,1024,256,2,128,128,1024,8192,512,128,8192,512,8192,8192,2,8192,128,256,1024,1024,128,16
590,23849,38.95,-122.62,Eastern Pomo,4,256,4,16,2,2,16,2,2,1024,2048,2,8,2,512,256,1024,8192,2,16,1024,2,1024,512,16,8192,8192,8192,8192,1024,128,128,64,16,16,128,128
591,23882,-31.36,29.56,Pondo Xhosa,4,4096,4,16,2,2,8192,2,2,128,64,2,64,2,8192,128,1024,8192,2,128,1024,2,8192,2048,128,8192,8192,32,2,128,8192,8192,64,16,16,128,1024
592,23904,19.17,-96.13,Popoluca,128,2,2,8192,16,128,2,2,2,2,2048,8,2,2,512,64,1024,256,2048,128,128,256,8192,32,128,512,8192,512,128,2,8192,128,64,128,128,128,16
593,23915,37.01,-7.93,Algarve,4,2,2,16,2,2,2,2,2,2,2048,2,2,2,512,64,128,512,2,128,128,2,1024,32,16,512,8192,512,128,2,8192,128,1024,128,1024,1024,128
594,23926,15.29,74.12,Portuguese Goa,512,4,64,8192,128,8192,8192,1024,8192,16,64,8,64,128,512,8,1024,2,512,128,128,1024,8192,512,128,8192,8192,512,128,16,8192,128,256,8192,1024,1024,128
595,23970,18.46,-66.1,Jibaro/ Boriqua,4,32,32,8192,128,2,8192,1024,8192,2,64,8,64,128,512,8,8192,8192,2,1024,1024,2,8192,512,128,8192,8192,512,8192,2,8192,128,64,16,16,128,128
596,23981,-10.85,-165.83,Pukapuka,4096,2,2,8192,1024,8192,2,2,2,16,2048,8,2,2,512,8,8192,2048,512,1024,128,256,8192,2048,8192,8192,8192,8192,8192,16,8192,1024,256,128,128,2,16
597,23997,26.85,100.22,Pumí,4,2,2,16,2,2,2,2,2,128,2048,2,2,2,512,2048,16,2048,16,1024,128,2,128,512,1024,32,8192,32,2,128,128,128,64,128,1024,128,128
598,24014,29.06,76.04,Punjab,4,256,128,16,2,2,1024,128,8192,2,64,2,64,32,512,2,128,2,2,1024,16,2,16,512,16,8192,8192,32,128,2,128,128,256,128,1024,128,16
599,24025,-6.31,143.95,Purari,32,8,64,8192,128,128,8192,2,2,1024,8192,8,8,2,512,1024,1024,2048,2,16,128,8,8192,512,128,2,8192,512,128,1024,8192,128,8,16,16,16,1024
600,24052,38.85,-104.91,Kha'po Owingeh (Tewa),4,256,4,16,2,2,16,2,2,128,2048,2,64,2,32,16,16,2,2,1024,1024,2,128,2048,128,8192,8192,512,128,128,128,1024,64,128,128,16,8192
601,24069,19.3,97.96,Pwo Karen,64,2,2,128,128,16,2,2,2,2,2048,8,2,2,512,2048,128,2048,512,128,1024,2,128,8,128,2,8192,32,2,2,8192,128,8,2,16,1024,1024
602,24091,-13.53,-71.96,S Peruvian Quechua,64,256,4,128,128,128,16,2,2,128,2048,32,2048,2,512,4096,1024,8192,2,16,1024,2,8192,32,16,512,8192,8192,8192,128,8192,128,64,16,16,1024,1024
603,24102,-13.41,-72.2,Ch'unchu,64,4,64,16,2,2,8192,128,1024,128,2048,8,64,128,512,64,1024,2,512,1024,1024,2,8192,512,128,512,8192,8192,8192,128,8192,128,64,1024,1024,1024,128
