,Preferred_name,soc_id,line_1,line_2,line_3,line_4,line_5,line_6,line_7,line_8,line_9,line_10,line_11,line_12,line_13,line_14,line_15,line_16,line_17,line_18,line_19,line_20,line_21,line_22,line_23,line_24,line_25,line_26,line_27,line_28,line_29,line_30,line_31,line_32,line_33,line_34,line_35,line_36,line_37,lat,lng
0,'Are'are,10000,0.65,0.08,0.08,1.0,0.54,0.77,0.08,0.08,0.08,0.54,0.46,1.0,0.08,0.08,0.69,0.38,0.54,0.69,0.08,0.77,1.0,1.0,1.0,0.69,0.08,0.69,1.0,0.38,0.08,0.54,1.0,0.54,0.62,0.54,1.0,1.0,0.77,-9.0,161.0
1,A:shiwi (Zuni),29371,0.46,0.15,0.46,0.54,0.77,1.0,0.54,0.08,0.08,0.77,0.85,0.23,0.23,0.23,0.69,0.08,0.31,0.08,0.08,0.77,0.77,0.08,0.77,0.69,0.31,1.0,1.0,0.69,1.0,0.77,1.0,0.77,0.62,0.54,0.54,0.77,0.54,35.06,-108.84
2,A·chik Mande,15709,0.15,0.23,0.92,0.31,0.08,0.08,1.0,0.08,0.08,0.31,0.85,0.08,0.46,0.08,0.69,0.46,0.77,0.85,0.08,0.54,0.54,0.08,1.0,0.69,0.31,0.69,0.69,0.38,0.54,0.31,1.0,0.54,0.23,0.31,0.31,0.54,0.31,24.68,90.09
3,Aari,30016,1.0,0.23,0.46,1.0,1.0,1.0,0.54,1.0,1.0,0.77,0.69,1.0,0.69,0.23,1.0,1.0,1.0,1.0,0.08,1.0,0.54,1.0,1.0,0.85,0.54,1.0,1.0,1.0,1.0,0.77,1.0,0.54,0.77,1.0,1.0,1.0,1.0,5.78,36.57
4,Abaluhya,10027,0.62,0.15,0.85,0.54,0.54,0.77,1.0,0.54,1.0,0.54,0.85,0.23,0.46,0.85,0.69,0.23,0.77,0.08,0.31,0.54,0.54,0.08,1.0,0.85,0.54,1.0,1.0,1.0,1.0,0.54,1.0,0.54,0.62,1.0,0.77,0.77,0.77,-1.29,36.82
5,Abelam,10033,0.46,0.08,0.08,0.54,0.54,0.77,0.08,0.08,0.08,0.54,1.0,0.23,0.08,0.08,0.69,0.08,0.08,0.08,0.08,0.54,0.77,0.08,1.0,0.08,0.77,0.08,1.0,0.08,1.0,0.54,1.0,0.31,0.46,0.77,0.31,0.77,1.0,-5.55,150.14
6,Aberdeen,25071,0.15,0.08,0.08,0.31,0.08,0.08,0.08,0.08,0.08,0.08,0.46,0.08,0.08,0.08,0.69,0.46,0.54,0.46,0.69,0.54,0.54,0.08,1.0,0.69,0.54,0.69,0.08,1.0,1.0,0.08,1.0,0.54,0.46,0.54,0.31,0.77,0.31,57.14,-2.09
7,Abkhazia,10055,0.69,0.23,0.46,1.0,1.0,1.0,0.54,1.0,1.0,0.54,0.46,0.23,0.23,0.23,0.69,0.77,1.0,0.85,0.31,0.77,0.54,0.77,0.77,0.69,0.77,1.0,1.0,0.69,0.54,0.54,1.0,0.77,0.77,1.0,0.54,0.31,0.31,43.0,41.02
8,Acadien,22826,0.15,0.08,0.08,0.31,0.08,0.08,0.08,0.08,0.08,0.08,0.46,0.08,0.08,0.08,0.69,0.46,0.77,0.46,0.31,0.77,0.77,0.08,1.0,0.69,0.54,1.0,1.0,0.69,1.0,0.08,1.0,0.77,0.46,0.31,0.31,0.54,0.31,44.68,-63.74
9,Acoli,10099,0.85,1.0,0.38,0.54,0.77,1.0,1.0,0.77,1.0,0.77,0.85,0.23,0.46,0.85,0.69,0.77,0.54,1.0,0.08,0.77,0.77,0.08,1.0,0.85,0.54,1.0,1.0,0.69,0.54,0.77,1.0,0.54,0.62,0.54,0.54,0.54,0.77,2.95,32.93
10,Adamawa Fulani,30045,0.62,0.08,0.08,0.54,0.54,0.77,0.08,0.08,0.08,0.31,0.46,0.23,0.08,0.08,0.69,0.85,0.31,1.0,0.31,0.31,0.77,0.08,1.0,0.38,0.54,1.0,1.0,1.0,1.0,0.31,1.0,0.54,0.23,0.54,1.0,0.31,0.77,10.52,14.6
11,Adi,10077,0.62,0.15,0.46,1.0,0.77,0.77,0.54,0.08,0.77,0.31,0.46,0.23,0.23,0.23,0.69,0.77,0.77,1.0,0.08,0.54,0.77,0.08,0.31,0.38,0.54,1.0,1.0,0.38,0.54,0.31,1.0,0.77,0.35,0.31,0.54,0.54,0.54,28.21,95.53
12,Adjari,15798,0.9,0.08,0.08,1.0,0.77,1.0,0.08,0.08,0.08,0.77,0.46,1.0,0.08,0.08,0.69,0.77,0.31,1.0,0.31,0.54,0.54,1.0,1.0,0.69,1.0,1.0,0.08,0.69,1.0,0.77,1.0,1.0,0.62,0.31,0.31,0.08,0.31,39.78,30.52
13,Adouma,14807,0.85,0.08,0.08,1.0,1.0,1.0,0.08,0.08,0.08,0.31,0.85,0.23,0.08,0.08,0.69,0.54,0.54,0.85,0.08,0.31,0.54,0.62,0.77,0.69,0.54,0.38,1.0,0.38,0.54,0.31,0.54,0.54,0.62,0.54,0.31,0.54,0.54,-0.76,12.84
14,Adzera,10140,0.46,0.23,0.46,0.54,0.54,0.54,0.54,0.54,0.54,0.77,0.85,0.23,0.23,0.23,0.69,0.46,0.77,0.62,0.31,0.54,0.31,0.08,1.0,0.38,0.54,1.0,1.0,0.38,0.54,0.77,1.0,0.54,0.62,0.31,0.31,0.31,1.0,-6.8,146.56
15,Afar,10143,0.77,0.23,0.46,0.54,0.77,0.77,0.54,1.0,0.77,0.54,0.46,0.23,0.23,0.23,0.69,0.92,1.0,1.0,0.08,0.54,0.77,0.08,0.54,0.69,0.54,1.0,1.0,0.69,0.54,0.54,0.54,0.77,0.62,0.31,0.42,0.54,0.77,11.75,40.95
16,Afridi,10176,0.15,0.62,0.54,0.31,0.08,0.08,0.54,0.31,0.54,0.08,1.0,0.08,0.85,0.54,0.08,0.38,0.08,0.62,0.08,0.54,0.54,0.08,0.54,0.23,0.77,0.08,0.08,0.08,0.54,0.08,1.0,0.08,0.08,0.08,0.31,0.54,0.31,34.01,71.52
17,Afro-Cuban,14180,0.0,0.0,0.0,0.0,0.0,0.0,0.0,0.0,0.0,0.0,0.0,0.0,0.0,0.0,0.0,0.0,0.0,0.0,0.0,0.0,0.0,0.0,0.0,0.0,0.0,0.0,0.0,0.0,0.0,0.0,0.0,0.0,0.0,0.0,0.0,0.0,0.0,23.1,-82.24
18,Aha Makhav,21594,0.15,0.15,0.15,0.31,0.08,0.08,0.31,0.08,0.08,0.77,0.85,0.08,0.46,0.08,0.69,0.69,0.77,0.08,0.31,0.31,0.77,0.08,1.0,0.69,0.54,1.0,1.0,0.38,1.0,0.77,0.54,0.54,0.62,0.31,0.31,0.54,0.54,34.15,-114.28
19,Ahtna,10979,0.38,0.15,0.15,0.54,0.31,0.54,0.31,1.0,0.77,0.54,0.46,0.23,0.23,0.23,0.69,0.46,0.77,0.23,0.08,0.54,0.77,0.08,0.77,0.38,0.54,1.0,1.0,0.69,1.0,0.54,0.54,0.77,0.62,0.54,0.54,0.31,0.77,61.95,-145.3
20,Aitape,10220,0.15,0.08,0.08,0.31,0.08,0.08,0.08,0.08,0.08,0.54,0.85,0.08,0.08,0.08,0.69,0.85,0.77,0.85,0.08,0.31,0.77,0.08,0.54,0.23,0.31,0.38,1.0,0.69,0.54,0.54,1.0,0.77,0.62,0.54,0.54,1.0,1.0,-3.15,142.36
21,Ajie,10231,0.88,0.08,0.08,1.0,0.77,1.0,1.0,0.08,0.08,0.77,0.46,1.0,0.08,0.08,0.69,0.85,1.0,1.0,1.0,1.0,0.54,0.08,1.0,0.85,0.77,0.69,0.08,1.0,1.0,0.77,1.0,0.77,0.62,0.54,0.54,0.54,0.54,-20.68,164.94
22,Ajuran,10247,0.62,0.23,0.46,0.77,0.54,0.54,0.54,1.0,0.31,1.0,0.46,0.23,0.23,0.23,0.69,0.85,1.0,1.0,0.08,0.31,0.54,0.08,1.0,0.85,0.77,1.0,1.0,0.38,0.54,1.0,0.54,0.54,0.62,0.54,0.31,0.31,0.31,7.0,43.0
23,Akimel O'odham,23695,0.46,0.15,0.15,0.54,0.08,0.77,0.31,0.08,0.08,0.54,0.85,0.23,0.23,0.08,0.69,0.46,0.77,0.08,0.69,0.54,0.77,0.08,0.77,0.38,0.31,1.0,1.0,0.69,1.0,0.54,1.0,0.54,0.46,0.31,0.31,0.77,0.54,33.27,-112.16
24,Al-Buainain,11377,0.15,0.08,0.15,0.31,0.08,0.08,0.31,0.08,0.08,0.54,0.46,0.08,0.46,0.08,0.69,0.54,1.0,0.85,0.31,0.31,0.77,0.08,0.54,0.69,0.31,1.0,0.08,1.0,0.54,0.54,0.54,0.54,0.46,0.31,0.31,0.31,0.77,26.25,50.6
25,Al-Muwaḥḥidūn,14785,0.54,0.08,0.08,0.54,0.31,0.77,0.08,0.08,0.08,0.08,0.46,0.23,0.08,0.08,0.69,0.85,0.08,0.08,0.08,0.31,0.31,0.08,0.08,0.69,0.77,0.08,1.0,0.69,0.54,0.08,0.54,0.54,0.23,0.08,0.54,0.31,0.08,31.8,35.1
26,Alabama Black,62423,0.15,0.08,0.08,0.31,0.08,0.08,0.08,0.08,0.08,0.31,0.46,0.08,0.08,0.08,0.38,0.38,0.77,0.38,0.08,0.77,0.77,0.08,0.54,0.38,0.31,0.38,0.08,0.38,0.54,0.31,1.0,0.54,0.77,0.54,0.54,0.54,0.31,32.58,-88.18
27,Alabama White,62470,0.15,0.08,0.08,1.0,0.77,0.77,0.08,0.08,0.08,0.31,0.46,0.08,0.08,0.08,0.69,0.46,0.54,0.23,0.85,1.0,0.54,0.08,1.0,0.38,0.77,0.69,1.0,0.38,0.54,0.31,1.0,0.77,0.62,0.77,0.31,0.54,0.77,33.14,-86.4
28,Algarve,23915,0.15,0.08,0.08,0.31,0.08,0.08,0.08,0.08,0.08,0.08,0.85,0.08,0.08,0.08,0.69,0.46,0.54,0.38,0.08,0.54,0.54,0.08,0.77,0.38,0.31,0.38,1.0,0.69,0.54,0.08,1.0,0.54,0.62,0.54,0.77,0.54,0.54,37.01,-7.93
29,Algeria,22754,0.15,0.62,0.15,0.08,0.08,0.08,0.31,0.08,0.08,0.31,0.85,0.08,0.85,0.08,0.69,0.54,0.77,0.85,0.08,0.31,0.31,0.08,0.54,0.69,0.54,1.0,1.0,0.38,0.54,0.31,0.54,0.54,0.46,0.31,0.08,0.31,0.54,36.75,3.05
30,Alpine Swiss,10374,0.15,0.08,0.08,1.0,0.54,0.77,0.08,0.08,0.08,0.08,0.46,0.23,0.08,0.08,0.69,0.46,0.31,1.0,0.69,0.54,0.54,0.08,1.0,0.23,0.31,0.38,1.0,0.08,0.54,0.08,1.0,0.54,0.62,1.0,1.0,0.77,0.54,46.62,8.04
31,Alur,10396,0.15,0.62,0.92,0.31,0.08,0.08,1.0,1.0,1.0,0.08,0.85,0.08,0.46,0.85,1.0,0.77,1.0,1.0,0.08,0.31,0.54,0.08,1.0,0.38,0.31,0.69,1.0,0.38,1.0,0.08,1.0,0.31,0.62,0.54,0.54,0.77,0.54,3.03,29.54
32,Amahuaca,10407,0.62,0.08,0.08,1.0,0.54,0.31,0.08,0.08,0.08,0.77,0.85,0.38,0.08,0.08,0.69,0.85,0.77,1.0,0.08,0.31,0.31,1.0,1.0,0.38,0.54,0.69,1.0,0.38,0.08,0.77,0.54,0.54,0.62,0.31,0.31,0.31,0.77,-9.82,-73.08
33,Amami,10418,0.15,0.15,0.15,0.31,0.08,0.08,1.0,0.08,0.08,0.08,0.46,0.08,0.46,0.08,0.69,0.08,0.42,0.08,0.08,0.77,0.31,0.08,0.54,0.38,0.54,1.0,1.0,0.38,0.08,0.08,0.54,0.77,0.08,0.08,0.54,0.77,0.77,27.7,128.82
34,Amangu,23728,0.15,0.23,0.46,0.31,0.08,0.08,0.54,0.08,0.77,0.77,0.85,0.08,0.23,0.23,0.38,0.85,0.31,1.0,0.08,0.31,0.31,0.08,0.77,0.38,0.31,1.0,1.0,0.38,1.0,0.77,1.0,0.77,0.62,0.42,0.31,0.77,0.54,27.7,128.82
35,Amdo,10451,0.0,0.0,0.0,0.0,0.0,0.0,0.0,0.0,0.0,0.0,0.0,0.0,0.0,0.0,0.0,0.0,0.0,0.0,0.0,0.0,0.0,0.0,0.0,0.0,0.0,0.0,0.0,0.0,0.0,0.0,0.0,0.0,0.0,0.0,0.0,0.0,0.0,36.06,103.83
36,Amhara,10495,0.15,0.23,0.38,0.31,0.08,0.08,1.0,0.54,0.77,0.54,0.46,0.08,0.46,0.54,0.69,0.62,0.54,0.08,0.31,0.54,0.31,0.08,0.31,0.69,0.77,1.0,1.0,0.69,0.54,0.54,0.54,0.31,0.23,0.31,0.31,0.54,0.31,14.03,38.31
37,Ami,10506,0.62,0.08,0.08,0.54,0.77,1.0,0.08,0.08,0.08,1.0,0.85,0.23,0.08,0.08,0.69,0.46,0.31,0.85,0.08,0.77,0.77,0.08,1.0,0.69,0.77,1.0,1.0,0.69,0.54,1.0,1.0,0.42,0.62,0.54,1.0,0.31,0.77,23.98,121.6
38,Anadysky Chukchi,15148,0.15,0.15,0.15,0.31,0.08,0.08,0.31,0.08,0.08,0.77,0.69,0.08,0.77,0.08,0.69,0.38,0.77,0.23,0.31,0.54,0.77,0.08,1.0,0.69,0.54,1.0,1.0,0.38,1.0,0.77,1.0,0.54,0.46,0.31,0.31,0.77,0.77,65.62,171.69
39,Anaguta,10528,0.15,0.15,0.15,0.31,0.08,0.08,1.0,0.08,1.0,0.54,0.46,0.08,0.46,0.08,0.85,0.85,0.77,1.0,0.08,0.54,0.54,0.08,1.0,0.85,0.0,0.69,1.0,0.69,1.0,0.54,1.0,0.54,0.62,0.0,0.0,0.77,1.0,9.89,8.85
40,Andh,10594,0.46,0.08,0.08,1.0,0.31,0.42,0.08,0.08,0.08,0.31,0.85,0.23,0.08,0.08,0.69,0.46,0.54,0.08,0.31,0.54,0.54,0.46,0.54,0.69,0.54,0.69,1.0,0.69,0.54,0.31,1.0,0.54,0.62,0.54,0.77,0.54,0.77,19.63,78.05
41,Andhra Pradesh,17183,0.15,0.15,0.38,0.31,0.08,0.08,1.0,0.54,1.0,0.08,0.46,0.08,0.46,0.69,0.69,0.08,0.54,0.08,0.08,0.77,0.31,0.08,0.08,0.69,0.31,1.0,1.0,0.38,0.08,0.08,1.0,0.77,0.46,0.08,0.31,0.54,0.31,15.91,79.74
42,Andros,10605,0.38,0.08,0.08,1.0,0.77,0.77,0.08,0.08,0.08,0.08,0.46,1.0,0.08,0.08,0.69,0.31,0.54,0.38,0.69,0.77,0.54,1.0,1.0,0.38,0.77,1.0,1.0,0.69,1.0,0.08,1.0,1.0,0.62,0.31,0.31,0.54,0.31,24.7,-78.01
43,Anga,16517,0.85,0.08,0.08,1.0,0.42,0.31,0.08,0.08,0.08,0.54,0.85,1.0,0.08,0.08,0.69,0.77,0.77,0.85,0.31,0.31,0.54,0.23,0.77,0.69,0.54,0.38,0.08,0.69,0.08,0.54,0.54,0.54,0.46,0.31,0.31,0.31,0.77,-6.8,146.56
44,Angami Naga,10627,0.0,0.0,0.0,0.0,0.0,0.0,0.0,0.0,0.0,0.0,0.0,0.0,0.0,0.0,0.0,0.0,0.0,0.0,0.0,0.0,0.0,0.0,0.0,0.0,0.0,0.0,0.0,0.0,0.0,0.0,0.0,0.0,0.0,0.0,0.0,0.0,0.0,26.2,92.93
45,Angas,10649,0.15,0.62,0.15,0.31,0.08,0.08,0.31,0.08,0.08,0.77,0.46,0.08,1.0,0.08,0.85,0.92,0.77,1.0,0.08,0.31,1.0,0.08,0.77,0.69,0.77,1.0,1.0,1.0,1.0,0.77,1.0,0.42,0.62,0.42,0.31,0.31,0.77,9.89,8.85
46,Anguilla,10671,0.77,0.23,0.46,1.0,0.77,0.77,0.54,0.54,0.08,0.77,0.46,0.23,0.23,0.08,0.69,0.92,1.0,1.0,0.69,0.31,0.77,0.08,1.0,0.69,0.54,1.0,1.0,1.0,1.0,0.77,1.0,0.54,0.62,0.77,0.54,0.31,0.54,18.21,-62.98
47,Ankole,10682,0.77,0.08,0.08,1.0,1.0,1.0,0.08,0.08,0.08,0.54,0.46,0.23,0.08,0.08,0.69,0.46,0.54,0.46,0.08,0.54,0.54,0.77,1.0,0.38,0.31,1.0,1.0,0.69,1.0,0.54,1.0,0.77,0.62,0.77,0.54,0.54,0.54,-0.49,30.49
48,Antankarana,10445,0.92,0.23,0.46,1.0,0.77,1.0,0.54,0.77,0.77,0.77,0.46,1.0,0.46,0.23,0.08,0.62,0.54,0.92,0.31,0.54,0.54,0.81,1.0,0.85,0.77,1.0,1.0,0.69,0.54,0.77,1.0,0.77,0.46,0.31,0.31,0.77,0.77,-13.2,49.05
49,Appalachia,18349,0.15,0.08,0.08,0.31,0.08,0.08,1.0,0.08,0.08,0.08,0.46,0.08,0.46,0.08,0.69,0.46,0.54,0.46,0.69,0.54,0.54,0.08,0.77,0.38,0.54,1.0,1.0,0.69,0.54,0.08,1.0,0.54,0.46,0.31,0.31,0.54,0.31,37.09,-82.34
50,Aragon,26027,0.15,0.23,0.46,0.31,0.08,0.08,1.0,0.77,1.0,0.08,0.46,0.08,0.46,0.54,0.08,0.38,0.31,0.23,0.08,0.54,0.54,0.08,0.54,0.23,0.77,0.08,1.0,0.69,0.54,0.08,1.0,0.54,0.62,0.54,0.77,0.54,0.31,40.97,-0.44
51,Aran Islands,50245,0.15,1.0,0.85,0.08,0.08,0.08,1.0,0.77,0.31,1.0,0.46,0.08,0.46,0.69,0.69,0.85,1.0,0.46,0.69,0.77,0.54,0.08,0.77,0.85,0.54,1.0,1.0,1.0,1.0,1.0,0.54,0.77,1.0,0.54,0.31,0.54,0.31,53.14,-9.77
52,Arawe,10825,0.15,0.08,0.08,0.31,0.08,0.08,0.08,0.08,0.08,0.54,0.46,0.08,0.08,0.08,0.69,0.85,0.54,0.85,0.69,0.54,0.77,0.08,0.77,0.69,0.31,0.69,1.0,1.0,0.54,0.54,1.0,0.54,0.62,0.31,0.31,0.77,0.31,-6.16,149.01
53,Arbëreshë,30046,0.38,0.08,0.08,1.0,0.54,0.54,0.08,0.08,0.08,0.31,1.0,1.0,0.08,0.08,0.08,0.0,0.31,0.0,0.08,0.77,0.54,0.23,0.77,0.23,0.77,0.08,1.0,0.38,0.08,0.31,0.54,0.42,0.46,0.77,0.77,0.54,1.0,39.83,16.26
54,Argentina Unspecified,62489,0.92,0.62,0.54,1.0,0.54,0.77,0.77,0.54,0.31,0.77,0.46,0.38,0.46,0.38,0.69,0.92,0.77,1.0,0.08,0.31,0.77,0.23,1.0,0.85,0.77,0.69,0.69,0.69,1.0,0.77,1.0,0.42,0.77,0.77,0.77,0.54,0.77,-38.95,-68.05
55,Arges,10858,0.15,0.08,0.08,0.31,0.08,0.08,0.08,0.08,0.08,0.08,1.0,0.08,0.08,0.08,0.69,0.46,0.77,0.08,0.31,0.54,0.54,0.08,0.31,0.23,0.54,0.08,1.0,0.69,0.54,0.08,0.54,0.77,0.77,0.77,0.77,0.77,0.54,44.43,24.37
56,Armenia,10885,0.08,0.0,0.0,0.0,0.0,0.0,0.0,0.0,0.0,0.0,0.0,0.0,0.0,0.0,0.0,0.0,0.0,0.0,0.0,0.0,0.0,0.0,0.0,0.0,0.0,0.0,0.0,0.0,0.0,0.0,0.0,0.0,0.0,0.0,0.0,0.0,0.0,40.18,44.51
57,Aromanian,10902,0.88,0.08,0.08,1.0,0.54,0.31,0.08,0.08,0.08,0.31,0.85,1.0,0.08,0.08,0.69,0.77,0.31,1.0,0.08,0.54,0.54,1.0,0.31,0.69,0.77,0.69,0.08,0.38,0.54,0.31,0.54,0.77,0.46,0.54,0.54,0.31,0.31,43.81,28.21
58,Arsi,10929,0.15,0.08,0.08,0.31,0.08,0.08,0.08,0.08,0.08,0.54,0.85,0.08,0.08,0.08,0.69,0.77,0.54,0.85,0.08,0.54,1.0,0.08,0.77,0.85,0.77,0.69,0.08,0.69,0.08,0.54,0.08,0.77,0.62,0.54,0.31,0.54,0.31,7.93,39.65
59,Aru,10891,0.62,0.69,0.46,0.54,0.31,0.31,0.54,0.54,0.77,0.08,1.0,0.23,0.46,0.23,0.69,0.38,0.54,0.62,0.08,0.31,0.77,0.08,0.31,0.69,1.0,0.08,1.0,0.08,0.08,0.08,1.0,0.31,0.08,0.31,0.31,0.54,0.54,-3.15,129.38
60,Arusa Masai,20967,0.77,0.08,0.08,1.0,1.0,1.0,0.08,0.08,0.08,0.54,0.46,0.23,0.08,0.08,0.69,0.54,0.77,1.0,0.08,0.77,0.77,0.62,0.77,0.69,0.77,1.0,1.0,0.69,1.0,0.54,0.54,0.77,0.77,0.77,0.31,0.31,0.77,-3.38,36.68
61,Asháninka,13135,1.0,0.62,0.15,1.0,0.54,0.31,0.31,0.08,0.08,0.54,0.85,1.0,0.23,0.54,0.69,1.0,0.31,1.0,0.08,0.54,0.77,1.0,0.77,0.38,0.08,0.69,1.0,0.38,0.54,0.54,1.0,0.54,0.62,0.08,0.31,0.54,1.0,-10.44,-75.15
62,Ashanti,30167,0.69,0.23,0.92,1.0,0.77,0.77,1.0,1.0,1.0,0.54,0.46,0.23,0.46,0.85,0.69,0.46,0.54,0.08,0.08,0.54,0.77,0.77,1.0,0.69,0.54,1.0,1.0,1.0,1.0,0.54,1.0,0.54,0.62,1.0,1.0,0.54,0.77,6.74,-1.99
63,Ashkenazi New York Jews,17610,0.15,0.08,0.08,0.31,0.08,0.08,0.08,0.08,0.08,0.0,0.0,0.08,0.08,0.08,0.0,0.0,0.0,0.0,0.0,0.0,0.54,0.08,0.54,0.0,0.31,0.38,1.0,1.0,0.54,0.08,1.0,0.0,0.62,0.0,0.0,0.0,0.0,40.71,-74.0
64,Asturias,10973,0.15,0.08,0.08,0.31,0.08,0.08,0.08,0.08,0.08,0.31,0.46,0.23,0.08,0.08,0.69,0.85,0.31,1.0,0.31,0.54,0.54,0.08,1.0,0.69,0.77,1.0,1.0,1.0,0.08,0.31,1.0,0.31,0.62,0.54,0.31,0.54,0.54,43.53,-5.66
65,Atanquez Kogi,13597,0.15,0.92,0.46,0.31,0.08,0.08,1.0,0.77,1.0,0.31,0.46,0.08,0.46,0.54,0.69,0.85,0.77,1.0,0.08,0.54,0.77,0.08,1.0,0.69,0.77,1.0,1.0,0.69,1.0,0.31,0.54,0.42,0.35,0.31,0.42,0.31,0.54,10.82,-73.69
66,Atayal,24696,0.46,0.08,0.08,0.54,0.77,0.77,0.08,0.08,0.08,0.54,0.46,0.23,0.08,0.08,0.69,0.46,0.54,1.0,0.31,0.54,0.77,0.08,1.0,0.69,0.31,1.0,1.0,1.0,0.54,0.54,1.0,0.54,0.46,0.77,1.0,0.54,0.54,23.96,120.97
67,Aushi Bemba,11067,0.62,0.08,0.08,1.0,1.0,1.0,0.08,0.08,0.08,0.31,0.85,0.23,0.08,0.08,0.08,0.08,0.31,0.08,0.31,0.31,0.54,0.62,1.0,0.69,0.77,1.0,1.0,0.69,1.0,0.31,1.0,0.54,0.77,1.0,0.54,0.08,0.54,-11.18,28.88
68,Auvergne,15439,0.15,0.15,0.15,0.31,0.08,0.08,0.31,0.08,0.08,0.54,0.46,0.08,0.35,0.08,0.69,0.23,0.77,0.46,0.69,0.54,0.54,0.08,1.0,0.38,0.31,1.0,1.0,1.0,1.0,0.54,1.0,0.54,0.35,0.08,0.08,0.31,0.31,45.2,4.03
69,Aymara,11133,0.46,0.08,0.08,0.54,0.54,0.31,1.0,0.08,0.08,0.77,0.85,0.23,0.08,0.08,0.69,0.46,1.0,1.0,0.08,0.54,0.77,0.08,1.0,0.69,0.54,1.0,1.0,0.38,1.0,0.77,1.0,0.54,0.62,0.31,0.31,0.54,0.54,-15.92,-69.33
70,Ayoréo,11144,0.15,0.08,0.08,0.31,0.08,0.08,0.08,0.08,0.08,0.54,0.85,0.08,0.08,0.08,0.69,0.77,0.77,0.85,1.0,0.31,0.31,0.08,0.08,0.38,0.77,0.38,0.38,0.69,1.0,0.54,0.08,0.54,0.46,0.31,0.31,0.31,0.77,-17.81,-63.15
71,Ayta,30177,0.46,0.08,0.08,0.54,0.31,0.31,0.08,0.08,0.08,1.0,1.0,0.23,0.08,0.08,1.0,0.08,0.08,1.0,0.08,0.77,0.54,0.08,0.54,0.08,0.54,0.08,1.0,0.69,0.54,1.0,1.0,0.65,0.23,0.54,0.54,0.77,1.0,16.56,121.26
72,Azande,11155,0.77,0.15,0.15,1.0,1.0,1.0,1.0,0.08,0.08,0.54,0.46,0.23,0.46,0.08,0.69,0.77,0.77,1.0,0.08,0.54,0.77,0.77,0.77,0.85,0.54,1.0,1.0,0.69,0.54,0.54,1.0,0.77,0.77,0.31,0.77,0.54,0.77,1.64,26.41
73,Azerbaijani,11160,0.15,0.62,0.15,0.31,0.08,0.08,1.0,0.54,0.77,0.31,1.0,0.08,1.0,0.08,0.69,0.77,0.77,0.08,0.08,0.31,0.31,0.08,0.08,0.38,0.77,0.08,0.08,0.38,0.08,0.31,0.08,0.31,0.77,0.54,0.54,0.77,0.77,40.4,49.86
74,Babarisla,11210,0.62,0.08,0.08,0.88,0.77,0.54,0.08,0.08,0.08,0.08,0.85,0.23,0.08,0.08,1.0,0.08,0.08,0.08,0.08,0.31,0.31,0.46,0.08,0.23,1.0,0.08,0.38,0.08,0.08,0.08,0.54,0.31,0.23,0.77,0.31,0.08,0.54,-7.89,129.69
75,Badakhshan,11259,0.08,0.0,0.15,0.0,0.0,0.0,0.31,0.08,0.08,0.0,0.0,0.0,0.69,0.08,0.0,0.0,0.0,0.0,0.0,0.0,0.0,0.0,0.0,0.0,0.0,0.0,1.0,0.0,0.0,0.0,0.0,0.0,0.0,0.0,0.0,0.0,0.0,36.73,70.81
76,Baden-Württemberg,14562,0.46,0.08,0.08,0.31,0.08,0.08,0.08,0.08,0.08,0.31,0.46,0.08,0.08,0.08,0.08,0.23,0.54,0.85,0.69,0.77,0.77,0.08,1.0,0.38,0.54,1.0,1.0,1.0,1.0,0.31,1.0,0.54,0.62,0.77,0.54,0.54,0.54,48.34,8.5
77,Baegu,11281,0.15,0.08,1.0,0.31,0.08,0.08,1.0,0.08,0.08,1.0,0.46,0.08,0.46,0.08,0.69,0.85,0.19,1.0,0.31,0.77,0.54,0.08,1.0,0.69,0.31,1.0,0.08,0.69,0.54,1.0,0.54,0.77,0.62,0.77,0.77,0.77,0.31,-8.94,160.9
78,Baggara,11309,0.77,1.0,0.85,0.54,0.54,0.54,0.08,1.0,0.77,0.54,0.46,0.23,0.35,0.69,0.69,0.62,0.77,0.85,0.08,0.54,0.54,0.08,0.77,0.69,0.77,0.08,1.0,0.69,1.0,0.54,0.54,0.77,0.62,0.31,0.31,0.54,0.77,14.37,24.9
79,Bagheria,25543,0.15,0.08,0.08,0.31,0.08,0.08,0.08,0.08,0.08,0.08,1.0,0.08,0.08,0.08,0.69,0.08,0.08,0.38,0.08,0.54,0.31,0.08,0.54,0.08,0.77,0.08,1.0,0.38,0.08,0.08,0.08,0.08,0.23,0.08,0.31,0.31,0.77,38.07,13.51
80,Bahima,11342,0.77,0.08,0.08,0.77,0.54,0.54,0.08,0.08,0.08,0.54,1.0,0.38,0.08,0.08,0.08,0.35,0.08,1.0,0.08,0.31,0.31,0.08,0.31,0.38,0.54,0.08,1.0,0.69,0.54,0.54,0.54,0.42,0.23,0.08,0.31,0.54,0.54,-0.49,30.49
81,Bahima Bahinda,11364,0.15,0.62,0.15,0.31,0.08,0.08,0.31,0.08,0.08,0.54,1.0,0.08,0.08,0.08,0.08,0.85,0.77,1.0,0.08,0.31,0.31,0.08,0.31,0.38,0.08,0.08,0.69,0.69,0.54,0.54,1.0,0.77,0.23,0.31,0.08,1.0,0.54,-0.49,30.49
82,Bai,11380,0.15,0.08,0.08,0.31,0.08,0.08,0.08,0.08,0.08,0.31,0.23,0.08,0.08,0.08,0.69,0.46,0.54,0.62,0.31,0.77,0.77,0.08,0.54,0.69,0.54,0.38,1.0,0.38,0.54,0.31,0.08,0.31,1.0,0.77,0.77,0.31,0.54,24.88,102.83
83,Baining,11402,0.46,0.23,0.38,0.54,0.77,1.0,0.54,0.54,1.0,0.54,0.85,0.23,0.46,0.54,0.69,0.85,0.19,1.0,0.85,0.31,0.77,0.08,1.0,0.85,0.77,1.0,1.0,0.69,0.54,0.54,1.0,0.54,0.62,0.31,0.54,0.31,0.54,-4.66,152.0
84,Bajau Laut,11397,0.15,0.08,0.08,0.31,0.08,0.08,0.08,0.08,0.08,0.08,0.85,0.08,0.08,0.08,0.69,0.08,0.08,0.08,0.08,0.54,0.31,0.08,0.08,0.23,0.54,0.08,1.0,0.38,0.08,0.08,0.08,0.54,0.23,0.31,0.31,0.54,0.31,0.96,114.55
85,Baka,30015,1.0,0.15,0.92,1.0,1.0,1.0,0.54,1.0,1.0,1.0,0.69,1.0,0.46,0.08,0.69,1.0,1.0,1.0,0.69,0.54,1.0,1.0,1.0,0.85,0.54,1.0,1.0,1.0,1.0,1.0,1.0,0.42,1.0,1.0,1.0,0.77,1.0,2.62,14.02
86,Bale Oromo,11490,0.62,0.15,0.85,0.31,0.08,0.08,1.0,1.0,0.77,0.77,0.69,0.23,0.46,0.85,0.85,0.85,0.77,1.0,0.31,0.31,0.54,0.08,0.54,0.69,0.54,0.69,1.0,1.0,1.0,0.77,0.54,0.54,0.46,0.31,0.31,0.77,0.54,6.76,40.3
87,Balinese,11507,0.15,0.08,0.08,0.31,0.08,0.08,0.08,0.08,0.08,0.08,1.0,0.08,0.08,0.08,0.69,0.08,0.42,0.08,0.08,0.54,0.31,0.08,0.08,0.08,0.54,0.08,1.0,0.08,0.54,0.08,0.08,0.77,0.23,0.08,0.31,0.54,0.31,-8.5,115.24
88,Balkar,11518,0.77,0.08,0.08,1.0,1.0,1.0,0.08,0.08,0.08,1.0,0.46,0.23,0.08,0.08,0.69,0.46,0.77,0.46,0.31,0.77,0.54,1.0,1.0,0.85,0.77,0.69,1.0,1.0,1.0,1.0,1.0,0.54,0.62,0.77,0.77,0.77,0.77,43.39,43.56
89,Bambara,11529,0.62,0.15,0.38,0.54,0.77,0.77,1.0,1.0,1.0,0.31,0.85,0.23,0.46,0.85,0.69,0.77,0.77,0.08,0.31,0.54,0.54,0.08,0.54,0.69,0.54,1.0,1.0,0.69,0.54,0.31,1.0,0.54,0.62,0.31,0.77,0.54,0.77,12.63,-8.0
90,Bamum,30193,1.0,0.15,0.92,1.0,1.0,1.0,1.0,1.0,1.0,0.77,0.46,1.0,0.46,0.85,0.69,0.77,0.77,1.0,0.69,0.31,1.0,1.0,1.0,0.69,0.31,1.0,1.0,1.0,1.0,0.77,1.0,0.54,0.77,1.0,1.0,0.77,1.0,3.87,11.51
91,Banat,24399,0.15,0.08,0.08,0.08,0.08,0.08,0.08,0.08,0.08,0.08,0.85,0.08,0.08,0.08,0.23,0.85,0.08,0.81,0.08,0.31,0.42,0.08,0.31,0.23,0.31,0.38,0.38,0.38,0.08,0.08,0.54,0.54,0.46,0.31,0.54,0.54,0.31,44.95,22.1
92,Banda,11584,0.62,0.23,0.46,0.54,1.0,1.0,0.54,1.0,1.0,0.54,0.46,0.23,0.23,0.23,0.69,0.69,0.0,0.85,0.31,0.54,0.77,0.08,1.0,0.85,0.54,1.0,1.0,0.69,1.0,0.54,1.0,0.42,0.77,0.54,1.0,0.77,0.77,6.76,19.66
93,BaNguana,11600,0.15,0.0,0.15,0.08,0.08,0.08,0.31,0.0,0.08,0.77,0.46,0.08,0.46,0.08,0.69,0.85,0.54,1.0,0.08,0.54,0.54,0.08,1.0,0.69,0.31,1.0,1.0,0.69,0.54,0.77,1.0,0.31,0.46,0.31,0.54,0.54,0.77,2.72,30.64
94,Banjara,11617,0.69,0.92,0.69,0.77,0.54,0.54,1.0,0.54,0.77,0.54,0.46,0.38,0.46,0.69,0.69,0.69,1.0,0.85,0.31,0.31,0.31,0.08,0.08,0.77,0.42,1.0,1.0,1.0,0.54,0.54,0.54,0.31,0.23,0.31,0.31,0.77,0.77,19.89,75.3
95,Bankalawa Jarawa,17535,0.15,0.08,0.08,0.31,0.08,0.08,1.0,0.08,1.0,1.0,0.46,0.08,0.46,0.85,1.0,0.62,0.88,0.85,0.08,0.54,1.0,0.08,1.0,0.85,0.77,1.0,1.0,0.69,1.0,1.0,1.0,0.77,0.62,0.54,0.54,0.77,0.77,10.3,9.82
96,Bantu Lala,19614,0.15,0.15,0.15,0.31,0.08,0.08,1.0,0.08,0.08,0.31,0.46,0.08,0.46,0.08,0.69,0.85,1.0,0.85,0.69,0.54,0.54,0.08,1.0,0.85,0.77,1.0,1.0,0.69,1.0,0.31,1.0,0.77,0.62,0.31,0.31,0.54,0.77,-13.35,30.52
97,Baoulé,11870,0.92,1.0,0.08,1.0,1.0,1.0,1.0,0.08,1.0,0.77,0.46,0.23,0.46,0.08,0.69,0.69,0.77,1.0,0.31,0.31,0.54,0.62,1.0,0.69,1.0,1.0,1.0,0.69,1.0,0.77,1.0,0.31,0.62,0.54,0.31,0.31,0.77,7.44,-5.28
98,Bara,11672,0.85,0.69,0.38,0.54,0.77,0.77,1.0,0.54,1.0,0.77,0.46,0.23,0.46,0.54,1.0,0.77,0.77,1.0,0.08,0.54,0.31,0.08,1.0,0.69,0.77,1.0,1.0,0.69,0.54,0.77,1.0,0.31,0.62,0.08,0.31,0.31,1.0,-22.4,46.12
99,Barbagia,22925,0.31,0.08,0.08,1.0,0.08,1.0,0.08,0.08,0.08,0.08,0.46,0.08,0.08,0.08,0.69,0.15,0.77,0.08,0.08,0.54,0.54,0.08,0.08,0.38,0.54,0.69,1.0,0.69,0.54,0.08,1.0,0.42,0.23,0.31,0.08,0.08,0.08,40.32,9.32
100,Barí,21814,0.46,0.08,0.08,1.0,0.54,1.0,0.08,0.08,0.08,0.77,0.85,0.23,0.08,0.08,0.69,0.92,0.77,1.0,0.69,0.54,1.0,0.77,1.0,0.69,0.31,1.0,1.0,1.0,1.0,0.77,0.08,0.54,0.62,0.31,0.31,0.77,1.0,10.0,-73.0
101,Barra,25070,0.62,0.08,0.08,0.54,0.08,0.08,0.54,0.08,0.08,0.77,0.46,0.08,0.23,0.08,0.69,0.46,0.54,0.69,0.08,0.54,1.0,0.08,1.0,0.69,0.31,0.69,1.0,0.69,1.0,0.77,0.08,0.77,0.46,0.54,0.54,0.31,0.31,56.98,-7.46
102,Barzani Kurd,19328,0.15,0.08,0.08,0.31,0.08,0.08,0.08,0.08,0.08,0.08,1.0,0.08,0.08,0.08,0.69,0.08,0.08,0.08,0.08,0.54,0.31,0.08,0.31,0.69,0.77,0.08,1.0,0.38,0.54,0.08,0.08,0.54,0.23,0.31,0.31,0.31,0.31,36.8,44.24
103,Bashkirs,11760,0.15,0.08,0.15,0.31,0.08,0.08,1.0,0.08,0.08,0.08,0.85,0.08,0.08,0.08,0.69,0.23,0.42,0.08,0.08,0.77,0.54,0.08,1.0,0.38,0.77,0.69,1.0,1.0,0.54,0.08,1.0,0.77,0.62,0.54,1.0,0.54,0.54,54.23,56.16
104,Basketo,14694,0.88,0.23,0.46,1.0,0.77,1.0,0.54,1.0,0.77,0.77,0.46,0.69,0.23,0.54,0.69,0.77,1.0,1.0,0.69,0.0,0.88,1.0,1.0,0.85,0.77,1.0,1.0,0.69,1.0,0.77,1.0,0.54,0.62,0.54,0.54,0.31,0.54,6.3,36.56
105,Basoga,11793,0.77,1.0,0.92,0.54,0.77,1.0,1.0,1.0,1.0,0.77,0.85,0.23,0.46,0.85,0.69,0.54,0.77,1.0,0.08,0.54,0.77,0.08,1.0,0.85,0.54,1.0,1.0,0.69,0.54,0.77,0.54,0.54,0.62,0.54,0.31,0.54,0.77,0.31,32.57
106,Basseri,11826,0.15,0.62,0.15,0.31,0.08,0.08,0.31,0.08,0.08,0.77,1.0,0.08,1.0,0.08,1.0,0.15,0.08,0.69,0.08,0.31,0.31,0.08,0.08,0.23,0.77,0.08,0.08,0.38,0.54,0.77,0.54,0.31,0.08,0.08,0.54,0.31,0.31,30.61,53.19
107,Bavaria Munich High Germany,15819,0.15,0.0,0.15,0.08,0.08,0.08,1.0,0.0,0.08,0.08,0.46,0.08,0.46,0.08,0.69,0.08,0.42,0.08,0.69,0.77,0.54,0.08,0.54,0.23,0.42,0.38,0.38,0.69,0.54,0.08,0.54,0.31,0.46,0.54,1.0,0.42,0.08,48.22,16.35
108,Baya,11892,0.77,1.0,0.46,1.0,0.77,0.77,1.0,0.77,1.0,0.77,0.46,1.0,0.46,0.85,0.85,0.85,0.77,1.0,0.69,0.77,0.54,0.62,1.0,0.85,0.77,1.0,1.0,0.69,1.0,0.77,1.0,0.54,0.62,0.54,0.77,0.54,0.77,1.61,16.04
109,Bayern (Bavarians),11881,0.62,0.15,0.15,1.0,1.0,1.0,1.0,0.08,0.08,0.54,0.46,0.23,0.46,0.08,0.69,0.23,0.54,0.08,1.0,0.77,0.54,0.62,1.0,0.69,0.54,1.0,1.0,1.0,1.0,0.54,1.0,0.42,1.0,1.0,1.0,0.54,0.54,48.79,11.49
110,Bedaria,11925,0.15,0.23,0.46,0.31,0.54,0.77,1.0,1.0,0.77,0.77,0.46,0.08,0.46,0.69,0.69,0.62,0.54,0.85,0.08,0.54,0.54,0.08,0.54,0.69,0.88,0.69,1.0,0.69,1.0,0.77,0.54,0.42,0.62,0.42,0.54,0.42,0.77,13.83,29.41
111,Bedzan,30035,1.0,0.23,0.92,1.0,1.0,1.0,1.0,1.0,1.0,1.0,0.46,1.0,0.46,0.54,0.69,1.0,1.0,1.0,0.69,0.77,0.77,1.0,1.0,0.69,0.54,1.0,1.0,1.0,0.08,1.0,1.0,0.54,0.77,1.0,1.0,0.77,1.0,4.31,13.5
112,Beijing Folk,62315,0.15,0.15,0.15,0.31,0.08,0.08,0.31,0.08,0.08,0.08,0.46,0.08,0.23,0.08,0.69,0.08,0.54,0.08,0.31,0.77,0.77,0.08,0.54,0.38,0.54,0.69,0.69,0.38,0.54,0.08,0.08,0.31,0.23,0.08,0.31,0.08,0.08,39.9,116.4
113,Belarus,12948,0.15,0.08,0.08,0.31,0.08,0.08,0.08,0.08,0.08,0.08,0.46,0.08,0.08,0.08,0.69,0.85,0.31,1.0,0.08,0.54,0.54,0.08,0.77,0.38,0.54,0.69,1.0,0.38,0.08,0.08,1.0,0.54,0.62,0.77,0.77,0.54,0.54,57.81,28.33
114,Bemba,12002,0.62,0.15,0.38,1.0,1.0,1.0,1.0,1.0,1.0,0.31,0.46,0.23,0.46,0.85,0.69,0.46,0.77,0.85,0.08,0.77,0.54,0.77,0.77,0.69,0.54,1.0,1.0,0.69,1.0,0.31,1.0,0.77,0.77,0.31,0.31,0.54,0.77,-10.53,31.07
115,Benares,12024,0.15,0.62,0.15,0.31,0.08,0.08,1.0,0.08,0.08,0.54,0.85,0.08,0.46,0.08,0.69,0.15,0.31,0.85,0.69,0.77,0.54,0.08,0.54,0.69,0.77,0.69,0.69,0.38,0.54,0.54,0.54,0.77,0.23,0.08,0.31,0.77,0.31,25.13,82.56
116,Bench-Maji,15871,0.96,0.08,0.08,1.0,0.77,1.0,0.08,0.08,0.08,0.54,0.46,0.69,0.08,0.08,0.69,0.69,1.0,1.0,0.08,0.54,0.77,1.0,1.0,0.77,0.31,0.69,0.69,0.69,0.54,0.54,0.54,0.54,0.46,0.31,0.31,0.77,0.54,6.99,35.58
117,Bengal,12046,0.15,0.15,0.54,0.31,0.08,0.08,1.0,0.54,1.0,0.08,0.46,0.08,0.46,0.69,0.69,0.15,0.77,0.08,0.08,0.54,0.54,0.08,0.54,0.69,0.54,0.69,1.0,0.38,0.54,0.08,0.54,0.77,0.23,0.31,0.54,0.54,0.31,22.57,88.36
118,Berry,15445,0.15,0.08,0.08,0.31,0.08,0.08,0.08,0.08,0.08,0.08,0.85,0.08,0.08,0.08,0.69,0.46,0.77,0.38,0.69,0.54,0.54,0.08,0.77,0.69,0.54,1.0,1.0,1.0,1.0,0.08,0.54,0.54,0.46,0.54,0.77,0.54,0.31,47.0,2.0
119,Betsileo,12112,0.46,0.23,0.38,1.0,0.54,0.77,1.0,0.54,1.0,0.54,0.46,0.23,0.46,0.85,0.69,0.69,0.77,1.0,0.08,0.77,0.54,0.62,1.0,0.85,0.77,1.0,1.0,0.08,0.54,0.54,1.0,0.31,0.35,0.31,0.31,0.08,0.54,-21.32,46.93
120,Bhatra Sikh,12134,0.15,0.08,0.08,0.77,0.08,0.08,0.08,0.08,0.08,0.54,0.69,0.23,0.08,0.08,0.69,0.54,0.77,0.85,0.08,0.31,0.54,0.08,0.54,0.85,0.77,0.69,1.0,0.69,0.54,0.54,1.0,0.54,0.62,0.31,0.54,0.54,0.54,18.94,81.9
121,Bhil,12145,0.69,0.15,0.38,0.54,0.31,0.54,1.0,0.54,0.77,0.77,0.46,0.23,0.46,0.69,0.69,0.85,0.77,1.0,0.08,0.54,0.54,0.08,0.54,0.85,0.54,1.0,1.0,0.69,0.54,0.77,1.0,0.54,0.35,0.42,0.54,0.42,0.77,22.97,78.65
122,Bhojpuri,16792,0.15,0.08,0.08,0.31,0.08,0.08,1.0,0.08,0.08,0.08,0.46,0.08,0.08,0.08,0.69,0.15,0.77,0.85,0.08,0.54,0.31,0.08,0.54,0.69,0.54,0.69,0.08,0.69,0.54,0.08,1.0,0.54,0.23,0.31,0.54,0.77,0.31,25.88,84.29
123,Bhotiyas,12156,0.15,0.08,0.08,0.31,0.08,0.08,0.08,0.08,0.08,0.54,0.46,0.08,0.08,0.08,0.69,0.15,0.54,0.08,0.08,0.31,0.54,0.08,0.54,0.85,0.31,0.69,0.69,1.0,0.54,0.54,1.0,0.54,0.77,0.08,1.0,0.77,0.54,28.82,83.73
124,Bhumij,12178,0.15,0.08,0.08,0.31,0.08,0.08,0.08,0.08,0.08,0.31,0.46,0.08,0.08,0.08,0.69,0.46,0.77,0.23,0.31,0.54,0.54,0.08,0.31,0.69,0.77,0.69,1.0,0.69,0.54,0.31,0.54,0.77,0.62,0.31,0.54,0.77,0.54,22.5,85.5
125,Biami,12205,0.77,0.08,0.08,1.0,0.77,0.77,0.08,0.08,0.08,0.77,0.85,0.23,0.08,0.08,0.69,0.38,1.0,0.62,0.08,0.54,0.77,0.62,1.0,0.85,0.54,1.0,0.08,0.69,0.54,0.77,1.0,0.77,0.62,0.54,0.77,0.54,0.77,-3.71,141.68
126,Bine,12260,0.15,0.08,0.08,0.31,0.08,0.08,0.08,0.08,0.08,0.77,0.85,0.08,0.23,0.08,0.69,0.38,0.77,1.0,0.31,0.54,0.77,0.08,1.0,0.38,0.31,0.38,1.0,0.69,0.54,0.77,1.0,0.42,0.62,0.31,0.31,0.54,0.31,-8.37,141.53
127,Bisorio,30030,0.77,0.08,0.08,1.0,1.0,0.65,0.08,0.08,0.08,1.0,0.54,0.69,0.08,0.08,1.0,1.0,0.77,1.0,0.08,0.77,0.54,1.0,1.0,0.54,1.0,0.38,1.0,0.38,0.77,1.0,1.0,0.31,0.81,0.77,1.0,0.08,1.0,-4.31,143.04
128,Bitterroot Salish,15368,0.38,0.08,0.08,0.54,0.54,0.54,0.08,0.08,0.08,0.77,0.46,0.23,0.08,0.08,0.38,0.23,0.77,0.08,0.08,0.54,0.77,0.08,1.0,0.69,0.77,1.0,1.0,0.69,1.0,0.77,0.08,0.77,0.23,0.08,0.31,0.31,0.77,47.5,-114.33
129,Black Sea,30065,0.15,0.46,0.15,0.31,0.08,0.08,0.31,0.08,0.08,0.08,0.46,0.08,0.46,0.08,0.69,0.08,0.08,0.62,0.08,0.31,0.31,0.08,0.08,0.69,0.77,0.69,0.08,0.08,0.08,0.08,0.08,0.31,0.23,0.08,0.31,0.77,0.31,41.02,28.98
130,Blang,12337,0.15,0.15,0.15,0.31,0.08,0.08,1.0,0.08,0.08,0.31,0.85,0.08,0.23,0.08,0.69,0.15,0.31,0.08,0.31,0.54,0.54,0.08,0.77,0.69,0.54,1.0,1.0,0.38,0.08,0.31,0.54,0.31,0.08,0.08,0.31,0.54,0.31,22.0,100.79
131,Bohemian,12409,0.15,0.23,0.46,0.31,0.08,0.08,1.0,0.08,0.08,0.08,0.46,0.08,0.46,0.08,0.69,0.46,0.54,0.46,0.69,0.54,0.54,0.08,1.0,0.38,0.54,1.0,1.0,1.0,1.0,0.08,1.0,0.54,0.77,1.0,1.0,0.31,0.31,49.73,13.37
132,Bonda,12483,0.35,0.15,0.15,0.77,0.54,0.77,0.31,0.08,0.08,0.31,0.46,0.23,0.23,0.08,0.69,0.85,0.54,1.0,0.08,0.31,0.77,0.08,0.77,0.85,0.54,0.69,0.08,0.38,0.54,0.31,1.0,0.54,0.23,0.54,0.54,0.54,0.54,18.55,82.73
133,Bongili,12480,0.77,0.23,0.46,0.54,0.77,0.54,0.54,0.31,0.77,0.77,0.46,0.23,0.23,0.23,0.85,0.54,0.54,0.92,0.08,0.54,0.54,0.08,0.77,0.69,0.31,1.0,1.0,0.38,0.54,0.77,1.0,0.31,0.62,0.77,0.54,0.31,0.54,0.54,16.62
134,Bora Witoto,12530,0.46,0.08,0.08,0.54,0.08,0.08,0.08,0.08,0.08,0.54,0.85,0.23,0.08,0.08,0.69,0.23,0.77,0.08,0.31,0.31,0.77,0.08,1.0,0.38,0.31,0.69,1.0,1.0,1.0,0.54,1.0,0.54,0.46,0.08,0.31,0.77,0.54,-3.31,-71.86
135,Borana,12546,0.85,0.23,0.77,1.0,0.54,0.77,0.54,0.77,0.77,0.77,0.46,0.69,0.23,0.54,0.85,0.77,0.77,0.85,0.08,0.77,1.0,1.0,1.0,0.85,0.77,0.69,1.0,0.69,1.0,0.77,1.0,0.77,0.62,0.54,0.54,0.31,1.0,7.54,40.63
136,Bosavi,17936,0.77,0.69,0.46,1.0,0.77,1.0,0.54,1.0,0.54,0.77,0.85,1.0,0.23,0.23,0.69,0.92,0.77,1.0,0.08,0.54,0.77,0.08,1.0,0.69,0.31,1.0,0.69,0.38,0.54,0.77,1.0,0.54,0.46,0.54,0.54,0.77,0.77,-6.31,143.95
137,Bosnia,12563,0.15,0.62,0.15,0.31,0.08,0.08,0.31,0.08,0.08,0.08,1.0,0.08,1.0,0.08,0.69,0.38,0.08,0.08,0.69,0.31,0.31,0.08,0.08,0.23,0.77,0.08,0.08,0.08,0.08,0.08,0.08,0.54,0.46,0.31,1.0,0.54,0.54,44.24,17.73
138,Bouyei,12920,0.15,0.08,0.08,0.08,0.08,0.08,0.08,0.08,0.08,0.31,0.85,0.08,0.08,0.08,0.0,0.15,0.42,0.08,0.08,0.54,0.54,0.08,0.54,0.69,0.54,0.38,0.38,0.38,0.54,0.31,0.54,0.31,0.08,0.08,0.31,0.31,0.08,22.81,108.36
139,Bristol,15093,0.62,0.08,0.08,0.54,0.31,0.77,0.08,0.08,0.08,0.08,0.46,0.23,0.08,0.08,0.69,0.46,0.54,0.62,0.69,0.31,0.54,0.08,0.77,0.69,0.77,1.0,1.0,0.69,1.0,0.08,1.0,0.54,0.46,1.0,0.54,0.31,0.54,51.45,-2.58
140,British Australians,11080,0.15,0.08,0.08,0.31,0.08,0.08,0.08,0.08,0.08,0.08,0.46,0.08,0.08,0.08,0.69,0.46,0.54,0.46,0.08,0.54,0.54,0.08,0.77,0.38,0.54,0.38,1.0,0.69,1.0,0.08,1.0,0.54,0.62,0.54,0.08,0.54,0.31,51.45,-2.58
141,British Canadian,13140,0.15,0.08,0.08,0.31,0.08,0.08,0.08,0.08,0.08,0.08,0.46,0.08,0.08,0.08,0.69,0.46,0.54,0.46,0.08,0.54,0.54,0.08,0.77,0.69,0.54,0.38,1.0,0.69,1.0,0.08,1.0,0.54,0.62,0.54,0.54,0.54,0.54,51.45,-2.58
142,Brittany,12607,0.15,0.08,0.08,0.31,0.08,0.08,0.08,0.08,0.08,0.08,0.46,0.08,0.08,0.08,0.69,0.23,0.54,0.38,0.69,0.54,0.54,0.08,0.77,0.85,0.54,0.69,1.0,1.0,1.0,0.08,1.0,0.54,0.46,0.31,0.31,0.54,0.31,47.21,-1.55
143,Bryanskaya,13321,0.62,0.08,0.08,1.0,0.54,0.77,0.08,0.08,0.08,0.08,0.85,0.23,0.08,0.08,0.69,0.77,0.54,0.85,0.08,0.31,0.54,0.77,0.54,0.38,0.54,1.0,1.0,0.38,0.54,0.08,0.54,0.08,0.77,0.54,0.54,0.31,0.54,52.58,32.75
144,Bucharest,12640,0.15,0.08,0.08,0.31,0.08,0.08,0.08,0.08,0.08,0.31,1.0,0.08,0.08,0.08,0.69,0.92,0.42,1.0,0.08,0.31,0.31,0.08,0.31,0.38,0.31,0.0,1.0,0.38,1.0,0.31,0.08,0.54,0.46,0.54,0.54,0.54,0.31,44.5,26.65
145,Budu,12662,0.15,0.15,0.15,0.31,0.08,0.08,0.31,0.08,0.08,0.08,0.46,0.08,0.23,0.08,0.69,0.0,0.77,0.73,0.08,0.31,0.77,0.08,1.0,0.69,0.31,1.0,0.69,0.69,0.08,0.08,1.0,0.54,0.62,0.31,0.31,0.77,0.54,2.72,30.64
146,Buin,12698,0.46,0.08,0.08,0.54,1.0,0.77,0.08,0.08,0.08,0.54,0.46,0.23,0.08,0.08,0.69,0.85,0.54,1.0,0.31,0.54,0.77,0.08,1.0,0.69,0.31,1.0,1.0,0.38,0.54,0.54,1.0,0.54,0.62,0.54,0.77,0.54,0.31,-6.0,155.0
147,Buka,30041,0.46,0.23,0.46,1.0,1.0,0.54,0.08,1.0,0.08,0.54,0.85,0.23,0.08,0.08,0.69,0.46,0.54,0.69,0.08,0.54,1.0,0.08,1.0,0.23,0.77,0.69,1.0,0.38,0.54,0.54,1.0,0.42,0.62,1.0,1.0,0.77,1.0,-5.23,154.64
148,Bukharan Jews,10555,0.15,0.15,0.46,0.08,0.08,0.08,0.54,0.31,0.31,0.0,0.46,0.08,0.46,0.23,0.69,0.08,0.31,0.08,0.08,0.54,0.31,0.08,0.08,0.38,0.77,0.38,0.08,0.08,0.08,0.0,0.54,0.08,0.08,0.08,0.31,0.31,0.31,39.62,66.97
149,Bukharan Uzbeks,28139,0.15,0.62,0.46,0.31,0.08,0.08,1.0,0.54,1.0,0.08,0.46,0.08,0.46,0.46,0.08,0.08,0.77,0.08,0.08,0.77,0.31,0.08,0.08,0.38,0.77,0.38,1.0,0.38,0.08,0.08,0.54,0.31,0.46,0.31,0.54,0.54,0.54,39.76,64.45
150,Bukusu,19377,0.77,0.92,0.85,1.0,0.77,0.77,1.0,1.0,1.0,0.31,0.85,0.23,0.46,0.85,0.85,0.54,0.77,1.0,0.08,0.54,0.77,0.23,1.0,1.0,0.77,1.0,1.0,1.0,1.0,0.31,1.0,0.54,0.62,0.31,0.31,0.31,0.77,0.33,34.48
151,Bulu,12783,0.85,0.08,0.08,1.0,1.0,1.0,0.08,0.08,1.0,0.77,0.46,0.23,0.46,0.08,0.69,0.77,0.54,0.85,0.08,0.54,0.54,0.62,1.0,0.69,0.54,1.0,1.0,1.0,1.0,0.77,1.0,0.54,0.62,0.54,0.54,0.54,0.54,2.92,11.15
152,Bunlap,12816,0.77,0.08,0.08,0.31,0.77,0.77,0.08,0.08,0.08,0.54,0.85,1.0,0.08,0.08,0.69,0.08,0.77,0.08,0.69,0.54,0.77,0.08,1.0,0.69,0.31,1.0,1.0,0.69,1.0,0.54,1.0,0.31,0.62,0.54,0.54,0.77,0.77,-15.75,168.18
153,Bunun,28304,0.62,0.08,0.08,1.0,0.77,0.77,0.08,0.08,0.08,1.0,1.0,0.23,0.08,0.08,0.69,0.92,0.08,1.0,0.08,0.77,0.77,0.77,1.0,0.38,0.54,0.08,1.0,0.69,0.54,1.0,1.0,0.54,0.62,1.0,1.0,0.77,0.54,23.87,120.91
154,Burji,12838,0.85,0.23,0.46,0.88,0.31,0.77,0.54,0.54,0.54,0.54,0.46,1.0,0.35,0.38,0.85,0.77,0.54,0.85,0.08,0.54,0.54,1.0,0.77,0.69,0.77,0.69,1.0,0.38,0.08,0.54,0.08,0.31,0.62,0.54,0.54,0.31,1.0,5.82,37.57
155,Burmese,12849,0.15,0.62,0.38,0.31,0.08,0.08,0.77,0.54,1.0,0.08,0.85,0.08,0.85,0.54,0.69,0.08,0.54,0.08,0.69,0.77,0.54,0.08,0.54,0.38,0.54,0.69,0.69,0.38,0.54,0.08,0.54,0.54,0.23,0.31,0.54,0.54,0.54,21.95,96.08
156,Burusho,12860,0.15,0.38,0.15,0.31,0.08,0.08,1.0,0.08,0.08,0.54,0.69,0.08,0.69,0.08,0.85,0.15,0.54,0.08,0.08,0.54,0.42,0.08,0.31,0.38,0.42,1.0,1.0,0.69,0.54,0.54,0.08,0.54,0.46,0.54,0.31,0.31,0.77,36.0,76.0
157,Buryat,12871,0.15,0.15,0.38,0.31,0.08,0.08,1.0,0.54,1.0,0.08,1.0,0.08,0.46,0.38,0.69,0.46,0.77,0.38,0.08,0.31,0.77,0.08,0.31,0.23,0.77,0.08,1.0,0.69,0.08,0.08,0.08,0.42,0.77,0.77,0.77,0.54,0.31,54.83,112.4
158,Butala,12904,0.15,0.08,0.08,0.31,0.08,0.08,0.08,0.08,0.08,0.54,0.85,0.08,0.08,0.08,0.0,0.08,0.31,0.38,0.69,0.54,0.54,0.08,1.0,0.23,0.31,0.08,0.08,0.38,0.54,0.54,1.0,0.54,0.62,0.54,0.54,0.77,0.54,-6.7,147.62
159,Buzawa Kalmyks,17931,0.15,0.08,0.08,0.31,0.08,0.08,0.08,0.08,0.08,0.31,0.46,0.08,0.08,0.08,0.69,0.38,0.54,0.69,0.69,0.77,0.54,0.08,0.77,0.38,0.54,1.0,1.0,0.38,0.54,0.31,0.54,0.77,0.62,0.54,0.77,0.54,0.54,46.18,45.0
160,Buzi,12923,0.46,0.23,0.46,0.54,0.77,0.77,0.54,0.08,0.08,0.77,0.85,0.23,0.23,0.23,0.85,0.85,0.54,1.0,0.08,0.54,0.77,0.08,1.0,0.69,0.77,1.0,1.0,0.69,0.54,0.77,1.0,0.31,0.62,0.54,0.54,0.31,0.77,-9.87,142.58
161,Bwaidoka,12931,0.77,0.08,0.08,1.0,0.54,0.77,0.08,0.08,0.08,1.0,0.23,0.23,0.08,0.08,0.85,0.85,0.54,0.85,0.08,0.54,0.77,0.23,1.0,0.85,0.42,1.0,0.08,0.69,1.0,1.0,1.0,0.42,0.46,0.54,0.31,0.77,1.0,-9.36,150.25
162,C Chinese Village,62309,0.15,0.62,0.15,0.31,0.08,0.08,0.31,0.08,0.08,0.08,0.85,0.08,0.85,0.08,0.08,0.38,0.54,0.23,0.08,0.54,0.31,0.08,0.31,0.23,0.77,0.08,0.38,0.08,0.08,0.08,0.08,0.42,0.23,0.54,0.31,0.54,0.77,31.34,110.74
163,C Indian Folk,13333,0.46,0.38,0.46,0.54,0.31,0.54,0.77,0.31,0.54,0.08,0.69,0.23,0.69,0.69,0.08,0.15,0.77,0.08,0.85,0.54,0.31,0.08,0.08,0.85,0.54,1.0,1.0,0.38,1.0,0.08,1.0,0.31,0.08,0.08,0.54,0.54,0.77,22.97,78.65
164,C Polish Folk,23827,0.15,0.08,0.08,1.0,0.08,0.77,1.0,0.77,0.0,0.08,0.46,0.23,0.46,0.08,0.69,0.46,0.77,0.38,0.08,0.54,0.54,0.77,1.0,0.69,0.54,1.0,0.69,1.0,1.0,0.08,1.0,0.54,0.62,0.77,0.77,0.54,0.31,49.68,21.76
165,Cadiz,10572,0.15,0.15,0.46,0.31,0.08,0.08,1.0,0.08,1.0,0.08,0.46,0.08,0.46,0.54,0.69,0.38,0.54,0.23,0.08,0.77,0.31,0.08,0.31,0.85,0.77,0.38,1.0,0.38,1.0,0.08,1.0,0.08,0.08,0.08,0.31,0.31,0.31,36.52,-6.28
166,Caggiano,30075,0.15,0.0,0.46,0.31,0.08,0.08,1.0,0.77,0.77,0.08,1.0,0.08,0.46,1.0,0.38,0.92,0.77,1.0,0.08,0.54,0.54,0.08,0.31,0.38,0.77,0.08,0.08,0.69,0.54,0.08,0.54,0.54,0.46,0.31,0.31,0.31,0.31,40.56,15.49
167,Cagliari,24608,0.15,0.15,0.08,0.31,0.08,0.08,1.0,0.08,0.08,0.08,0.46,0.23,0.08,0.08,0.69,0.77,0.77,0.23,0.08,0.31,0.54,0.08,0.31,0.23,0.77,0.69,1.0,0.38,0.54,0.08,0.54,0.42,0.23,0.54,0.08,0.54,0.54,39.22,9.11
168,Cajun,19493,0.15,0.08,0.08,0.31,0.08,0.08,0.08,0.08,0.08,0.08,0.46,0.08,0.08,0.08,0.69,0.46,0.54,0.46,0.08,0.54,0.77,0.08,0.77,0.23,0.54,0.08,1.0,0.69,0.54,0.08,1.0,0.54,0.23,0.31,0.31,0.31,0.31,29.89,-91.9
169,Canadian Mennonites,50261,0.46,0.15,0.15,1.0,0.77,0.77,1.0,0.08,0.08,0.08,0.46,0.23,0.46,0.08,0.69,0.46,0.54,0.23,0.19,0.77,0.54,0.08,1.0,0.69,0.31,0.69,0.69,1.0,1.0,0.08,1.0,0.54,0.46,1.0,0.77,0.54,0.31,45.51,-73.56
170,Canela Krahô,19064,0.46,0.08,0.08,1.0,0.77,0.54,0.08,0.08,0.08,0.77,0.85,0.23,0.08,0.08,0.69,0.77,0.77,0.08,0.08,0.54,0.77,0.62,1.0,0.38,0.54,1.0,1.0,0.08,0.54,0.77,0.54,1.0,0.77,0.77,0.77,0.77,1.0,-14.0,-47.68
171,Canicattì,62495,0.15,0.08,0.08,0.31,0.08,0.08,0.08,0.08,0.08,0.08,1.0,0.08,0.08,0.08,0.08,0.38,0.54,0.23,0.08,0.54,0.31,0.08,0.31,0.38,0.77,0.08,1.0,0.38,0.08,0.08,0.54,0.31,0.08,0.31,0.31,0.54,0.54,37.35,13.85
172,Cantabria,25994,0.46,0.23,0.69,0.54,0.54,0.77,0.54,0.54,0.77,0.31,0.46,0.23,0.46,0.54,0.69,0.92,0.42,0.85,0.08,0.54,0.54,0.08,0.77,0.69,0.77,1.0,0.69,1.0,1.0,0.31,1.0,0.54,0.46,0.77,0.77,0.31,0.54,43.16,-4.61
173,Cantonese Folk,13157,0.15,0.08,0.08,0.31,0.08,0.08,0.08,0.08,0.08,0.31,0.46,0.08,0.08,0.08,0.69,0.08,0.31,0.23,0.69,0.54,0.54,0.08,0.54,0.69,0.54,0.08,1.0,0.69,0.54,0.31,0.54,0.54,0.23,0.31,0.77,0.31,0.31,23.12,113.26
174,Capri,62411,0.46,0.23,0.38,0.54,0.54,1.0,1.0,0.54,0.77,0.08,0.46,0.23,0.46,0.54,0.69,0.23,0.77,0.08,0.08,0.54,0.54,0.08,1.0,0.85,0.54,1.0,1.0,0.69,1.0,0.08,1.0,0.77,0.62,0.54,0.54,0.31,0.31,40.55,14.22
175,Carpathian Germans,50258,0.15,0.08,0.08,0.31,0.08,0.08,0.08,0.08,0.08,0.77,1.0,0.08,0.08,0.08,0.69,0.08,1.0,0.08,0.85,0.77,0.77,0.08,0.77,0.38,0.54,0.08,1.0,1.0,0.54,0.77,0.08,0.08,1.0,1.0,1.0,0.54,0.77,48.38,23.84
176,Carpathian Slovakian,25741,0.62,0.08,0.08,1.0,1.0,1.0,0.08,0.08,0.08,0.08,0.85,0.23,0.08,0.08,0.69,0.46,0.54,0.38,0.69,0.77,0.54,0.77,1.0,0.23,0.54,0.69,1.0,0.69,1.0,0.08,1.0,0.77,0.77,0.54,0.77,0.54,0.54,48.38,23.84
177,Carriacou,13223,0.77,0.08,1.0,0.54,0.77,1.0,0.08,0.08,1.0,0.77,0.46,0.23,0.46,0.08,0.69,0.77,0.77,1.0,0.08,0.54,0.54,0.08,1.0,0.69,0.54,1.0,1.0,1.0,1.0,0.77,1.0,0.54,0.62,0.54,0.54,0.54,0.54,12.47,-61.44
178,Casiguran,13256,0.15,0.08,0.08,0.31,0.08,0.08,0.08,0.08,0.08,0.54,1.0,0.08,0.08,0.08,0.69,0.15,0.42,0.85,0.08,0.54,0.31,0.08,0.54,0.85,0.77,0.08,1.0,0.08,0.08,0.54,0.08,0.77,0.23,0.08,0.31,0.77,0.77,16.56,121.26
179,Catania,62410,0.31,0.15,0.15,0.31,0.08,0.08,1.0,0.08,0.08,0.08,0.46,0.08,0.46,0.08,0.85,0.08,0.54,0.08,0.08,0.77,0.54,0.08,0.31,0.23,0.54,0.08,0.38,0.38,0.08,0.08,0.54,0.31,0.46,0.31,0.31,0.54,0.31,37.5,15.08
180,Central Pomo,30104,0.15,0.15,0.15,0.08,0.08,0.08,0.31,0.08,0.08,0.77,0.46,0.08,0.23,0.08,0.69,0.85,0.77,0.38,0.69,0.54,0.42,0.08,1.0,0.38,0.54,1.0,1.0,0.69,0.54,0.77,0.08,0.54,0.62,0.31,0.31,0.31,0.54,38.5,-122.99
181,Ch'unchu,24102,0.46,0.15,0.38,0.31,0.08,0.08,1.0,0.54,0.77,0.54,0.85,0.23,0.46,0.54,0.69,0.46,0.77,0.08,0.69,0.77,0.77,0.08,1.0,0.69,0.31,0.69,0.69,1.0,1.0,0.54,1.0,0.54,0.46,0.77,0.77,0.77,0.54,-13.41,-72.2
182,Chachi,13300,0.15,0.08,0.08,0.31,0.08,0.08,0.08,0.08,0.08,0.08,1.0,0.08,0.08,0.08,0.08,0.15,0.54,0.08,0.08,0.77,0.77,0.08,0.77,0.23,0.54,0.08,1.0,0.38,0.54,0.08,0.08,0.77,0.35,0.08,0.08,0.54,1.0,-1.46,-78.51
183,Chagga,13388,0.77,0.15,0.15,1.0,0.77,0.77,0.31,0.08,0.08,0.54,0.46,0.23,0.23,0.08,0.69,0.15,0.77,0.08,0.31,0.54,0.77,0.46,1.0,0.69,0.54,1.0,1.0,0.38,1.0,0.54,0.54,0.77,0.62,0.31,0.31,0.54,0.77,-3.28,37.51
184,Chahar,13399,0.77,0.08,0.08,0.88,0.54,0.31,0.08,0.54,0.08,1.0,1.0,0.38,0.08,0.08,0.69,0.15,0.31,0.08,0.08,1.0,0.0,0.23,0.08,0.08,0.77,0.08,1.0,0.38,0.54,1.0,0.08,0.08,0.46,0.31,0.19,0.54,1.0,40.84,111.73
185,Chahiksichahiks,23519,0.15,0.15,0.15,0.31,0.08,0.08,0.31,0.08,0.08,0.54,0.85,0.08,0.23,0.08,0.38,0.46,0.77,0.08,0.08,0.54,0.77,0.08,0.54,0.38,0.77,1.0,1.0,0.69,0.54,0.54,0.54,0.54,0.62,0.31,0.31,0.08,0.54,36.7,-97.08
186,Chamula Tzotzil,27853,1.0,0.08,0.08,1.0,0.54,0.31,0.08,0.08,0.08,0.77,0.46,1.0,0.08,0.08,0.38,0.46,1.0,0.46,0.08,0.31,0.77,1.0,1.0,0.85,0.54,0.38,0.69,0.38,1.0,0.77,1.0,0.42,0.46,0.08,0.54,0.54,0.54,16.78,-92.68
187,Chattanooga,62482,0.15,0.15,0.38,0.31,0.08,0.08,1.0,1.0,1.0,0.08,0.46,0.08,0.46,0.69,0.69,0.38,0.77,0.69,0.08,0.54,0.77,0.08,1.0,0.38,0.77,1.0,0.69,0.69,1.0,0.08,1.0,0.77,0.77,0.54,0.42,0.77,0.54,35.04,-85.3
188,Chaunsky Chuckchi,13850,0.15,0.08,0.08,0.31,0.08,0.08,0.08,0.08,0.08,0.77,0.85,0.08,0.08,0.08,0.69,0.85,0.77,1.0,0.08,0.31,0.77,0.08,0.77,0.69,0.54,0.69,1.0,0.69,0.54,0.77,0.54,0.77,0.46,0.31,0.54,0.54,0.31,68.73,177.49
189,Chechen,13476,0.15,0.15,0.15,0.31,0.08,0.08,0.31,0.08,0.08,0.08,0.46,0.08,0.46,0.08,0.38,0.38,0.54,0.38,0.08,0.54,0.54,0.08,0.54,0.69,0.54,0.08,0.08,0.38,1.0,0.08,0.54,0.54,0.62,0.31,0.54,0.08,0.31,43.4,45.71
190,Chicago S Black,30062,0.08,0.0,0.69,0.0,0.0,0.0,1.0,0.31,0.77,0.0,0.0,0.0,0.35,0.23,0.0,0.0,0.0,0.0,0.0,0.0,0.0,0.0,0.0,0.0,0.0,0.0,1.0,0.0,0.0,0.0,0.0,0.0,0.0,0.0,0.0,0.0,0.0,41.87,-87.62
191,Chinese Urban Elite,13663; 62304,0.15,0.0,0.62,0.31,0.08,0.08,0.54,0.31,0.31,0.08,1.0,0.08,0.46,0.38,0.69,0.08,0.54,0.08,0.31,0.77,0.31,0.08,0.31,0.69,0.54,0.08,0.08,0.08,0.08,0.08,0.54,0.77,0.23,0.08,0.54,0.54,0.08,35.89,117.92
192,Chioggia,17403,0.15,0.08,0.08,0.31,0.08,0.08,0.08,0.08,0.08,0.31,0.46,0.08,0.08,0.08,0.69,0.23,0.31,0.62,0.08,0.31,0.54,0.08,0.31,0.23,0.54,0.08,1.0,0.69,0.54,0.31,1.0,0.54,0.23,0.31,0.31,0.31,0.54,45.21,12.27
193,Chipaya,13701,0.69,0.69,0.46,0.54,0.54,0.54,1.0,0.54,0.31,1.0,0.69,0.23,0.46,0.38,0.85,0.85,0.54,1.0,0.08,0.54,0.54,0.08,1.0,0.38,0.77,1.0,1.0,0.38,0.08,1.0,1.0,0.31,0.77,0.31,0.77,0.77,1.0,-19.02,-68.11
194,Choctaw,13773,0.15,0.08,0.08,0.31,0.08,0.08,0.08,0.08,0.08,0.77,0.46,0.08,0.08,0.08,0.69,0.23,0.54,0.08,0.08,0.54,0.54,0.08,1.0,0.38,0.77,1.0,0.08,0.69,0.08,0.77,0.54,0.54,0.46,0.31,0.31,0.31,0.77,32.77,-89.11
195,Choiseul,13784,0.38,0.08,0.08,1.0,1.0,1.0,0.08,0.08,0.08,0.31,1.0,0.08,0.08,0.08,0.69,0.15,0.31,0.62,0.08,0.77,0.77,0.08,0.77,0.23,0.08,0.08,1.0,0.38,0.08,0.31,1.0,0.77,0.77,0.77,0.77,1.0,0.54,-7.05,156.95
196,Chokwe,13795,0.62,1.0,0.92,1.0,0.77,1.0,1.0,1.0,1.0,0.77,0.85,0.23,0.46,0.85,0.69,0.77,1.0,1.0,0.31,0.54,0.54,0.77,1.0,0.85,0.77,1.0,1.0,0.69,1.0,0.77,1.0,0.77,0.62,0.54,0.31,0.31,0.31,-9.79,22.87
197,Chopi,13806,0.77,0.15,0.15,1.0,1.0,1.0,0.31,1.0,1.0,0.31,0.46,0.23,0.46,0.08,1.0,0.77,0.77,1.0,0.08,0.77,0.54,0.08,1.0,0.85,0.54,1.0,1.0,0.69,0.54,0.31,1.0,0.77,0.62,0.54,0.54,0.31,0.77,-24.71,34.74
198,Chubu,30052,0.15,0.69,0.38,0.31,0.08,0.08,1.0,0.54,0.54,0.08,0.85,0.08,0.46,0.69,0.69,0.08,0.08,0.62,0.08,0.31,0.31,0.08,0.31,0.69,0.54,0.69,1.0,0.69,0.08,0.08,1.0,0.08,0.23,0.31,0.77,0.54,0.54,38.04,138.33
199,Chugoku ,30053,0.62,0.08,0.38,0.54,0.54,0.08,0.54,0.08,0.08,0.08,0.85,0.23,0.08,0.08,0.69,0.38,0.08,0.08,0.31,0.77,0.31,0.08,0.08,0.23,0.77,0.08,0.69,0.38,0.08,0.08,0.08,0.08,0.08,0.31,0.31,0.31,0.31,34.78,133.52
200,Chuvash,13883,0.46,0.08,0.08,1.0,0.77,0.77,0.08,0.08,0.08,0.08,0.85,0.23,0.08,0.08,0.69,0.46,0.77,0.38,0.08,0.77,0.54,0.46,1.0,0.69,0.77,1.0,1.0,0.69,0.54,0.08,1.0,0.42,0.62,0.77,0.77,0.31,0.31,53.69,54.27
201,Cluj,13894,0.15,0.08,0.08,0.31,0.08,0.08,0.08,0.08,0.08,0.08,0.85,0.08,0.08,0.08,0.69,0.46,0.54,0.38,0.69,0.54,0.54,0.08,0.54,0.23,0.54,0.08,1.0,0.38,0.54,0.08,0.54,0.54,0.77,0.77,1.0,0.54,0.54,47.31,24.75
202,Coast Salish,24740,0.15,0.15,0.46,0.31,0.08,0.08,0.31,0.08,0.08,0.77,0.85,0.23,0.23,0.08,0.69,0.46,0.54,0.38,0.08,0.54,0.77,0.08,1.0,0.23,0.31,0.38,1.0,1.0,1.0,0.77,1.0,0.77,0.62,0.54,0.54,0.77,0.77,48.38,-122.49
203,Coastal Asmat,10962,0.38,0.08,0.46,0.31,0.77,0.77,0.54,1.0,0.77,0.54,0.85,0.23,0.23,0.23,0.85,0.85,0.42,0.85,0.08,0.31,0.54,0.08,1.0,0.85,0.77,0.38,0.38,0.38,1.0,0.54,1.0,0.42,0.62,0.54,0.54,0.08,0.77,-1.33,133.17
204,Cocama,13927,0.0,0.0,0.38,0.0,0.0,0.0,0.54,0.31,0.54,0.0,0.0,0.0,0.46,0.38,0.0,0.0,0.0,0.0,0.0,0.0,0.0,0.0,0.0,0.0,0.0,0.0,1.0,0.0,0.0,0.0,0.0,0.0,0.0,0.0,0.0,0.0,0.0,-10.44,-75.15
205,Como,62483,0.15,0.0,0.15,0.31,0.08,0.08,1.0,0.0,0.08,0.31,0.85,0.08,0.46,0.08,1.0,0.31,1.0,1.0,0.08,0.77,0.54,0.08,0.77,0.38,0.77,0.69,1.0,0.69,1.0,0.31,1.0,0.77,0.62,0.54,0.31,1.0,1.0,-10.44,-75.15
206,Comoros,14004,0.15,0.08,0.38,0.54,0.08,0.54,0.54,0.54,0.77,0.31,0.46,0.23,0.46,0.54,0.69,0.08,0.54,0.08,0.08,0.54,0.31,0.08,0.31,0.38,0.54,0.38,1.0,0.08,0.54,0.31,1.0,0.77,0.23,0.08,0.54,0.54,0.54,-18.87,47.5
207,Cook Is Maori,14037,0.46,0.08,0.08,1.0,1.0,1.0,1.0,0.08,0.08,0.31,0.85,0.23,0.08,0.08,0.69,0.23,0.77,0.08,0.08,1.0,0.54,0.62,1.0,0.85,0.77,1.0,1.0,1.0,1.0,0.31,1.0,0.54,0.62,0.54,0.77,0.31,0.31,-21.22,-159.77
208,Cora,14081,0.15,0.15,0.15,0.31,0.08,0.08,0.31,0.08,0.08,0.54,0.85,0.08,0.46,0.08,0.69,0.46,0.54,0.38,0.08,0.54,0.54,0.08,0.77,0.85,0.54,1.0,1.0,0.69,0.54,0.54,1.0,0.54,0.46,0.31,0.54,0.54,0.54,22.03,-104.93
209,Cork,50246,0.15,0.08,0.08,0.31,0.08,0.08,0.08,0.08,0.08,0.31,0.46,0.08,0.08,0.08,0.69,0.15,0.77,0.08,0.31,0.77,0.54,0.08,0.77,0.69,0.31,0.69,0.08,1.0,0.54,0.31,1.0,0.77,0.46,0.77,1.0,0.77,0.08,51.9,-8.95
210,Costeño,13982,0.46,0.15,0.38,1.0,0.54,0.77,1.0,0.54,1.0,0.08,0.46,0.23,0.46,0.69,0.69,0.46,0.77,0.08,0.19,0.54,0.54,0.62,1.0,0.69,0.54,1.0,1.0,1.0,1.0,0.08,1.0,0.54,0.46,0.54,0.54,0.54,0.31,11.24,-74.21
211,Coyaha,29129,0.62,0.08,0.15,0.54,1.0,0.54,0.31,0.08,0.08,0.77,0.85,0.23,0.23,0.08,0.69,0.46,0.77,1.0,0.31,0.54,0.77,0.08,0.77,0.38,0.54,1.0,1.0,0.69,0.54,0.77,0.54,0.54,0.62,0.31,0.31,0.31,0.54,36.7,-97.08
212,Crete,14147,0.15,0.08,0.08,0.31,0.08,0.08,0.08,0.08,0.08,0.54,1.0,0.08,0.08,0.08,0.69,0.31,0.54,0.62,0.31,0.54,0.31,0.08,0.08,0.23,0.54,0.08,1.0,0.69,0.54,0.54,0.54,0.54,0.35,0.31,0.31,0.54,0.31,35.27,24.28
213,Crişana,24432,0.15,0.08,0.08,0.31,0.08,0.08,0.08,0.08,0.08,0.31,0.69,0.08,0.08,0.08,0.08,0.15,0.77,0.08,0.08,0.31,0.54,0.08,0.54,0.38,0.31,0.38,1.0,0.38,0.54,0.31,1.0,0.54,0.62,0.77,1.0,0.77,0.54,46.72,21.9
214,Croatian Istria,17330,0.46,0.08,0.08,1.0,1.0,1.0,0.08,0.08,0.08,0.54,0.46,0.23,0.08,0.08,0.85,0.46,0.42,0.23,0.31,0.54,0.54,0.77,0.77,0.69,0.77,0.69,0.08,0.69,0.08,0.54,0.54,0.31,0.46,0.31,0.54,0.31,0.54,45.08,13.85
215,Cuneo,23662,0.46,0.08,0.08,1.0,0.77,0.77,0.08,0.08,0.08,0.31,0.46,0.23,0.08,0.08,0.69,0.46,0.54,0.69,0.69,0.54,0.54,0.08,1.0,0.69,0.54,1.0,1.0,0.69,1.0,0.31,1.0,0.54,0.46,0.77,0.54,0.54,0.54,45.73,7.42
216,Dagestan,30088,0.92,0.08,0.08,1.0,0.77,1.0,0.08,0.08,0.08,0.31,0.85,0.54,0.08,0.08,1.0,0.46,0.54,0.46,0.08,0.54,0.54,0.23,1.0,0.69,0.54,0.69,1.0,0.69,1.0,0.31,1.0,1.0,0.62,0.31,0.77,0.54,0.54,42.97,47.51
217,Dakelh,13234,0.15,0.08,0.08,0.31,0.08,0.08,0.08,0.08,0.08,0.77,0.85,0.08,0.08,0.08,0.38,0.46,0.54,0.23,0.08,0.54,0.54,0.08,1.0,0.38,0.31,0.38,1.0,0.69,0.54,0.77,0.54,0.77,0.62,0.31,0.54,0.77,0.77,55.25,-127.67
218,Dan,15929,1.0,0.92,0.92,1.0,1.0,0.77,1.0,0.77,1.0,0.77,0.46,1.0,0.46,0.85,0.69,0.88,1.0,1.0,1.0,1.0,1.0,1.0,1.0,0.69,0.77,1.0,1.0,0.69,1.0,0.77,1.0,1.0,0.88,0.54,0.77,0.31,0.77,6.41,-10.75
219,Dani,14378,1.0,0.08,0.08,1.0,0.77,1.0,0.08,0.08,0.08,0.54,1.0,0.23,0.08,0.08,0.69,0.85,1.0,1.0,0.08,0.31,0.54,0.08,1.0,0.38,0.77,1.0,1.0,1.0,0.54,0.54,1.0,0.77,0.62,0.77,0.77,0.77,0.77,-4.02,138.89
220,Danish,14444,0.15,0.15,0.15,0.31,0.08,0.08,1.0,0.08,0.08,0.08,0.46,0.08,0.46,0.08,0.69,0.46,0.54,0.23,0.69,0.54,0.77,0.08,1.0,0.69,0.54,1.0,1.0,1.0,1.0,0.08,1.0,0.54,0.62,0.77,0.77,0.54,0.31,56.65,9.97
221,Danzig,50262,0.15,0.08,0.08,0.31,0.08,0.08,0.08,0.08,0.08,0.54,0.46,0.08,0.08,0.08,0.69,0.85,0.54,0.85,0.69,0.77,0.77,0.08,1.0,0.23,0.54,0.38,1.0,1.0,1.0,0.54,1.0,0.54,0.46,0.54,0.54,0.31,0.31,54.35,18.64
222,Datooga,30011,0.62,0.15,0.15,0.54,0.77,1.0,0.31,0.08,0.08,0.54,0.69,0.23,0.08,0.08,0.69,0.46,0.77,1.0,0.08,0.77,0.54,0.08,1.0,0.69,0.31,1.0,1.0,1.0,1.0,0.54,1.0,0.54,0.46,0.77,1.0,0.54,1.0,-4.31,36.95
223,Dauanalgal,30200,0.08,0.0,0.15,0.0,0.0,0.0,0.31,0.08,0.0,0.0,0.0,0.0,1.0,0.08,0.0,0.0,0.0,0.0,0.0,0.0,0.0,0.0,0.0,0.0,0.0,0.0,0.08,0.0,0.0,0.0,0.0,0.0,0.0,0.0,0.0,0.0,0.0,-4.31,36.95
224,Dawawa,11606,0.46,0.23,0.46,0.54,0.54,0.77,0.54,0.54,0.54,0.54,0.46,0.23,0.69,0.23,0.69,0.85,0.77,0.85,0.69,0.54,0.77,0.08,1.0,0.69,0.54,0.69,0.69,1.0,1.0,0.54,0.54,0.54,0.62,0.54,0.31,0.54,0.77,-9.78,149.88
225,Dayak,14862,0.15,0.08,0.08,0.31,0.08,0.31,0.08,0.08,0.08,0.31,1.0,0.38,0.08,0.08,0.08,0.77,0.08,1.0,0.08,0.31,0.54,0.08,0.31,0.08,0.31,0.08,1.0,0.38,0.08,0.31,1.0,0.77,0.46,0.54,0.54,0.77,0.77,-2.07,110.87
226,Deggendorf,50263,0.46,0.15,0.15,1.0,0.54,0.54,1.0,0.08,0.08,0.31,0.46,0.23,0.46,0.08,0.08,0.46,0.77,0.46,0.69,0.54,0.54,0.62,1.0,0.38,0.31,0.69,0.69,1.0,1.0,0.31,1.0,0.54,0.62,0.54,0.54,0.77,0.77,48.78,13.05
227,Dervish,14466,0.15,0.08,0.08,0.54,0.54,0.08,0.08,0.08,0.08,0.08,1.0,0.08,0.08,0.08,0.08,0.85,0.31,1.0,0.08,0.31,0.31,0.08,0.54,1.0,0.77,0.08,1.0,0.38,0.54,0.08,0.54,0.54,0.23,0.08,0.31,0.54,0.31,37.87,32.49
228,Dhurwa Gond,14477,0.38,0.08,0.08,0.54,0.77,0.54,0.08,0.08,0.08,0.54,0.85,0.23,0.08,0.08,0.69,0.92,0.77,0.62,0.31,0.54,0.31,0.08,0.77,0.69,0.77,0.69,1.0,0.38,0.54,0.54,1.0,0.54,0.77,0.77,0.77,0.77,0.77,18.75,81.78
229,Diné (Navaho),22243,0.46,0.08,0.08,0.54,0.54,0.77,0.08,0.08,0.08,0.77,0.85,0.23,0.08,0.08,0.69,0.23,0.31,0.08,0.08,0.54,0.77,0.08,0.77,0.69,0.77,1.0,1.0,0.38,1.0,0.77,0.54,0.54,0.35,0.31,0.31,0.31,0.54,36.06,-109.18
230,Dinka,14576,0.15,0.08,0.08,0.54,0.08,0.08,0.08,0.08,0.08,0.77,0.85,0.23,0.08,0.08,0.69,0.08,0.77,1.0,0.31,0.77,0.77,0.08,1.0,0.69,0.77,1.0,1.0,0.69,1.0,0.77,1.0,0.54,0.62,0.54,0.54,0.54,0.31,7.78,33.0
231,Dizi,20477,0.96,1.0,1.0,1.0,0.77,0.77,1.0,1.0,0.77,1.0,0.69,1.0,0.69,0.69,0.85,0.92,0.77,0.85,0.08,0.77,0.77,1.0,1.0,0.69,0.77,0.69,1.0,0.69,0.08,1.0,0.54,0.77,0.62,0.54,0.77,0.54,1.0,6.17,35.58
232,Dobrudzha,14653,0.15,0.08,0.08,0.31,0.08,0.08,0.08,0.08,0.08,0.08,1.0,0.08,0.08,0.08,0.08,0.38,0.08,0.46,0.08,0.54,0.54,0.08,0.31,0.23,0.54,0.08,1.0,0.69,0.08,0.08,0.54,0.77,0.69,0.77,1.0,0.31,0.31,43.53,28.53
233,Dobu,14664,0.46,0.08,0.08,0.54,0.77,0.77,0.08,0.08,0.08,0.54,0.85,0.23,0.08,0.08,0.69,0.85,0.77,0.85,0.08,0.54,0.77,0.08,1.0,0.69,0.54,1.0,0.08,0.69,0.54,0.54,1.0,0.77,0.46,0.54,0.31,0.54,0.77,-9.64,150.69
234,Dogon,14675,0.62,0.15,0.46,0.54,0.77,0.54,0.54,1.0,1.0,0.77,0.85,0.23,0.46,0.54,0.69,0.15,0.54,0.08,0.08,0.54,0.54,0.08,1.0,0.69,0.54,1.0,1.0,0.69,1.0,0.77,1.0,0.54,0.62,0.31,0.31,0.31,0.31,14.42,-3.32
235,Dominica,14697,0.62,0.08,0.08,0.54,0.54,0.77,0.08,0.08,0.08,0.77,0.46,0.23,0.08,0.08,0.69,0.46,0.77,1.0,0.08,0.54,0.54,0.08,1.0,0.69,0.54,1.0,1.0,1.0,1.0,0.77,1.0,0.54,0.62,0.31,0.31,0.54,0.54,15.36,-61.39
236,Donegal,50247,0.08,0.0,0.08,0.0,0.0,0.0,0.08,0.08,0.0,0.0,0.0,0.0,0.08,0.08,0.0,0.0,0.0,0.0,0.0,0.0,0.0,0.0,0.0,0.0,0.0,0.0,0.08,0.0,0.0,0.0,0.0,0.0,0.0,0.0,0.0,0.0,0.0,55.04,-8.22
237,Dong,14702,0.77,0.08,0.08,1.0,0.54,0.77,0.08,0.08,0.08,0.54,0.85,0.23,0.08,0.08,0.69,0.15,0.31,0.08,0.69,0.54,0.54,0.23,0.54,0.38,0.77,0.08,1.0,0.69,0.54,0.54,0.54,0.77,0.23,0.31,0.77,0.54,0.31,26.64,106.63
238,Dorla,14708,0.38,0.08,0.08,0.77,0.77,0.54,0.08,0.08,0.08,0.54,0.85,0.23,0.08,0.08,0.69,0.92,0.54,0.85,0.08,0.54,0.54,0.08,0.77,0.69,0.54,0.69,1.0,0.38,0.54,0.54,1.0,0.54,0.62,0.54,0.54,0.54,0.54,24.61,80.48
239,Dorze,14774,0.77,0.08,0.08,1.0,0.77,0.77,0.08,0.08,0.08,0.77,0.46,0.23,0.08,0.08,0.85,0.31,1.0,1.0,0.85,0.77,1.0,1.0,1.0,0.85,0.77,0.69,0.08,0.69,0.54,0.77,0.31,0.42,0.62,0.54,0.19,0.31,0.31,6.25,37.0
240,Dragas,14752,0.46,0.08,0.08,1.0,0.54,1.0,0.08,0.08,0.08,0.54,0.46,0.23,0.46,0.08,0.85,0.46,0.77,0.23,0.31,0.54,0.54,0.77,0.54,0.69,0.77,1.0,1.0,0.69,0.54,0.54,0.54,0.54,0.77,0.54,0.77,0.31,0.54,42.06,20.65
241,Dublin,50250,0.15,0.08,0.08,0.31,0.08,0.08,0.08,0.08,0.08,0.31,0.46,0.08,0.08,0.08,0.69,0.46,0.54,0.23,0.69,0.77,0.54,0.08,0.77,0.69,0.54,0.69,0.08,1.0,1.0,0.31,0.54,0.54,0.46,0.31,0.31,0.54,0.08,53.92,-8.03
242,Duke of York,14801,0.46,0.23,0.46,0.54,0.77,0.77,0.54,0.77,0.77,0.77,0.85,0.23,0.85,0.38,0.69,0.77,0.31,1.0,0.08,0.77,0.54,0.08,0.77,0.85,0.77,0.69,0.69,0.69,0.54,0.77,1.0,0.77,0.62,0.54,0.77,0.54,0.54,-4.16,152.46
243,Dumo,28183,0.46,0.69,0.46,0.54,0.54,0.77,0.54,1.0,0.54,0.54,0.85,0.23,0.35,0.23,0.69,0.85,0.08,1.0,0.08,0.54,0.77,0.08,0.77,0.69,0.54,0.69,1.0,0.38,0.54,0.54,0.54,0.54,0.23,0.08,0.31,0.31,0.77,-2.68,141.29
244,Duoro,22065,0.62,0.08,0.08,1.0,0.77,0.77,0.08,0.08,0.08,0.08,0.46,0.23,0.08,0.08,0.69,0.23,0.54,0.62,0.08,0.54,0.54,0.08,1.0,0.85,0.54,0.38,1.0,0.69,1.0,0.08,1.0,0.42,0.62,0.31,0.31,0.54,0.31,40.97,-8.59
245,Durham Pitmen,14818,0.46,0.08,0.08,0.54,0.54,0.77,0.08,0.08,0.08,0.31,0.46,0.23,0.08,0.08,0.69,0.46,0.77,0.46,0.69,0.54,0.77,0.08,1.0,0.69,0.54,1.0,1.0,1.0,1.0,0.31,1.0,0.77,0.62,0.77,0.77,0.54,0.31,54.89,-1.57
246,Dust Bowl,62446,0.15,0.15,0.15,0.31,0.08,0.08,1.0,0.08,0.08,0.08,0.46,0.08,0.46,0.08,0.0,0.46,0.54,0.46,0.85,0.54,0.54,0.08,1.0,0.69,0.54,1.0,1.0,0.69,0.54,0.08,1.0,0.54,0.23,0.54,0.54,0.54,0.31,35.43,-96.3
247,Dusun,14840,0.15,0.08,0.08,0.31,0.08,0.08,0.08,0.08,0.08,0.08,0.46,0.08,0.08,0.08,1.0,0.85,0.31,1.0,0.08,0.77,0.77,0.08,0.77,0.0,0.31,0.0,0.69,0.38,0.54,0.08,1.0,0.0,0.62,0.54,0.0,0.77,0.77,0.96,114.55
248,Eastern Pomo,23849,0.15,0.62,0.15,0.31,0.08,0.08,0.31,0.08,0.08,0.77,0.85,0.08,0.23,0.08,0.69,0.62,0.77,1.0,0.08,0.31,0.77,0.08,0.77,0.69,0.31,1.0,1.0,1.0,1.0,0.77,0.54,0.54,0.46,0.31,0.31,0.54,0.54,38.95,-122.62
249,Ecclesiatic N Germans,30105,0.0,0.0,0.0,0.0,0.0,0.0,0.0,0.0,0.0,0.0,0.0,0.0,0.0,0.0,0.0,0.0,0.0,0.0,0.0,0.0,0.0,0.0,0.0,0.0,0.0,0.0,0.0,0.0,0.0,0.0,0.0,0.0,0.0,0.0,0.0,0.0,0.0,50.66,8.04
250,Egypt,14994,0.15,0.62,0.38,0.31,0.54,0.08,0.31,0.08,0.08,0.31,1.0,0.23,0.46,0.08,0.69,0.15,0.77,0.08,0.31,0.54,0.31,0.08,0.31,0.69,0.54,0.69,1.0,0.69,0.54,0.31,0.54,0.77,0.23,0.31,0.54,0.31,0.31,30.9,31.11
251,Eipo,14999,1.0,0.08,0.08,0.88,0.77,0.31,0.08,0.08,0.08,0.77,0.85,1.0,0.08,0.08,0.69,0.85,1.0,0.85,0.08,0.31,0.54,1.0,1.0,0.85,0.54,0.69,0.08,0.69,1.0,0.77,1.0,0.54,0.46,0.31,0.54,0.77,0.77,-4.41,140.01
252,Ekonda Mongo,15027,0.77,0.15,0.46,1.0,1.0,1.0,1.0,0.08,1.0,0.77,0.85,0.23,0.46,0.08,0.69,0.77,0.77,1.0,0.08,0.77,0.77,0.62,1.0,0.85,0.54,1.0,1.0,0.69,1.0,0.77,1.0,0.54,0.77,0.77,0.54,0.31,0.54,-0.74,18.11
253,El Molo,30044,0.54,0.08,0.08,0.88,1.0,0.31,0.08,0.08,0.08,0.54,1.0,0.38,0.08,0.08,1.0,0.08,0.08,0.08,0.31,0.77,0.77,0.35,1.0,0.23,1.0,0.08,1.0,0.08,0.08,0.54,1.0,0.65,0.77,1.0,1.0,0.77,1.0,3.12,35.58
254,Ema,27116,0.85,0.08,0.08,1.0,0.77,0.77,0.08,0.08,0.08,0.77,0.85,0.23,0.08,0.08,0.69,0.85,0.31,0.85,0.0,0.77,0.77,1.0,1.0,0.38,0.77,0.08,0.08,0.38,0.54,0.77,1.0,0.77,0.62,0.54,0.54,0.31,0.77,-8.99,125.21
255,Emberá,13762,0.08,0.0,0.46,0.0,0.0,0.0,0.77,0.31,0.31,0.0,0.0,0.0,1.0,0.0,0.0,0.0,0.0,0.0,0.0,0.0,0.0,0.0,0.0,0.0,0.0,0.0,0.69,0.0,0.0,0.0,0.0,0.0,0.0,0.0,0.0,0.0,0.0,5.25,-76.82
256,Emilia-Romagna,17375,0.15,0.0,0.46,0.08,0.08,0.08,1.0,0.0,0.77,0.54,1.0,0.08,0.46,1.0,0.69,0.31,0.77,0.23,0.08,0.54,0.54,0.08,0.31,0.08,0.77,0.38,1.0,1.0,0.08,0.54,0.08,0.31,0.46,0.54,0.31,0.31,0.31,44.34,10.49
257,Enga,30040,0.62,0.08,0.08,0.54,0.54,0.77,0.08,0.08,0.08,0.08,1.0,0.23,0.08,0.08,0.69,0.85,0.77,0.08,0.69,0.31,0.31,0.08,1.0,0.69,0.77,0.08,1.0,0.08,1.0,0.08,1.0,0.31,0.23,0.54,0.77,0.31,0.54,-5.62,144.25
258,Enna,62496,0.15,0.08,0.08,0.31,0.08,0.08,0.08,0.08,0.08,0.08,0.85,0.08,0.08,0.08,0.08,0.46,0.77,0.46,0.08,0.54,0.77,0.08,0.77,0.38,0.77,0.38,1.0,0.69,0.54,0.08,0.08,0.54,0.62,0.31,0.31,0.54,0.31,37.74,14.39
259,Eritrean Rashaida,24195,0.92,0.15,0.15,1.0,0.77,0.77,1.0,0.08,0.08,0.54,0.46,0.23,0.46,0.08,0.69,0.92,0.31,1.0,0.69,0.77,0.54,0.62,0.77,0.69,0.54,1.0,1.0,0.69,0.54,0.54,1.0,0.42,0.46,0.31,0.54,0.54,0.54,14.94,39.15
260,Espiritu Santo,15170,0.38,0.69,0.46,1.0,0.77,1.0,0.54,1.0,0.77,0.77,0.85,0.23,0.85,0.23,0.69,0.46,0.77,0.23,0.31,0.54,0.77,0.08,1.0,0.85,0.77,0.69,0.69,0.69,1.0,0.77,1.0,0.77,0.62,0.77,0.54,0.31,0.77,-15.3,166.91
261,Estonian,15181,0.15,0.08,0.08,0.31,0.08,0.08,0.08,0.08,0.08,0.31,0.46,0.08,0.08,0.08,0.69,0.92,0.54,1.0,0.08,0.31,0.54,0.08,0.77,0.38,0.54,0.69,1.0,1.0,1.0,0.31,0.54,0.54,0.62,0.31,0.77,0.31,0.31,58.36,25.58
262,Evenki,27666,0.15,0.08,0.08,0.31,0.08,0.08,0.08,0.08,0.08,0.54,0.46,0.08,0.08,0.08,0.69,0.69,0.77,0.85,0.08,0.31,0.77,0.08,1.0,0.38,0.77,0.69,1.0,0.69,1.0,0.54,0.08,0.77,0.46,0.31,0.31,0.54,0.54,66.76,124.12
263,Ewe,30163,0.62,0.23,0.92,0.54,0.77,1.0,1.0,1.0,1.0,0.77,0.46,0.23,0.46,0.85,0.69,0.15,0.54,0.08,0.69,0.54,0.77,0.08,1.0,0.69,0.54,1.0,1.0,1.0,1.0,0.77,1.0,0.54,0.62,1.0,1.0,0.77,0.77,5.6,-0.18
264,Extremadura,26075,0.15,0.08,0.08,0.54,0.08,0.08,0.08,0.08,0.08,0.08,0.85,0.23,0.08,0.08,0.69,0.46,0.54,0.08,0.08,0.54,0.54,0.08,0.77,0.69,0.31,0.69,1.0,0.69,1.0,0.08,1.0,0.54,0.62,0.54,0.31,0.54,0.31,39.45,-5.87
265,Fakfak,15247,0.46,0.08,0.08,0.54,1.0,0.77,0.08,0.08,0.08,0.08,1.0,0.23,0.08,0.08,0.69,0.77,0.31,0.85,0.31,0.77,0.77,0.08,0.54,0.23,0.54,0.08,1.0,0.08,0.08,0.08,1.0,1.0,0.77,1.0,1.0,0.77,1.0,-3.09,133.01
266,Falasha,17587,0.31,0.08,0.08,0.77,0.54,0.08,0.08,0.08,0.08,0.08,1.0,0.08,0.08,0.08,0.08,0.08,0.31,0.08,0.08,0.54,0.31,0.08,0.08,0.38,0.54,0.08,0.08,0.38,0.08,0.08,1.0,0.54,0.23,0.31,0.31,0.54,0.54,12.0,37.25
267,Fang,30187,0.85,0.08,0.08,1.0,1.0,1.0,0.08,0.08,0.08,0.77,0.46,0.23,0.08,0.08,0.69,0.15,0.77,1.0,0.69,0.54,0.77,0.46,1.0,0.85,0.54,1.0,1.0,1.0,1.0,0.77,1.0,0.54,0.77,1.0,1.0,0.54,0.77,2.15,12.13
268,Fante,15280,0.77,0.15,0.92,1.0,1.0,1.0,1.0,1.0,1.0,0.77,0.69,0.23,0.46,0.85,0.69,0.15,0.77,0.08,0.69,0.31,0.77,0.46,1.0,0.85,0.54,1.0,1.0,1.0,1.0,0.77,1.0,0.54,0.62,1.0,1.0,0.54,0.77,5.13,-1.27
269,Faroe Islands,15225,0.46,0.23,0.46,0.54,0.54,0.77,0.54,1.0,0.77,0.31,0.46,0.23,0.46,0.23,0.69,0.46,0.77,0.23,0.69,0.54,0.54,0.08,1.0,0.69,0.77,1.0,1.0,1.0,1.0,0.31,1.0,0.54,0.62,0.54,0.54,0.08,0.54,62.01,-6.77
270,Fataleka,15282,0.38,0.08,0.08,1.0,0.77,0.77,0.08,0.08,0.08,0.77,0.46,0.23,0.08,0.08,0.69,0.92,0.31,1.0,0.69,0.77,1.0,0.08,1.0,0.38,0.31,0.69,0.69,0.69,0.54,0.77,0.54,1.0,1.0,0.42,1.0,0.77,1.0,-8.94,160.9
271,Feroleto Antico,30048,0.85,0.0,0.08,1.0,0.54,0.54,0.08,0.08,0.08,0.08,0.85,1.0,0.08,0.08,0.69,0.38,0.42,0.38,0.08,0.77,0.54,0.77,0.54,0.23,0.77,0.08,0.69,0.38,0.08,0.08,0.54,0.31,0.46,0.31,0.31,0.31,0.54,39.96,16.38
272,Fiji,15302,0.38,0.23,0.38,1.0,1.0,1.0,0.54,0.77,0.77,0.54,0.46,0.23,0.46,0.54,0.69,0.85,0.77,1.0,0.85,0.77,0.54,0.77,1.0,0.69,0.54,1.0,1.0,0.69,1.0,0.54,1.0,0.77,0.77,0.77,0.77,0.54,0.54,-18.89,178.4
273,Finnish,15313,0.15,0.08,0.08,0.31,0.08,0.08,0.08,0.08,0.08,0.54,0.46,0.08,0.08,0.08,0.69,0.46,0.77,0.23,0.08,0.54,0.77,0.08,1.0,0.38,0.77,1.0,1.0,1.0,1.0,0.54,1.0,0.77,0.46,0.54,0.54,0.54,0.31,64.12,29.52
274,Fon,15390,0.62,0.08,0.08,0.54,0.54,0.54,0.08,0.08,0.08,0.54,0.85,0.23,0.08,0.08,0.69,0.62,0.77,1.0,0.31,0.54,0.77,0.08,1.0,0.69,0.77,1.0,1.0,0.69,1.0,0.54,1.0,0.54,0.23,0.31,0.31,0.54,0.77,7.18,1.99
275,Fore,15401,0.15,0.08,0.08,0.54,0.08,0.31,0.08,0.08,0.08,0.54,0.85,0.23,0.08,0.08,0.69,0.77,0.54,0.85,0.69,0.31,0.54,0.08,1.0,0.38,0.08,0.38,1.0,1.0,1.0,0.54,1.0,0.77,0.62,0.54,0.54,1.0,0.77,-6.52,145.61
276,Forest Bira,15412,0.88,0.15,0.15,1.0,0.54,0.77,0.31,0.08,0.08,0.54,0.46,1.0,0.46,0.08,0.69,0.85,0.77,0.85,0.08,0.54,0.77,1.0,1.0,0.38,0.77,0.69,1.0,0.08,0.08,0.54,1.0,0.42,0.81,0.31,0.31,0.31,0.54,-0.79,29.04
277,French Basques,15500,0.15,0.08,0.08,0.31,0.08,0.08,0.08,0.08,0.08,0.08,0.46,0.08,0.08,0.08,0.69,0.38,0.54,0.23,0.08,0.31,0.54,0.08,1.0,0.38,0.31,0.38,1.0,1.0,1.0,0.08,1.0,0.54,0.46,0.77,0.54,0.31,0.54,43.31,-1.58
278,French Canadians,15489,0.15,0.08,0.08,0.31,0.08,0.08,0.08,0.08,0.08,0.08,0.85,0.08,0.08,0.08,0.69,0.46,0.77,0.23,0.69,0.54,0.54,0.08,1.0,0.38,0.54,1.0,1.0,0.69,1.0,0.08,1.0,0.54,0.46,0.31,0.54,0.54,0.54,48.83,-64.48
279,Friuli,15522,0.46,0.08,0.08,1.0,0.54,0.77,0.08,0.08,0.08,0.08,0.46,0.23,0.08,0.08,0.69,0.46,0.77,0.46,0.85,1.0,0.54,0.77,1.0,0.69,0.54,0.69,1.0,0.69,1.0,0.08,1.0,0.77,0.62,0.77,0.54,0.54,0.31,46.07,13.23
280,Fur,15566,0.77,0.15,0.15,0.77,0.31,0.31,0.31,0.08,0.08,0.31,0.46,0.23,0.46,0.08,0.85,0.85,0.54,1.0,0.31,0.77,0.54,0.08,0.54,0.69,0.77,0.69,1.0,0.38,1.0,0.31,0.54,0.77,0.35,0.19,0.31,0.31,0.77,12.89,23.47
281,Fut,15577,0.15,0.15,0.15,1.0,0.08,1.0,0.54,0.08,0.08,0.77,0.46,0.08,0.46,0.08,0.69,0.85,0.54,1.0,0.31,0.54,0.77,0.08,1.0,0.69,0.31,1.0,1.0,0.69,1.0,0.77,1.0,0.77,0.77,0.77,0.77,0.77,0.77,6.09,10.3
282,Fuyuge,15610,0.15,0.08,0.08,0.31,0.08,0.08,0.08,0.08,0.08,0.54,1.0,0.08,0.08,0.08,0.38,0.38,0.31,0.69,0.31,0.77,0.77,0.08,0.54,0.23,0.31,0.08,1.0,0.08,0.54,0.54,1.0,0.08,0.77,0.54,1.0,0.77,0.54,-8.81,146.53
283,Gaagudju,30097,0.15,0.08,0.15,0.31,0.08,0.08,0.31,0.08,0.08,0.54,1.0,0.08,0.23,0.08,1.0,0.77,0.31,0.08,0.08,0.77,0.31,0.08,0.54,0.23,0.77,0.08,1.0,0.38,0.08,0.54,1.0,0.77,0.08,0.08,0.31,0.31,0.31,-8.81,146.53
284,Gadaba,15643,0.38,0.08,0.08,1.0,0.31,0.31,0.08,0.08,0.08,0.54,0.85,0.38,0.08,0.08,0.69,0.92,0.77,0.85,0.08,0.54,0.54,0.46,0.54,0.69,0.77,0.69,1.0,0.69,1.0,0.54,1.0,0.77,0.62,0.31,0.77,0.77,0.54,21.77,84.36
285,Galicia,15676,0.46,0.08,0.08,0.54,0.77,0.77,0.08,0.08,0.08,0.31,0.85,0.23,0.08,0.08,0.08,0.46,0.54,0.08,0.31,0.54,0.54,0.08,0.77,0.69,0.77,1.0,1.0,0.69,0.54,0.31,1.0,0.54,0.62,0.77,0.77,0.54,0.31,42.94,-9.19
286,Galway,50249,0.15,0.08,0.08,0.31,0.08,0.08,0.08,0.08,0.08,0.08,1.0,0.08,0.08,0.08,0.08,0.38,0.42,0.38,0.08,0.77,0.31,0.08,0.31,0.23,0.31,0.08,1.0,0.69,0.08,0.08,0.54,0.54,0.35,0.31,0.31,0.54,0.54,53.27,-9.05
287,Gamo,15703,1.0,0.08,0.08,1.0,0.77,0.77,0.54,1.0,0.08,1.0,0.46,0.69,0.46,0.08,0.69,0.77,1.0,1.0,0.69,0.54,0.77,1.0,1.0,0.85,0.77,1.0,1.0,1.0,1.0,1.0,1.0,0.54,0.62,0.54,0.54,0.31,0.54,6.25,37.0
288,Gargano,17359,0.15,0.15,0.15,0.31,0.08,0.08,1.0,0.08,0.08,0.08,0.46,0.08,0.46,0.08,0.69,0.38,0.54,0.38,0.08,0.54,0.54,0.08,0.77,0.38,0.54,0.08,1.0,0.38,0.54,0.08,0.54,0.54,0.08,0.31,0.31,0.54,0.31,41.82,15.77
289,Garhwal,15720,0.62,0.15,0.15,0.54,0.54,0.54,0.31,0.08,0.08,0.54,0.69,0.23,0.69,0.08,0.69,0.62,0.77,1.0,0.85,0.31,0.31,0.08,0.31,0.69,0.54,0.69,0.69,0.69,0.0,0.54,0.54,0.54,0.35,0.31,0.31,0.42,0.08,30.21,78.92
290,Garifuna,12321,0.85,1.0,1.0,1.0,0.54,0.77,1.0,1.0,1.0,0.54,0.85,0.23,0.46,0.85,1.0,0.77,0.54,0.85,0.08,0.31,0.77,0.46,1.0,0.85,0.77,1.0,1.0,0.69,1.0,0.54,1.0,0.31,0.23,0.31,0.31,0.31,0.77,15.91,-85.95
291,Garre,15725,0.77,0.23,0.38,0.54,0.77,0.77,0.54,1.0,0.77,0.77,0.46,0.23,0.23,0.23,0.69,0.77,1.0,1.0,0.08,0.54,0.77,0.08,1.0,0.69,0.77,0.69,0.69,0.69,1.0,0.77,1.0,0.77,0.46,0.54,0.42,0.54,0.77,7.54,40.63
292,Gbaya Bodoe,30009,0.46,0.15,0.92,0.54,1.0,1.0,1.0,1.0,1.0,0.77,0.69,0.23,0.69,0.85,0.69,0.85,0.77,1.0,0.08,1.0,0.77,0.08,1.0,0.69,0.31,1.0,1.0,1.0,1.0,0.77,1.0,0.54,0.77,1.0,1.0,1.0,0.77,5.94,15.6
293,Gelao,15780,0.69,0.08,0.08,1.0,0.54,0.77,0.08,0.08,0.08,0.31,0.85,0.23,0.08,0.08,0.69,0.38,0.54,0.62,0.69,0.54,0.54,0.46,0.77,0.85,0.77,0.38,1.0,0.69,0.54,0.31,1.0,0.54,0.23,0.54,0.77,0.31,0.54,22.81,108.36
294,Genoa,19922,1.0,0.08,0.08,1.0,1.0,1.0,0.08,0.08,0.08,0.77,0.85,1.0,0.08,0.08,0.69,0.15,0.31,0.08,0.85,1.0,0.54,0.88,0.31,0.85,0.77,0.38,1.0,1.0,0.08,0.77,1.0,1.0,1.0,0.77,0.77,0.31,0.54,44.4,8.94
295,Georgia Sea Islands,62424,0.15,0.08,0.08,1.0,0.08,0.77,0.08,0.08,0.08,0.31,0.46,0.08,0.08,0.08,0.69,0.31,0.54,1.0,0.69,0.77,0.54,0.08,0.77,0.69,0.54,1.0,1.0,0.38,1.0,0.31,1.0,0.77,0.62,0.77,0.54,0.77,0.77,31.2,-81.33
296,German American Midwest,62507,0.15,0.08,0.08,0.31,0.08,0.08,0.08,0.08,0.08,0.08,0.46,0.08,0.08,0.08,0.69,0.38,0.54,0.46,0.69,0.54,0.54,0.08,0.77,0.38,0.54,0.38,1.0,1.0,1.0,0.08,1.0,0.77,0.62,0.54,0.54,0.54,0.54,31.2,-81.33
297,German American N E,30136,0.08,0.0,0.46,0.0,0.0,0.0,1.0,0.54,0.31,0.0,0.0,0.0,0.46,1.0,0.0,0.0,0.0,0.0,0.0,0.0,0.0,0.0,0.0,0.0,0.0,0.0,0.38,0.0,0.0,0.0,0.0,0.0,0.0,0.0,0.0,0.0,0.0,39.99,-74.17
298,Ghana: Urban,15868,0.77,0.0,1.0,1.0,0.0,0.0,1.0,0.0,1.0,0.31,0.46,0.23,0.46,0.85,0.85,0.38,0.77,0.23,0.69,0.0,0.54,0.62,1.0,0.85,0.54,1.0,1.0,0.69,1.0,0.31,1.0,0.54,0.62,0.31,0.77,0.31,0.54,6.66,-1.61
299,Ghegs,10297,0.15,0.08,0.08,0.31,0.08,0.08,0.08,0.08,0.08,0.31,0.69,0.08,0.08,0.08,0.69,0.85,0.54,1.0,0.31,0.31,0.42,0.08,0.54,0.38,0.54,0.38,0.08,0.69,0.54,0.31,0.54,0.54,0.46,0.54,0.54,0.31,0.54,41.87,19.59
300,Gidole,15890,0.77,0.08,0.08,1.0,0.77,0.77,0.08,0.08,0.08,0.77,0.85,1.0,0.08,0.08,0.69,0.92,1.0,0.85,0.19,0.54,0.54,0.77,1.0,0.69,0.77,0.69,1.0,0.38,0.08,0.77,0.54,0.42,0.46,0.54,0.77,0.31,0.77,6.25,37.0
301,Gĩkũyũ,30174,0.62,0.08,0.08,0.54,1.0,1.0,0.08,0.08,0.08,0.77,0.46,0.23,0.08,0.08,0.69,0.46,0.54,0.69,0.08,0.31,0.77,0.08,1.0,0.85,0.54,1.0,1.0,1.0,1.0,0.77,1.0,0.54,0.62,0.77,0.77,0.54,0.77,-0.43,36.95
302,Gizra,15978,0.46,0.08,0.08,1.0,0.77,0.77,0.08,0.08,0.08,0.77,0.85,0.23,0.08,0.08,0.69,0.92,0.31,0.85,0.08,0.54,0.54,0.08,1.0,0.69,0.31,1.0,0.08,0.69,0.54,0.77,1.0,0.54,0.62,0.54,0.31,0.77,0.31,-9.07,143.2
303,Gogo,15995,0.85,0.15,0.08,1.0,1.0,1.0,1.0,1.0,1.0,0.77,0.69,0.23,0.69,0.08,0.69,0.85,0.77,1.0,0.08,0.54,0.77,0.62,1.0,0.38,0.31,1.0,1.0,1.0,1.0,0.77,1.0,0.54,0.77,1.0,1.0,0.77,0.77,-6.16,35.75
304,Gond,16028,0.69,0.23,0.08,0.54,0.77,0.77,0.08,0.54,0.08,0.54,0.46,0.23,0.08,0.08,0.69,0.92,0.54,0.85,0.08,0.54,0.54,0.08,0.77,0.69,0.77,1.0,1.0,1.0,1.0,0.54,1.0,0.54,0.35,0.54,0.54,0.54,0.31,21.14,79.08
305,Gould,62515,0.46,0.23,0.46,1.0,0.77,0.77,0.54,1.0,0.54,0.31,0.46,0.31,0.23,0.23,0.69,0.46,0.77,0.46,0.69,0.54,0.54,0.62,1.0,0.69,0.54,0.69,1.0,0.69,0.54,0.31,1.0,0.54,0.62,1.0,0.54,0.54,0.77,21.14,79.08
306,Gourara Berbers,12084,0.88,1.0,0.92,1.0,0.54,0.77,1.0,0.08,0.77,0.77,0.46,0.85,0.46,0.08,0.69,0.85,0.88,0.85,0.31,0.54,0.54,1.0,0.77,0.69,0.42,0.69,1.0,0.69,0.54,0.77,1.0,0.54,0.62,0.31,0.31,0.54,0.54,29.26,0.22
307,Granada,62415,0.15,0.23,0.15,0.31,0.08,0.08,1.0,0.54,0.77,0.31,0.46,0.08,0.46,0.54,0.69,0.31,0.42,0.85,0.08,0.77,0.31,0.08,0.08,0.85,0.77,1.0,1.0,0.69,0.54,0.31,0.08,0.77,0.08,0.31,0.54,0.54,0.77,37.17,-3.59
308,Great Lakes Twa,27809,0.85,0.15,0.46,1.0,1.0,1.0,0.54,1.0,1.0,0.77,0.46,0.23,0.23,0.23,0.69,0.77,0.54,1.0,0.08,0.54,0.77,0.88,1.0,0.69,0.54,1.0,1.0,0.69,1.0,0.77,1.0,0.77,0.77,0.54,0.31,0.54,0.77,-3.01,28.29
309,Greek Epirus,16083,0.15,0.31,0.54,0.31,0.08,0.08,0.77,0.31,0.31,0.08,1.0,0.08,0.85,0.38,0.69,0.31,0.08,0.08,0.08,0.54,0.31,0.08,0.08,0.0,0.54,0.08,0.0,0.08,0.08,0.08,0.54,0.54,0.23,0.31,0.31,0.54,0.31,39.57,20.76
310,Greek Macedonian,62314,0.15,1.0,0.46,0.31,0.08,0.08,1.0,0.77,0.77,0.31,0.35,0.08,0.46,0.69,0.69,0.85,0.54,1.0,0.0,0.54,0.54,0.08,0.77,0.69,0.54,1.0,1.0,0.38,0.54,0.31,1.0,0.42,0.23,0.31,0.54,0.54,0.31,41.02,21.32
311,Greek Orthodox Monastics,62312,0.38,0.08,0.08,1.0,0.77,0.77,0.08,0.08,0.08,0.08,0.85,0.54,0.08,0.08,0.08,0.08,0.08,0.08,0.31,0.54,0.54,0.23,0.31,0.23,0.54,0.38,1.0,0.38,0.08,0.08,0.54,0.77,0.77,0.77,1.0,0.77,0.54,39.72,21.63
312,Grenada,16138,0.77,0.08,1.0,1.0,0.77,1.0,1.0,1.0,1.0,0.77,0.46,0.23,0.46,0.08,0.69,0.85,1.0,1.0,0.08,0.54,0.77,0.08,1.0,0.69,0.54,1.0,1.0,1.0,1.0,0.77,1.0,0.54,0.62,0.54,0.54,0.54,0.54,12.22,-61.61
313,Guadeloupe,16182,0.77,0.92,1.0,0.54,0.77,1.0,1.0,1.0,1.0,0.77,0.46,0.23,0.46,0.85,0.69,0.77,1.0,0.85,0.08,0.54,0.54,0.08,1.0,0.69,0.54,1.0,1.0,1.0,1.0,0.77,1.0,0.54,0.62,0.54,0.54,0.54,0.54,16.31,-61.43
314,Guahibo,16193,0.38,0.08,0.08,0.77,0.54,0.31,0.08,0.08,0.08,0.77,0.69,0.38,0.08,0.08,0.69,0.92,0.77,1.0,0.08,0.54,0.77,0.08,0.77,0.38,0.54,0.69,1.0,0.69,1.0,0.77,0.54,0.77,0.46,0.31,0.54,0.54,0.77,8.74,-66.23
315,Guale,16170,0.38,0.08,0.08,1.0,0.77,0.77,0.08,0.08,0.08,1.0,0.46,1.0,0.08,0.08,0.69,0.92,0.77,0.62,0.85,0.77,0.31,1.0,1.0,0.38,0.42,0.69,0.08,0.69,0.08,1.0,0.54,0.77,0.81,0.54,0.54,0.54,1.0,-9.57,160.14
316,Guaraní,13036,0.62,0.15,0.15,0.54,0.31,0.54,1.0,0.08,0.08,0.77,0.46,0.23,0.23,0.08,0.69,0.46,0.42,0.38,0.08,0.31,0.77,0.08,1.0,0.69,0.77,0.08,1.0,0.69,0.54,0.77,1.0,0.77,0.62,0.77,0.77,0.31,0.77,-31.77,-60.49
317,Guerrero,21291,0.46,0.15,0.46,1.0,1.0,1.0,1.0,1.0,1.0,0.08,0.85,0.23,0.46,0.54,0.69,0.15,0.54,0.62,0.08,0.54,0.54,0.62,1.0,0.69,0.31,0.69,0.69,0.69,1.0,0.08,1.0,0.54,0.62,0.77,0.77,0.77,0.54,17.55,-99.5
318,Guna,14235,0.15,0.08,0.08,0.31,0.08,0.08,0.08,0.08,0.08,0.54,0.85,0.08,0.08,0.08,0.69,0.77,0.08,1.0,0.08,0.31,0.54,0.08,0.77,0.69,0.31,0.08,1.0,0.69,1.0,0.54,1.0,0.54,0.23,0.08,0.31,0.54,0.54,9.57,-78.82
319,Gunbalang,30068,0.42,0.62,0.46,0.54,0.54,0.77,0.54,0.54,0.77,0.54,0.46,0.23,0.35,0.85,0.38,0.92,1.0,0.46,0.08,0.77,0.54,0.08,0.77,0.69,0.77,0.69,1.0,1.0,1.0,0.54,1.0,0.54,0.62,0.54,0.54,0.77,0.77,-12.03,134.13
320,Guria,62463,1.0,0.08,0.08,1.0,0.77,1.0,0.08,0.08,0.08,0.77,0.46,1.0,0.08,0.08,0.69,0.08,0.31,0.08,0.31,1.0,1.0,1.0,1.0,0.85,0.77,0.69,1.0,1.0,0.08,0.77,0.08,0.31,1.0,0.77,0.77,0.08,0.77,41.94,42.04
321,Gurung,50279,0.46,0.08,0.08,0.54,0.54,0.31,0.08,0.08,0.08,0.31,0.46,0.23,0.08,0.08,0.69,0.08,0.31,0.08,0.08,0.54,0.31,0.08,0.08,0.23,0.54,0.08,1.0,0.38,0.08,0.31,0.54,0.31,0.23,0.31,0.54,0.54,0.42,28.53,83.87
322,Hadimu,16402,0.62,0.08,0.38,0.54,0.54,0.54,0.54,0.77,1.0,0.31,0.46,0.23,0.46,0.54,0.69,0.15,0.77,0.08,0.08,0.54,0.77,0.08,1.0,0.69,0.54,1.0,1.0,0.38,0.54,0.31,0.54,0.54,0.62,0.08,0.31,0.54,0.77,-4.88,29.66
323,Hadza,16578,0.46,0.15,0.15,1.0,0.54,0.77,0.31,0.08,0.08,1.0,0.46,0.23,0.23,0.08,0.69,0.69,0.77,1.0,0.08,0.77,0.77,0.08,1.0,0.69,0.54,1.0,1.0,1.0,1.0,1.0,1.0,0.31,0.62,0.54,0.77,0.54,0.77,-3.58,35.0
324,Hahon,16429,0.46,0.15,0.15,1.0,0.54,0.77,0.31,0.08,0.08,0.54,0.85,0.23,0.23,0.08,0.69,0.85,0.08,0.85,0.0,1.0,0.54,0.77,1.0,0.69,0.77,1.0,0.08,0.69,0.08,0.54,1.0,0.42,0.46,0.54,0.54,0.31,0.77,-9.47,147.2
325,Haida,16424,0.46,0.15,0.46,0.54,0.54,0.54,0.54,0.08,0.08,0.77,0.85,0.23,0.23,0.08,0.38,0.46,0.54,0.08,0.08,0.77,0.77,0.08,0.77,0.69,0.54,0.69,1.0,0.69,1.0,0.77,0.54,0.77,0.46,0.31,0.54,0.77,0.77,53.0,-132.0
326,Haiti,16446,0.62,1.0,0.38,0.54,0.77,1.0,1.0,1.0,1.0,0.54,0.46,0.23,0.46,0.85,0.69,0.85,0.77,1.0,0.31,0.77,0.54,0.08,1.0,0.69,0.77,1.0,1.0,0.69,1.0,0.54,0.54,0.77,0.62,0.54,0.54,0.54,0.54,18.59,-72.3
327,Hakka,16457,0.15,0.08,0.08,0.31,0.08,0.08,0.08,0.08,0.08,0.31,0.85,0.08,0.08,0.08,0.69,0.85,0.54,0.85,0.08,0.31,0.31,0.08,0.54,0.69,0.54,0.08,1.0,0.38,0.54,0.31,1.0,0.54,0.23,0.31,0.54,0.54,0.31,23.37,113.76
328,Halfa-Assuan Nubians,11683,0.15,0.15,0.15,0.31,0.08,0.08,1.0,0.54,0.08,0.31,0.46,0.08,0.46,0.54,0.69,0.85,0.77,0.85,0.08,0.54,0.54,0.08,0.54,0.69,0.54,1.0,1.0,0.69,1.0,0.31,0.54,0.42,0.23,0.31,0.77,0.31,0.54,22.34,31.61
329,Halia,16473,0.92,0.08,0.08,1.0,0.77,0.77,0.08,0.08,0.08,1.0,0.46,1.0,0.08,0.08,0.69,0.46,0.42,0.62,0.0,0.77,0.77,1.0,1.0,0.38,0.77,0.69,0.08,0.38,0.08,1.0,1.0,0.42,0.62,0.54,0.54,0.54,1.0,-9.47,147.2
330,Hamar,16479,0.92,0.23,0.46,0.77,0.77,0.77,1.0,1.0,0.77,1.0,0.46,0.69,0.46,0.69,0.69,0.69,1.0,1.0,0.31,0.77,0.54,1.0,0.77,0.69,0.77,1.0,1.0,0.69,1.0,1.0,0.54,0.77,0.62,0.42,0.31,0.42,0.77,13.83,29.41
331,Hampton Roads,62426,0.77,0.08,0.08,1.0,1.0,1.0,0.08,0.08,0.08,0.54,0.46,0.69,0.08,0.08,0.69,0.15,0.77,0.08,0.85,1.0,0.54,0.77,1.0,0.69,0.54,1.0,1.0,0.69,1.0,0.54,0.54,0.77,0.62,0.54,0.77,0.31,0.54,36.86,-76.43
332,Hangzhou,13665,0.15,0.08,0.08,0.54,0.77,0.77,0.08,0.08,0.08,1.0,0.46,0.23,0.08,0.08,0.69,0.77,1.0,1.0,0.08,0.54,0.77,0.08,0.31,0.85,0.77,1.0,1.0,0.38,0.54,1.0,0.54,0.54,0.62,0.31,0.54,0.31,1.0,30.27,120.15
333,Hanunoo,16545,0.15,0.08,0.15,0.31,0.08,0.08,0.08,0.08,0.08,0.08,1.0,0.08,0.08,0.08,0.69,0.08,0.54,1.0,0.69,0.54,0.31,0.08,0.54,0.38,0.31,0.08,1.0,0.69,1.0,0.08,1.0,0.77,0.62,0.08,0.31,1.0,0.08,16.56,121.26
334,Harari,10137,0.77,0.08,0.08,1.0,1.0,1.0,0.08,0.08,0.08,0.31,1.0,1.0,0.08,0.08,0.69,0.31,0.42,0.62,0.08,0.54,0.54,0.23,0.54,0.0,0.88,0.08,1.0,0.38,0.08,0.31,0.08,0.31,0.46,0.54,0.54,0.31,0.54,9.31,42.12
335,Harir Kurd,62469,0.77,0.08,0.08,0.31,0.08,0.08,0.08,0.08,0.08,0.31,0.85,0.08,0.08,0.08,0.69,0.85,0.54,1.0,0.08,0.31,0.54,0.08,0.54,0.69,0.54,1.0,1.0,0.69,0.54,0.31,0.08,0.54,0.08,0.08,0.08,0.54,0.31,37.0,43.0
336,Harlem 1900s,30061,0.15,1.0,0.88,0.31,0.08,0.08,1.0,0.54,1.0,0.77,0.46,0.08,0.46,0.69,0.69,0.08,0.88,0.08,0.08,0.77,0.77,0.08,1.0,0.69,0.77,1.0,1.0,0.69,1.0,0.77,1.0,0.77,0.62,0.54,0.54,0.31,0.77,40.71,-74.0
337,Harlem 1920s,30060,0.15,1.0,0.85,0.31,0.08,0.08,1.0,0.77,1.0,0.31,0.46,0.08,0.46,0.54,0.69,0.38,0.54,0.46,0.31,1.0,1.0,0.08,1.0,0.69,0.54,0.69,1.0,0.69,1.0,0.31,1.0,0.42,0.62,0.31,0.54,0.54,0.54,40.71,-74.0
338,Haudenosaunee,17282,0.62,0.15,0.15,0.54,0.54,0.77,0.54,0.77,0.77,0.77,0.85,0.23,0.23,0.23,0.69,0.23,0.54,0.08,0.08,0.54,0.77,0.08,0.77,0.69,0.54,1.0,1.0,0.69,1.0,0.77,0.54,0.54,0.46,0.54,0.31,0.31,0.54,51.25,-85.32
339,Hausa Kanawa,16589,0.15,0.15,0.15,0.31,0.08,0.08,0.31,0.08,1.0,0.31,0.46,0.08,0.46,0.08,0.69,0.08,0.77,0.08,0.31,0.77,0.77,0.08,0.54,0.85,0.54,1.0,1.0,0.38,1.0,0.31,1.0,0.77,0.23,0.08,0.54,0.31,0.77,11.74,8.52
340,Hausa Unspecified,62528,0.77,0.62,0.38,0.42,0.31,0.31,1.0,0.54,1.0,0.54,0.46,0.31,0.46,0.77,0.69,0.77,0.88,0.85,0.08,0.54,0.31,0.08,0.31,0.77,0.77,0.08,1.0,0.38,1.0,0.54,0.54,0.31,0.62,0.08,0.31,0.42,0.77,9.89,8.85
341,Hausa Zazzagawa,62527,0.15,0.15,0.15,0.31,0.08,0.08,0.31,0.08,0.08,0.54,0.46,0.08,0.46,0.08,0.69,0.54,0.77,1.0,0.31,0.54,0.77,0.08,0.54,0.69,0.54,1.0,1.0,0.69,1.0,0.54,1.0,0.42,0.62,0.31,0.54,0.54,0.77,11.08,7.71
342,Haute Corse,14103,0.15,0.08,0.08,0.31,0.08,0.08,0.08,0.08,0.08,0.08,1.0,0.08,0.08,0.08,0.08,0.38,0.31,0.38,0.08,0.54,0.54,0.08,0.31,0.23,0.77,0.08,1.0,0.69,0.54,0.08,1.0,0.42,0.23,0.31,0.31,0.31,0.31,42.36,9.26
343,Havana Folk,14191,0.15,0.15,0.38,0.31,0.08,0.08,1.0,0.31,0.77,0.08,0.85,0.08,0.85,0.38,0.08,0.15,0.54,0.08,0.08,0.54,0.54,0.08,0.77,0.38,0.54,0.38,1.0,0.69,0.54,0.08,1.0,0.54,0.35,0.54,0.77,0.31,0.31,23.11,-82.36
344,Havsuwʼ Baaja,16600,0.15,0.15,0.15,0.31,0.08,0.08,0.31,0.08,0.08,0.31,0.85,0.08,0.23,0.08,0.38,0.46,0.77,0.23,0.31,0.31,0.77,0.08,0.77,0.69,0.54,1.0,1.0,1.0,0.54,0.31,1.0,0.77,0.46,0.31,0.08,0.54,0.54,38.98,-114.3
345,Hawazma,16622,0.15,0.08,0.08,0.31,0.08,0.08,0.08,0.08,0.08,0.31,0.46,0.08,0.46,0.08,0.69,0.38,0.77,0.85,0.31,0.77,0.54,0.08,0.77,0.85,0.54,0.69,1.0,0.69,1.0,0.31,1.0,0.77,0.62,0.31,0.54,0.54,0.77,11.19,29.41
346,Haya,16633,0.77,1.0,0.85,1.0,1.0,0.77,1.0,0.54,0.77,0.54,0.46,0.23,0.46,0.69,0.69,0.38,0.77,0.46,0.08,0.31,0.31,0.23,0.54,0.38,0.54,1.0,1.0,0.38,0.08,0.54,0.54,0.77,0.62,0.77,0.31,0.77,1.0,-1.32,31.8
347,Hazara,16644,0.42,0.08,0.08,0.77,0.54,0.08,0.08,0.08,0.08,0.08,1.0,0.23,0.08,0.08,0.69,0.08,0.31,0.08,0.08,0.54,0.31,0.08,0.08,0.38,0.54,0.08,1.0,0.38,0.54,0.08,0.54,0.42,0.08,0.08,0.31,0.31,0.31,34.81,67.82
348,Heévâhetaneo'o,13553,0.15,0.08,0.08,0.31,0.08,0.08,0.08,0.08,0.08,0.54,0.85,0.08,0.08,0.08,0.08,0.38,0.31,0.38,0.08,0.31,0.77,0.08,0.54,0.38,0.08,0.69,1.0,0.69,0.54,0.54,0.08,0.77,0.46,0.77,0.77,1.0,0.77,35.07,-98.24
349,Hehe,16688,0.15,0.15,0.46,1.0,1.0,1.0,0.54,1.0,1.0,0.54,0.46,0.23,0.46,0.69,0.85,0.77,0.77,1.0,0.31,0.54,0.54,0.08,1.0,0.85,0.54,1.0,1.0,0.69,1.0,0.54,1.0,0.54,0.62,0.31,0.54,0.54,0.77,-7.73,35.69
350,Hemba,20142,0.77,0.92,0.85,1.0,1.0,1.0,1.0,1.0,1.0,0.31,0.46,0.08,0.46,0.54,0.69,0.77,0.77,1.0,0.08,0.54,0.54,0.62,1.0,0.85,0.54,1.0,1.0,0.69,1.0,0.31,1.0,0.54,0.62,0.54,0.54,0.54,0.54,-10.71,25.46
351,Hidalgo,62502,0.69,0.23,0.46,1.0,1.0,1.0,1.0,0.77,1.0,0.54,0.85,0.23,0.46,0.69,0.69,0.15,0.54,0.08,0.19,0.54,0.54,0.62,1.0,0.85,0.77,0.69,1.0,1.0,1.0,0.54,1.0,0.31,0.77,0.31,0.54,0.54,0.54,20.1,-98.75
352,Hill Saora,16750,0.15,0.08,0.08,0.31,0.08,0.08,0.08,0.08,0.08,0.54,0.85,0.08,0.08,0.08,0.69,0.69,0.77,0.85,0.08,0.54,0.54,0.08,0.77,0.69,0.31,0.69,1.0,0.69,1.0,0.54,1.0,0.54,0.46,0.08,0.31,0.54,0.31,19.15,84.22
353,Himba,16787,1.0,0.15,0.92,1.0,1.0,0.77,1.0,1.0,0.54,0.77,0.85,1.0,0.69,0.85,0.69,1.0,0.77,1.0,0.08,0.54,1.0,1.0,1.0,0.85,0.54,1.0,1.0,0.69,0.54,0.77,1.0,0.54,0.77,0.77,0.77,0.77,1.0,-19.4,13.91
354,Hjare,22861,0.15,0.08,0.08,0.31,0.08,0.08,0.08,0.08,0.08,0.31,0.85,0.08,0.08,0.08,0.69,0.38,0.77,0.69,0.08,0.77,0.54,0.08,0.77,0.85,0.31,0.38,1.0,0.69,1.0,0.31,1.0,0.54,0.62,0.54,0.54,0.54,0.77,11.01,29.71
355,Hmong,21231,0.15,0.62,0.54,0.31,0.08,0.08,1.0,0.08,0.08,0.31,0.85,0.08,0.35,0.85,0.69,0.08,0.42,0.85,0.69,0.54,0.77,0.08,0.54,0.85,0.31,0.69,0.69,0.69,1.0,0.31,1.0,0.77,0.62,0.08,0.54,0.08,0.31,20.06,102.62
356,Hokkaido Ainu,16809,0.15,0.08,0.46,1.0,0.08,0.08,0.54,0.08,0.08,0.77,0.85,0.08,0.23,0.23,0.69,0.31,0.77,1.0,0.08,0.77,0.77,0.08,0.08,0.38,0.54,0.69,1.0,0.69,0.54,0.77,0.08,0.77,0.62,0.31,0.31,0.54,0.54,43.22,142.86
357,Honduras,21288,0.0,0.0,0.0,0.0,0.0,0.0,0.0,0.0,0.0,0.0,0.0,0.0,0.0,0.0,0.0,0.0,0.0,0.0,0.0,0.0,0.0,0.0,0.0,0.0,0.0,0.0,0.0,0.0,0.0,0.0,0.0,0.0,0.0,0.0,0.0,0.0,0.0,14.06,-86.86
358,Honiara,16825,0.38,0.15,0.15,1.0,0.77,0.77,1.0,0.08,0.08,0.08,0.46,0.23,0.46,0.08,0.69,0.46,0.54,0.46,0.85,0.77,0.54,0.77,1.0,0.69,0.54,1.0,1.0,0.38,1.0,0.08,1.0,0.77,0.77,0.31,0.77,0.54,0.54,-9.44,159.97
359,Hopituh Shi-nu-mu,16831,0.46,0.15,0.15,0.54,0.77,0.77,0.31,0.08,0.08,0.77,0.85,0.23,0.85,0.08,0.69,0.23,0.77,0.08,0.31,0.77,0.77,0.08,0.77,0.38,0.54,1.0,1.0,0.69,1.0,0.77,0.54,0.77,0.62,0.54,0.54,0.08,0.54,36.06,-109.18
360,Hualapai,28414,0.46,0.15,0.15,0.54,0.31,0.54,0.31,0.08,0.08,0.77,0.46,0.23,0.23,0.08,0.69,0.46,0.08,0.23,0.08,0.31,0.54,0.08,0.77,0.69,0.54,1.0,1.0,1.0,1.0,0.77,1.0,0.77,0.62,0.54,0.31,0.77,0.54,38.98,-114.3
361,Huaso,13630,0.15,0.15,0.15,0.31,0.08,0.08,1.0,0.08,0.08,0.08,0.85,0.08,0.46,0.08,0.69,0.46,0.77,0.08,0.08,0.54,0.54,0.08,1.0,0.69,0.54,1.0,1.0,0.69,1.0,0.08,1.0,0.77,0.46,0.31,0.54,0.54,0.31,-36.55,-71.55
362,Hui,16869,0.15,0.08,0.08,0.31,0.08,0.08,0.08,0.08,0.08,0.54,0.85,0.08,0.08,0.08,0.69,0.23,0.42,0.38,0.08,0.77,0.54,0.08,0.31,0.38,0.77,0.69,1.0,0.69,0.54,0.54,0.08,0.77,0.46,0.31,0.54,0.54,0.54,35.95,103.28
363,Huli,30032,0.62,0.08,0.08,0.54,0.54,0.54,0.08,0.08,0.08,0.08,1.0,0.23,0.08,0.08,0.69,0.38,0.54,0.62,0.08,0.31,0.54,0.46,1.0,0.69,0.77,0.38,0.69,0.69,1.0,0.08,1.0,0.31,0.08,0.08,1.0,0.31,0.31,-6.41,143.56
364,Hunedoara,24421,0.15,0.08,0.08,0.31,0.08,0.08,0.08,0.08,0.08,0.31,0.46,0.08,0.08,0.08,0.0,0.85,0.77,1.0,0.08,0.54,0.54,0.08,0.54,0.23,0.08,0.08,1.0,0.38,0.54,0.31,0.54,0.54,0.62,0.54,0.77,0.54,0.54,46.06,22.52
365,Hungarian Roma,16363,0.15,0.23,0.08,0.31,0.08,0.08,0.54,0.08,0.08,0.77,0.46,0.08,0.46,0.08,0.69,0.23,0.54,0.38,0.31,0.77,0.54,0.08,1.0,0.85,0.54,0.08,0.69,0.69,1.0,0.77,1.0,0.77,0.46,0.31,0.54,0.31,0.54,48.29,20.69
366,Hutu,11375,0.15,0.15,0.15,0.31,0.08,0.08,0.31,0.08,0.08,0.08,0.85,0.08,0.69,0.08,0.69,0.15,0.77,1.0,0.08,0.54,0.77,0.08,1.0,0.69,0.54,1.0,1.0,1.0,1.0,0.08,1.0,0.54,0.62,1.0,1.0,0.77,0.77,-2.58,29.68
367,I-Kiribati,15896,0.38,0.08,0.08,1.0,0.54,1.0,0.08,0.08,0.08,0.31,0.85,0.23,0.08,0.08,0.69,0.08,0.54,0.08,0.69,0.54,0.54,0.08,1.0,0.69,0.54,0.69,1.0,1.0,1.0,0.31,1.0,0.54,0.46,0.31,0.31,0.54,0.31,-8.1,156.83
368,Iatmul,16963,0.46,0.69,0.46,0.31,0.08,0.08,0.54,1.0,0.54,0.77,0.85,0.23,0.85,0.08,0.69,0.77,0.31,0.85,0.08,0.31,0.54,0.08,1.0,0.85,0.77,0.38,1.0,0.69,1.0,0.77,1.0,0.54,0.62,0.31,0.54,0.77,0.77,-2.56,147.28
369,Ibaloi,17106,0.46,0.08,0.08,0.54,0.54,0.54,0.08,0.08,0.08,0.31,1.0,0.23,0.08,0.08,0.69,0.92,0.54,1.0,0.08,0.31,0.54,0.08,0.77,0.23,0.31,0.08,1.0,0.69,0.54,0.31,1.0,0.54,0.23,0.31,0.54,0.54,0.54,16.55,120.8
370,Iban,16974,0.15,0.08,0.08,0.31,0.08,0.08,0.08,0.08,0.08,0.08,1.0,0.08,0.08,0.08,0.69,0.08,0.42,1.0,0.08,0.31,0.31,0.08,0.54,0.23,0.31,0.08,1.0,0.69,0.54,0.08,0.08,0.77,0.23,0.08,0.31,0.77,0.08,1.55,110.35
371,Ibiza,17414,0.15,0.62,0.15,0.31,0.08,0.08,0.31,0.08,0.08,0.08,0.85,0.08,0.85,0.08,0.69,0.77,0.31,1.0,0.69,0.31,0.31,0.08,0.31,0.23,0.77,0.08,0.08,0.38,0.54,0.08,0.08,0.31,1.0,0.08,0.31,0.31,0.31,38.92,1.29
372,Ifaluk,17029,0.15,0.08,0.08,0.31,0.08,0.08,0.08,0.08,0.08,0.08,0.85,0.08,0.08,0.08,0.69,0.85,0.08,1.0,1.0,0.31,0.54,0.08,0.77,0.23,0.54,0.69,1.0,0.38,1.0,0.08,1.0,0.77,0.46,0.77,0.54,0.54,0.31,7.25,144.44
373,Ifugao,17062,0.46,0.08,0.08,0.88,0.31,0.31,0.08,0.08,0.08,0.08,1.0,0.38,0.08,0.08,0.69,0.08,0.31,1.0,0.08,0.31,0.54,0.62,0.31,0.38,0.31,0.08,1.0,0.69,0.54,0.08,1.0,0.54,0.23,0.54,0.54,0.77,0.77,16.83,121.17
374,Igbo,16996,0.15,0.15,0.46,0.31,0.08,0.08,0.54,0.77,1.0,0.31,0.85,0.08,0.85,0.54,0.69,0.08,0.88,0.08,0.08,0.54,0.54,0.08,0.77,0.69,0.54,1.0,1.0,0.69,0.54,0.31,0.54,0.31,0.62,0.54,0.54,0.54,0.77,5.85,6.85
375,Ilocano,17150,0.15,0.08,0.08,0.31,0.08,0.08,0.08,0.08,0.08,0.08,1.0,0.08,0.08,0.08,0.38,0.08,0.08,0.08,0.08,0.54,0.31,0.08,0.08,0.08,0.54,0.08,1.0,0.08,0.08,0.08,0.08,0.77,0.23,0.08,0.08,0.31,0.08,16.08,120.62
376,Imereti,62464,0.15,0.0,0.08,0.31,0.08,0.08,0.08,0.0,0.08,0.31,0.46,0.08,0.08,0.08,0.69,0.38,0.54,0.46,0.69,0.54,0.54,0.08,0.54,0.23,0.54,0.38,1.0,0.69,0.54,0.31,0.08,0.42,0.46,0.54,0.31,0.31,0.31,42.26,42.71
377,Indé (W Apache),28469,0.38,0.15,0.46,0.54,0.54,0.54,0.54,0.08,0.77,0.54,0.85,0.23,0.23,0.23,0.69,0.23,0.31,0.08,0.08,0.54,0.77,0.08,1.0,0.69,0.54,1.0,1.0,0.38,0.54,0.54,0.08,0.77,0.46,0.31,0.31,0.31,0.77,42.26,42.71
378,Indo-Trinidad,17194,0.15,0.08,0.08,0.54,0.08,0.08,0.08,0.08,0.08,0.08,0.46,0.23,0.08,0.08,0.69,0.23,0.54,0.08,0.08,0.54,0.54,0.08,0.54,0.38,0.54,1.0,1.0,1.0,0.54,0.08,1.0,0.54,0.23,0.08,0.31,0.54,0.31,10.16,-61.43
379,Ingush,17227,0.15,0.15,0.15,0.31,0.08,0.08,1.0,0.08,0.08,0.08,0.69,0.08,0.69,0.08,0.69,0.46,0.77,0.38,0.08,0.54,0.54,0.08,0.77,0.69,0.54,1.0,1.0,1.0,1.0,0.08,1.0,0.42,0.62,0.54,0.31,0.31,0.54,43.4,44.82
380,Inner Mani,18624,0.38,0.08,0.08,0.54,0.31,0.31,0.08,0.08,0.08,0.31,0.85,0.23,0.08,0.08,0.69,0.46,0.54,1.0,0.08,0.31,0.54,0.08,0.54,0.38,0.54,0.69,1.0,0.38,0.54,0.31,0.54,0.54,0.46,0.31,0.54,0.54,0.54,36.54,22.39
381,Inuinnait,14070,0.15,0.08,0.08,0.31,0.08,0.08,0.08,0.08,0.08,0.77,0.85,0.08,0.08,0.08,0.69,0.46,0.54,0.08,0.31,0.54,0.77,0.08,0.77,0.38,0.31,0.69,1.0,0.69,0.54,0.77,1.0,0.54,0.23,0.31,0.54,0.77,0.77,68.83,-101.5
382,Iran,17249,0.15,0.08,0.08,0.31,0.08,0.08,0.08,0.08,0.08,0.54,1.0,0.08,0.08,0.08,0.69,0.08,0.31,0.0,0.08,0.54,0.31,0.08,0.08,0.23,0.54,0.08,1.0,0.69,0.08,0.54,0.08,0.54,0.23,0.31,0.77,0.54,0.31,38.42,45.76
383,Iranian Kurds,62469,0.15,0.62,0.38,0.31,0.08,0.08,1.0,0.54,0.31,0.08,0.46,0.08,0.46,0.38,0.08,0.38,0.54,0.62,0.08,0.54,0.31,0.08,0.31,0.38,0.54,0.38,0.38,0.08,0.08,0.08,1.0,0.54,0.23,0.08,1.0,0.54,0.31,36.76,45.72
384,Iraq,10771,0.15,0.62,0.62,0.08,0.08,0.08,0.77,0.54,0.31,0.08,1.0,0.08,1.0,0.46,0.69,0.77,0.08,0.08,0.08,0.54,0.31,0.08,0.08,0.08,0.77,0.08,1.0,0.38,0.08,0.08,0.08,0.31,0.46,0.31,0.31,0.54,1.0,33.31,44.36
385,Israeli Jews,17700,0.15,0.08,0.08,0.31,0.08,0.08,0.08,0.08,0.08,0.08,1.0,0.08,0.08,0.08,0.0,0.08,0.31,0.08,0.08,0.77,0.31,0.08,0.31,0.23,0.54,0.08,1.0,0.08,0.08,0.08,0.08,0.31,0.23,0.08,0.31,0.31,0.31,31.76,35.21
386,Iwaidja,30072,0.46,0.62,0.46,0.54,0.54,0.77,1.0,0.77,1.0,0.77,0.46,0.23,0.35,0.85,0.38,0.92,0.31,1.0,0.08,0.77,0.54,0.08,0.77,0.38,0.77,1.0,1.0,0.38,1.0,0.77,1.0,0.54,0.23,0.31,0.31,0.54,0.77,31.76,35.21
387,Jahai,17474,0.77,0.23,0.77,0.54,0.54,0.54,1.0,1.0,0.77,0.54,0.85,1.0,0.46,1.0,0.69,0.85,0.77,0.85,0.08,0.31,0.54,0.08,0.77,0.69,0.54,0.69,1.0,1.0,1.0,0.54,0.54,0.54,0.23,0.31,0.77,0.54,0.31,5.55,101.33
388,Jakun,17469,0.77,0.08,0.08,0.88,0.54,0.31,0.08,0.08,0.08,0.31,1.0,1.0,0.08,0.08,0.85,0.38,0.77,0.85,0.08,0.77,0.31,0.23,1.0,0.38,0.31,0.08,0.08,0.38,0.54,0.31,1.0,0.77,0.23,0.31,0.31,0.77,0.31,2.86,102.17
389,Jalisco,62500,0.0,0.0,0.0,0.0,0.0,0.0,0.0,0.0,0.0,0.0,0.0,0.0,0.0,0.0,0.0,0.0,0.0,0.0,0.0,0.0,0.0,0.0,0.0,0.0,0.0,0.0,0.0,0.0,0.0,0.0,0.0,0.0,0.0,0.0,0.0,0.0,0.0,20.3,-103.18
390,Jamaican,17480,0.77,0.23,0.46,1.0,0.77,1.0,0.54,1.0,1.0,0.54,0.46,0.23,0.46,0.23,0.69,0.77,0.54,1.0,0.69,0.54,0.54,0.46,1.0,0.69,0.54,1.0,1.0,0.69,1.0,0.54,1.0,0.54,0.62,0.54,0.54,0.31,0.77,17.97,-76.43
391,Jarawa,10583,0.69,0.08,0.08,1.0,0.08,0.31,0.08,0.08,0.08,0.77,0.85,0.23,0.08,0.08,0.69,0.77,0.31,0.85,0.85,0.77,0.31,0.23,0.77,0.69,1.0,0.69,1.0,0.38,1.0,0.77,0.54,0.19,0.23,0.31,0.77,0.31,0.77,11.62,92.72
392,Jaunsari,17546,0.46,0.08,0.08,0.54,0.54,0.77,0.08,0.08,0.08,0.54,0.85,0.08,0.08,0.08,0.08,0.77,0.08,1.0,0.08,0.54,0.54,0.08,0.31,0.23,0.77,0.23,1.0,0.08,0.54,0.54,0.08,0.54,0.62,0.54,0.31,0.31,0.54,19.44,84.26
393,Jawoyn,30067,0.38,0.62,0.46,0.54,0.54,0.77,0.54,0.54,0.77,0.77,0.46,0.23,0.35,0.54,1.0,0.46,0.42,0.62,0.69,0.54,0.54,0.08,0.77,0.69,0.77,0.38,1.0,0.69,1.0,0.77,0.54,0.77,0.46,0.31,0.42,0.54,1.0,-14.06,131.98
394,Jhodia,17689,0.38,0.15,0.38,0.77,0.54,0.77,0.54,0.31,0.77,0.54,0.46,0.23,0.35,0.69,0.85,0.69,0.88,0.08,0.31,1.0,0.54,0.08,0.54,0.85,0.77,0.69,1.0,0.69,1.0,0.54,1.0,0.77,0.46,0.31,0.54,0.31,0.77,18.81,82.71
395,Jiangxi,62491,0.77,0.62,0.15,0.77,0.54,0.42,0.08,0.08,0.08,0.54,0.77,0.38,0.77,0.08,0.69,0.54,0.77,0.85,0.0,0.54,0.42,0.08,0.77,0.69,0.77,0.69,0.69,0.38,0.08,0.54,0.08,0.42,0.88,0.31,0.77,0.77,0.77,27.08,114.9
396,Jibaro/ Boriqua,23970,0.15,0.23,0.38,1.0,0.54,0.08,1.0,0.77,1.0,0.08,0.46,0.23,0.46,0.54,0.69,0.23,0.54,0.08,0.08,0.77,0.77,0.08,1.0,0.69,0.54,1.0,1.0,0.69,1.0,0.08,1.0,0.42,0.35,0.31,0.31,0.54,0.54,18.46,-66.1
397,Jinghpaw,17661,0.77,0.15,0.15,0.88,0.54,0.31,0.31,0.08,0.08,1.0,0.77,1.0,0.69,0.08,0.69,0.0,0.54,0.85,0.31,1.0,0.54,1.0,1.0,0.69,0.77,0.69,1.0,0.69,0.08,1.0,0.54,0.08,1.0,0.77,0.77,0.77,0.77,22.81,108.36
398,Jivaro,17667,0.15,0.08,0.08,0.31,0.08,0.08,0.08,0.08,0.08,0.77,0.46,0.08,0.08,0.08,0.69,1.0,1.0,1.0,0.08,0.54,1.0,0.08,0.77,0.69,0.31,0.69,1.0,1.0,0.54,0.77,1.0,0.31,0.46,0.31,0.31,0.31,0.54,-2.11,-78.35
399,Jola-Fonyi,14598,0.69,0.08,0.08,1.0,0.77,1.0,0.08,0.08,0.08,0.54,0.85,0.23,0.08,0.08,0.69,0.92,0.54,0.08,0.31,0.77,0.77,0.46,0.77,0.69,0.77,1.0,1.0,0.69,0.54,0.54,1.0,0.54,0.77,0.77,0.77,0.54,0.77,12.56,-16.26
400,Juǀʼhoansi,19262; 30012,1.0,0.15,0.46,1.0,1.0,1.0,0.54,1.0,1.0,1.0,0.69,1.0,0.46,0.08,0.69,1.0,1.0,1.0,0.69,0.77,1.0,1.0,1.0,0.69,0.31,1.0,1.0,1.0,1.0,1.0,1.0,0.77,1.0,1.0,1.0,1.0,1.0,-25.59,21.09
401,Ka'igwu,18569,0.85,0.15,0.15,0.54,0.54,0.54,0.31,0.08,0.08,0.77,0.85,0.23,0.23,0.08,0.38,0.46,0.54,0.08,0.08,0.77,0.77,0.08,0.54,0.69,0.77,1.0,1.0,0.69,0.54,0.77,0.54,0.77,0.46,0.31,0.31,0.31,0.54,35.07,-98.24
402,Kabiyé,17755,0.77,0.15,0.08,0.54,1.0,1.0,0.31,0.08,0.08,0.54,0.46,0.23,0.46,0.08,0.0,0.62,0.77,0.85,0.08,0.54,0.54,0.08,1.0,0.69,0.77,1.0,1.0,0.69,1.0,0.54,1.0,0.77,0.62,0.31,0.31,0.77,0.77,8.61,0.82
403,Kabyle,17766,0.15,0.08,0.08,0.31,0.08,0.08,0.08,0.08,0.08,0.08,0.69,0.08,0.08,0.08,0.69,0.46,0.08,0.46,0.08,0.54,0.54,0.08,0.54,0.38,0.31,0.38,1.0,0.08,0.08,0.08,1.0,0.54,0.62,0.54,0.31,0.77,0.54,35.7,-0.62
404,Kai Islanders,18305,0.62,0.15,0.46,0.54,0.31,0.54,0.54,0.31,0.54,0.31,0.69,0.23,0.69,0.23,0.08,0.38,0.08,0.85,0.08,0.31,0.54,0.08,0.54,0.38,0.77,1.0,1.0,0.08,0.08,0.31,1.0,0.54,0.46,0.08,0.08,0.31,0.31,-5.75,132.73
405,Káínawa,12343,0.46,0.15,0.15,0.54,0.54,0.54,0.54,0.08,0.08,0.54,0.46,0.23,0.23,0.08,0.38,0.46,0.54,0.23,0.08,0.77,0.77,0.08,0.54,0.69,0.77,1.0,1.0,0.69,0.54,0.54,0.54,0.77,0.46,0.31,0.31,0.08,0.54,49.19,-113.3
406,Kaingang,13025,0.42,0.69,0.46,0.54,0.54,0.31,0.42,1.0,0.54,0.77,0.85,0.46,1.0,0.38,0.69,0.85,1.0,1.0,0.08,0.08,0.31,0.08,1.0,0.38,0.54,0.69,1.0,0.38,1.0,0.77,1.0,0.77,0.46,0.54,0.54,0.31,0.77,-26.72,-52.17
407,Kakheti,15797,0.15,0.08,0.08,1.0,0.77,1.0,0.08,0.08,0.08,0.31,1.0,0.54,0.08,0.08,0.69,0.08,0.54,0.62,0.69,0.77,0.54,0.08,0.54,0.23,0.77,0.08,1.0,0.69,0.54,0.31,1.0,0.77,0.77,0.31,0.31,0.31,0.54,41.69,44.8
408,Kakoli,17865,0.46,0.08,0.08,0.54,0.54,0.54,0.08,0.08,0.08,0.77,0.85,0.23,0.08,0.08,0.69,0.92,0.54,1.0,0.08,0.31,0.54,0.08,1.0,0.38,0.77,0.69,1.0,0.69,1.0,0.77,1.0,0.54,0.62,0.31,0.31,0.77,0.77,-5.8,144.68
409,Kalaallit,62300,0.15,0.62,0.15,0.31,0.08,0.08,0.31,0.08,0.08,0.77,0.85,0.08,0.69,0.08,0.38,0.38,0.77,0.38,0.08,0.54,0.77,0.08,0.77,0.69,0.31,0.69,0.69,1.0,1.0,0.77,0.54,0.42,0.62,0.31,0.54,0.31,0.77,77.46,-69.22
410,Kalamata,16094,0.08,0.0,0.38,0.0,0.0,0.0,0.77,0.54,0.77,0.0,0.0,0.0,0.69,0.46,0.0,0.0,0.0,0.0,0.0,0.0,0.0,0.0,0.0,0.0,0.0,0.69,0.0,0.0,0.0,0.0,0.0,0.0,0.0,0.0,0.0,0.0,0.0,37.34,22.35
411,Kalash,17884,0.44,0.62,0.85,0.77,0.54,0.31,0.54,0.77,0.77,0.77,1.0,0.38,0.23,0.54,0.69,0.77,0.31,0.85,0.08,0.31,0.31,0.08,0.31,0.38,0.77,0.08,0.08,0.38,0.54,0.77,0.08,0.54,0.62,0.54,0.54,0.31,0.0,36.89,73.26
412,Kalina,17887,0.15,0.08,0.08,0.31,0.08,0.08,0.08,0.08,0.08,0.77,0.85,0.08,0.08,0.08,1.0,0.15,0.54,0.62,0.08,0.54,0.54,0.08,0.77,0.38,0.31,0.08,1.0,0.69,0.54,0.77,1.0,0.54,0.46,0.31,0.77,0.77,0.77,3.93,-53.12
413,Kamayurá,13102,0.46,0.08,0.08,0.54,0.31,0.54,0.08,0.08,0.08,0.77,0.85,0.23,0.08,0.08,0.69,0.23,0.77,0.08,0.31,0.54,0.77,0.08,1.0,0.38,0.54,1.0,1.0,1.0,1.0,0.77,0.08,0.77,0.23,0.31,0.31,0.54,0.77,-12.27,-53.47
414,Kanak,30029,0.65,0.15,0.46,1.0,1.0,0.77,0.54,1.0,0.54,0.77,0.46,1.0,0.23,0.23,0.69,1.0,0.54,1.0,0.31,0.31,0.54,1.0,1.0,0.85,0.54,1.0,1.0,0.69,0.54,0.77,1.0,0.54,0.62,1.0,1.0,0.54,1.0,-21.03,167.24
415,Kaningara,30031,0.46,0.23,0.46,0.54,1.0,0.77,0.54,0.77,0.31,0.77,0.85,0.23,0.46,0.23,1.0,0.46,0.31,0.23,0.08,0.31,0.54,0.08,1.0,0.23,0.77,0.08,0.38,0.38,0.54,0.77,1.0,0.31,0.46,0.77,0.77,0.31,0.54,-4.31,143.04
416,Kanioka,17997,0.77,1.0,1.0,1.0,1.0,1.0,1.0,1.0,1.0,0.31,0.46,0.23,0.46,0.85,1.0,0.08,0.77,1.0,0.08,0.31,0.54,0.08,1.0,0.69,0.54,1.0,1.0,0.38,1.0,0.31,1.0,0.54,0.77,1.0,0.31,0.54,0.77,-10.98,26.73
417,Kankanai,30178,0.46,0.08,0.08,0.54,0.54,0.31,0.08,0.08,0.08,0.54,0.85,0.23,0.08,0.08,0.69,0.15,0.54,1.0,1.0,0.54,0.54,0.08,0.54,0.69,0.31,0.69,1.0,0.38,0.54,0.54,1.0,0.54,0.46,0.54,0.77,0.54,0.77,16.56,121.26
418,Kanto,30054,0.15,0.08,0.08,0.31,0.08,0.08,0.08,0.08,0.08,0.08,0.85,0.08,0.08,0.08,0.69,0.08,0.08,0.08,0.31,0.54,0.31,0.08,0.08,0.23,0.54,0.08,1.0,0.69,0.08,0.08,0.54,0.54,0.23,0.31,0.54,0.54,0.31,35.75,139.7
419,Kanyapur,16039,0.15,0.69,0.38,0.31,0.31,0.08,0.54,0.54,0.77,0.08,0.85,0.08,0.85,0.54,0.69,0.08,0.77,1.0,0.08,0.77,0.31,0.08,0.08,0.85,0.54,0.08,1.0,0.38,0.54,0.08,1.0,0.42,0.23,0.08,0.54,0.77,0.31,23.7,86.94
420,Kara,30037,0.46,0.08,0.08,0.54,0.54,0.77,0.08,0.08,0.08,0.31,0.85,0.23,0.08,0.08,0.69,0.23,0.54,0.08,0.08,0.54,0.77,0.08,0.77,0.38,0.54,0.69,1.0,0.69,0.54,0.31,1.0,0.54,0.23,0.31,0.77,0.54,0.54,-2.69,151.02
421,Karajá,13168,0.15,0.08,0.08,0.31,0.08,0.08,0.08,0.08,0.08,0.77,0.85,0.08,0.08,0.08,1.0,0.23,0.77,0.08,0.08,0.77,1.0,0.08,1.0,0.38,0.08,1.0,1.0,0.38,0.54,0.77,0.54,1.0,0.62,0.31,0.54,0.19,0.77,-10.92,-50.18
422,Karelia,62297,0.15,0.08,0.08,0.31,0.08,0.08,0.08,0.08,0.08,0.08,0.46,0.08,0.08,0.08,0.69,0.38,0.77,0.38,0.08,0.54,0.54,0.08,1.0,0.38,0.54,1.0,1.0,1.0,1.0,0.08,1.0,0.77,0.62,0.54,0.54,0.54,0.31,63.0,32.0
423,Karo,11859,0.31,1.0,0.92,0.31,0.08,0.08,1.0,0.31,1.0,0.08,0.46,0.08,0.46,0.85,0.69,0.38,0.42,0.31,0.0,0.54,0.54,0.08,0.77,0.69,0.54,1.0,1.0,0.69,0.54,0.08,1.0,0.54,0.35,0.31,0.77,0.54,0.31,3.1,98.49
424,Kartli,62461,0.35,0.08,0.08,0.88,0.54,0.31,0.08,0.08,0.08,0.77,1.0,0.38,0.08,0.08,0.69,0.08,0.31,0.08,0.69,0.77,0.31,0.23,0.31,0.23,0.77,0.08,0.08,0.69,0.08,0.77,0.08,0.77,0.46,0.54,0.31,0.31,0.77,41.72,44.77
425,Kashia Band Pomo,30087,0.46,0.23,0.46,0.54,0.54,0.54,0.54,1.0,0.54,0.77,0.46,0.23,0.23,0.23,0.69,0.23,1.0,1.0,0.08,0.31,0.77,0.08,1.0,0.38,0.31,1.0,1.0,0.69,1.0,0.77,0.54,0.54,0.46,0.31,0.31,0.54,0.77,38.65,-123.33
426,Kashmiri Dards,18173,0.15,0.15,0.38,0.08,0.08,0.08,0.88,0.77,0.31,0.0,0.46,0.08,0.46,0.38,0.69,0.0,0.08,0.08,0.08,0.54,0.54,0.08,0.31,0.23,0.54,0.08,0.08,0.38,0.08,0.0,1.0,0.31,0.23,0.31,0.31,0.31,0.54,33.77,76.57
427,Katch,22863,0.38,0.08,0.08,0.54,0.54,0.77,0.08,0.08,0.08,0.31,0.85,0.23,0.08,0.08,0.69,0.62,0.77,0.73,0.08,0.77,0.54,0.08,1.0,0.69,0.42,0.38,0.69,0.69,1.0,0.31,1.0,0.77,0.46,0.31,0.42,0.31,0.54,11.19,29.41
428,Kâte,15335,0.15,0.62,0.15,0.31,0.08,0.08,0.31,0.08,0.08,0.31,0.85,0.08,0.23,0.08,0.38,0.15,0.31,0.08,0.08,0.54,0.77,0.08,0.77,0.38,0.31,0.69,0.08,0.69,0.54,0.31,1.0,0.54,0.23,0.08,0.31,0.31,0.54,-6.59,147.85
429,Kathiri Bedouin,11936,0.62,0.23,0.46,0.54,0.31,0.31,0.54,0.08,0.77,0.77,0.46,0.23,0.23,0.23,0.69,0.85,0.77,1.0,0.08,0.31,0.54,0.08,0.54,0.69,0.77,1.0,1.0,0.38,0.54,0.77,1.0,0.54,0.23,0.08,0.31,0.54,0.54,12.8,45.03
430,Kaulong,19097,0.46,0.15,0.46,0.54,0.54,0.77,0.54,1.0,1.0,0.77,0.85,0.23,0.23,0.23,0.69,0.92,0.54,0.85,0.08,0.54,0.54,0.08,0.77,0.69,0.54,1.0,1.0,0.38,0.54,0.77,1.0,0.54,0.46,1.0,1.0,0.54,1.0,-6.2,149.53
431,Kavalan,30180,0.46,0.08,0.08,0.54,1.0,0.77,0.08,0.08,0.08,0.54,0.85,0.23,0.08,0.08,0.69,0.46,0.54,1.0,0.08,0.31,0.54,0.08,1.0,0.85,0.31,1.0,1.0,0.69,0.54,0.54,1.0,0.54,0.62,0.77,1.0,0.77,0.54,23.58,121.5
432,Kawaik,19537,0.46,0.15,0.15,0.54,0.77,0.77,0.31,0.08,0.08,0.77,0.85,0.23,0.85,0.08,0.69,0.15,0.77,0.08,0.08,0.54,0.77,0.08,1.0,0.38,0.77,1.0,1.0,0.69,1.0,0.77,0.54,0.77,0.62,0.77,0.77,0.54,0.77,35.03,-107.38
433,Kawésqar,10264,0.15,0.08,0.08,0.31,0.08,0.08,0.08,0.08,0.08,0.54,0.85,0.08,0.08,0.08,0.08,0.85,0.31,0.85,0.08,0.08,0.08,0.08,0.77,0.23,0.31,0.38,1.0,1.0,1.0,0.54,1.0,0.54,0.46,0.54,0.31,0.77,0.54,-49.13,-74.45
434,Kayabí,18283,0.46,0.08,0.08,0.54,0.54,0.54,0.08,0.08,0.08,0.54,0.46,0.23,0.08,0.08,0.69,0.46,0.77,0.62,0.31,0.54,0.77,0.08,0.77,0.69,0.54,0.69,1.0,1.0,1.0,0.54,1.0,0.77,0.46,0.08,0.08,0.31,0.77,-10.65,-53.57
435,Kazakh Steppe Nomads,18294,0.15,0.15,0.15,0.31,0.08,0.08,1.0,0.08,0.08,0.08,0.85,0.08,0.85,0.08,0.69,0.46,0.08,0.38,0.08,0.77,0.54,0.08,0.77,0.69,0.77,0.38,0.38,0.38,0.54,0.08,1.0,0.31,0.08,0.08,0.77,0.31,0.31,43.22,76.85
436,Kēěrkèzī zú,62303,0.0,0.0,0.0,0.0,0.0,0.0,0.0,0.0,0.0,0.0,0.0,0.0,0.0,0.0,0.0,0.0,0.0,0.0,0.0,0.0,0.0,0.0,0.0,0.0,0.0,0.0,0.0,0.0,0.0,0.0,0.0,0.0,0.0,0.0,0.0,0.0,0.0,43.82,87.61
437,Kerala,18371,0.15,0.23,0.38,0.31,0.54,0.08,1.0,0.08,1.0,0.54,0.46,0.23,0.46,0.69,0.69,0.23,0.54,0.08,0.08,0.77,0.31,0.08,0.31,0.69,0.54,1.0,1.0,0.69,0.54,0.54,0.08,0.54,0.23,0.08,0.31,0.54,0.08,8.52,76.93
438,Kerewo,15984,0.38,0.08,0.08,0.88,0.77,0.54,0.08,0.08,0.08,0.31,1.0,0.38,0.08,0.08,1.0,0.85,0.31,0.85,0.08,0.31,0.31,0.23,0.54,0.23,0.31,0.08,1.0,0.69,0.54,0.31,1.0,1.0,0.77,0.31,0.31,1.0,0.77,-8.86,143.4
439,Ket,18393,0.77,0.08,0.08,0.31,0.08,0.08,0.08,0.08,0.08,0.31,0.85,0.08,0.08,0.08,0.69,0.62,0.77,0.85,0.69,0.54,0.77,0.08,1.0,0.69,0.77,1.0,1.0,0.69,0.08,0.31,0.54,0.77,0.77,0.54,0.54,0.54,0.77,65.87,87.84
440,Kha'po Owingeh (Tewa),24052,0.15,0.62,0.15,0.31,0.08,0.08,0.31,0.08,0.08,0.54,0.85,0.08,0.46,0.08,0.38,0.23,0.31,0.08,0.08,0.77,0.77,0.08,0.54,0.38,0.54,0.69,1.0,0.38,0.54,0.54,0.54,0.42,0.46,0.54,0.54,0.31,1.0,38.85,-104.91
441,Khanty,18431,0.15,0.08,0.08,0.31,0.08,0.08,0.08,0.08,0.08,0.54,0.85,0.08,0.08,0.08,0.69,0.92,0.77,1.0,0.31,0.31,1.0,0.08,1.0,0.69,0.54,0.69,1.0,0.69,0.54,0.54,0.54,0.77,0.62,0.31,0.54,0.54,0.54,62.22,70.64
442,Khattak,18448,0.54,0.23,0.46,0.54,0.31,0.31,0.54,0.31,0.31,0.31,0.46,0.23,0.46,0.23,0.69,0.77,0.54,1.0,0.08,0.31,0.54,0.08,0.31,0.69,0.88,0.38,0.38,0.38,0.08,0.31,0.54,0.08,0.08,0.08,0.08,0.08,0.08,31.95,77.1
443,Khmer,13124,0.15,0.0,0.62,0.31,0.08,0.08,0.77,0.0,0.77,0.31,0.85,0.08,0.92,0.46,0.69,0.77,0.31,0.85,0.08,0.54,0.77,0.08,0.31,0.38,0.54,0.38,0.69,0.38,0.54,0.31,0.54,0.54,1.0,0.54,0.54,0.42,0.42,12.56,104.99
444,Khorasani Kurds,19317,0.15,0.15,0.38,0.31,0.08,0.08,1.0,0.54,0.77,0.31,0.46,0.08,0.46,0.69,0.69,0.15,0.77,0.08,0.08,0.54,0.31,0.08,0.08,0.69,0.54,0.69,0.69,0.08,0.54,0.31,0.54,0.42,0.08,0.08,0.54,0.31,0.31,36.26,59.61
445,Khwe,30013,0.85,0.23,0.92,0.54,1.0,1.0,1.0,1.0,1.0,1.0,0.46,0.23,0.69,0.08,0.69,0.85,0.54,1.0,0.08,0.31,0.54,0.08,1.0,0.69,0.54,1.0,1.0,1.0,0.08,1.0,1.0,0.54,0.62,1.0,1.0,0.77,1.0,-19.31,22.44
446,Kinh (Vietnamese),28271,0.15,0.15,0.08,0.31,0.08,0.08,0.08,0.08,0.08,0.08,0.46,0.08,0.08,0.08,0.69,0.08,0.08,0.08,0.69,0.77,0.31,0.08,0.08,0.69,0.54,1.0,1.0,0.08,0.54,0.08,0.08,0.77,0.23,0.31,0.31,0.54,0.54,19.27,107.32
447,Kipsigis,18591,0.77,0.15,0.15,0.77,1.0,1.0,1.0,0.08,0.08,0.77,0.46,0.23,0.46,0.08,0.69,0.38,0.77,0.62,0.69,0.54,0.77,0.23,1.0,0.69,0.31,1.0,1.0,1.0,1.0,0.77,1.0,0.77,0.77,0.77,1.0,0.54,0.77,-0.36,35.28
448,Kire,12387,0.46,0.38,0.46,0.54,0.54,0.31,0.54,0.77,0.31,0.54,0.85,0.23,0.85,0.23,0.69,0.77,0.54,0.85,0.08,0.31,0.54,0.08,0.77,0.38,0.31,0.23,0.38,0.38,0.54,0.54,1.0,0.54,0.46,0.31,0.31,0.54,0.77,-4.27,144.96
449,Kirovskaya,10827,0.15,0.08,0.08,0.31,0.08,0.08,0.08,0.08,0.08,0.31,0.46,0.08,0.08,0.08,0.69,0.38,0.77,0.23,0.31,0.31,0.54,0.08,0.54,0.38,0.77,0.69,1.0,0.38,0.08,0.31,0.54,0.54,0.77,0.54,0.54,0.31,0.0,57.11,49.99
450,Kĩsêdjê,26302,0.15,0.46,0.15,0.31,0.54,0.08,0.31,0.08,0.08,0.77,1.0,0.08,0.23,0.08,0.69,0.23,0.54,0.08,0.08,0.54,0.31,0.08,1.0,0.38,0.31,0.08,1.0,0.08,0.54,0.77,1.0,1.0,0.62,0.54,0.31,0.77,0.77,-11.22,-53.25
451,Kivallirmiut,13190,0.46,0.08,0.08,0.54,0.31,0.08,0.08,0.08,0.08,0.77,0.85,0.23,0.08,0.08,0.69,0.46,0.31,0.85,0.69,0.54,0.77,0.08,0.77,0.38,0.31,0.38,1.0,0.69,1.0,0.77,0.54,0.77,0.46,0.31,0.31,0.77,0.77,64.59,-84.13
452,Kiwai,18635,0.46,0.15,0.15,1.0,0.77,1.0,0.31,0.08,0.08,0.31,0.85,0.23,0.46,0.08,1.0,0.85,0.08,1.0,0.85,0.77,0.54,0.77,0.77,0.23,0.31,1.0,1.0,0.69,0.54,0.31,1.0,1.0,0.77,0.54,0.54,1.0,0.77,-8.54,143.45
453,Kolam,18778,0.69,0.15,0.38,0.54,0.31,0.54,1.0,0.31,0.77,0.77,0.85,0.38,0.46,0.85,0.69,0.23,0.77,0.08,0.31,0.54,0.54,0.08,0.54,0.85,0.77,0.69,1.0,0.69,1.0,0.77,0.54,0.42,0.23,0.31,0.54,0.54,0.31,15.91,79.74
454,Kombai,18811,0.46,0.62,0.15,1.0,0.77,0.77,0.31,0.08,0.08,0.31,0.85,0.23,0.85,0.08,0.69,0.46,0.77,0.69,0.31,0.54,0.77,0.62,0.77,0.38,0.31,0.38,0.38,0.08,0.54,0.31,1.0,0.54,0.77,0.77,0.77,0.54,0.54,-5.33,139.81
455,Komi,22067,0.15,0.08,0.08,0.31,0.08,0.08,0.08,0.08,0.08,0.08,0.85,0.08,0.08,0.08,0.69,0.77,0.54,1.0,0.31,0.54,0.31,0.08,1.0,0.38,0.31,0.69,1.0,0.69,0.54,0.08,0.54,0.42,0.62,0.54,0.77,0.54,0.54,64.7,43.39
456,Komi-Izhemtsi,50272,0.15,0.08,0.08,0.31,0.08,0.08,0.08,0.08,0.08,0.08,0.85,0.08,0.08,0.08,0.85,0.38,0.77,0.69,0.69,0.54,0.54,0.08,0.77,0.69,0.31,1.0,1.0,0.69,0.08,0.08,1.0,0.77,0.77,0.31,0.31,0.54,0.54,63.86,54.83
457,Konda-Dora,18833,0.15,0.08,0.08,0.31,0.08,0.08,0.08,0.08,0.08,0.31,0.85,0.08,0.08,0.08,0.69,0.23,0.54,0.08,0.08,0.54,0.31,0.08,0.31,0.69,0.42,0.69,0.38,0.69,1.0,0.31,1.0,0.42,0.23,0.31,0.54,0.77,0.54,18.56,82.97
458,Konso,18888,0.88,1.0,0.85,1.0,0.77,1.0,1.0,0.54,0.77,0.77,0.46,0.85,0.23,0.69,0.85,0.54,1.0,1.0,0.31,0.54,1.0,0.23,1.0,0.85,0.77,0.69,0.69,0.69,1.0,0.77,1.0,0.54,0.62,0.54,0.54,0.31,0.31,5.31,37.21
459,Koorete,10442,0.77,0.08,0.08,1.0,0.31,0.77,0.54,1.0,0.77,0.0,0.69,0.23,0.23,0.23,0.08,0.46,0.77,0.23,0.0,0.77,0.31,0.23,0.77,0.85,0.54,1.0,1.0,1.0,1.0,0.0,0.08,1.0,0.46,0.19,0.31,0.31,0.31,6.73,38.4
460,Korku,18943,0.15,0.08,0.08,0.77,0.08,0.08,0.08,0.08,0.08,0.54,0.85,0.08,0.08,0.08,0.69,0.85,0.54,1.0,0.08,0.31,0.54,0.08,0.54,0.69,0.31,0.69,1.0,0.69,1.0,0.54,1.0,0.54,0.62,0.31,0.54,0.77,0.77,21.77,78.17
461,Koryak,18976,0.15,0.08,0.08,0.31,0.08,0.08,0.08,0.08,0.08,1.0,0.46,0.08,0.08,0.08,0.69,0.92,0.77,1.0,0.69,0.31,0.54,0.08,0.77,0.38,0.31,1.0,1.0,1.0,0.54,1.0,0.54,0.77,0.77,0.54,0.54,0.77,1.0,65.17,176.76
462,Kottu,15687,0.77,0.08,0.08,0.54,0.77,0.77,0.54,0.08,0.08,0.54,0.46,0.23,0.08,0.08,0.69,0.77,0.77,1.0,0.08,0.54,0.77,0.08,0.54,0.69,0.77,1.0,1.0,0.38,0.54,0.54,1.0,0.42,0.46,0.31,0.54,0.54,0.77,9.31,42.19
463,Kouyou,19022,1.0,1.0,0.92,1.0,0.77,1.0,1.0,0.77,1.0,0.54,0.46,0.23,0.46,0.85,1.0,0.85,1.0,1.0,0.08,0.77,0.54,1.0,0.77,0.69,0.77,1.0,1.0,0.69,1.0,0.54,1.0,0.77,0.62,0.54,0.31,0.77,0.77,-0.48,15.89
464,Kovai,19025,0.77,0.08,0.08,1.0,0.77,0.54,0.08,0.08,0.08,0.54,0.85,0.23,0.08,0.08,0.85,0.85,0.42,0.85,0.08,0.77,0.77,0.08,1.0,0.69,0.77,0.69,0.69,0.38,0.54,0.54,1.0,0.31,0.62,0.54,0.54,0.31,0.77,-5.61,147.96
465,Koya,19031,0.38,0.08,0.08,0.54,0.54,0.54,0.08,0.08,0.08,0.54,0.46,0.23,0.08,0.08,0.69,0.46,0.88,0.62,0.08,0.77,0.54,0.08,0.77,0.85,0.31,0.69,1.0,0.69,1.0,0.54,1.0,0.42,0.62,0.31,0.31,0.54,0.77,16.87,80.92
466,Kpelle,19053,1.0,0.08,0.08,1.0,0.77,1.0,0.08,0.08,0.08,0.77,0.46,1.0,0.08,0.08,0.69,1.0,1.0,1.0,0.69,0.54,0.77,1.0,1.0,0.85,0.77,1.0,1.0,1.0,0.54,0.77,1.0,0.42,0.88,0.31,0.31,0.77,0.77,6.99,-9.47
467,Kranjska,50259,0.15,0.08,0.08,0.31,0.08,0.08,0.08,0.08,0.08,0.31,0.85,0.08,0.08,0.08,0.08,0.85,0.54,1.0,0.08,0.54,0.54,0.08,0.77,0.38,0.54,0.69,1.0,0.69,0.54,0.31,1.0,0.54,0.62,0.31,0.31,0.54,0.31,46.31,14.29
468,Kru,19086,0.15,0.0,0.15,0.08,0.08,0.08,1.0,0.0,0.08,0.77,0.46,0.08,0.46,0.08,0.85,0.77,0.88,0.85,0.69,0.54,0.54,0.08,1.0,0.85,0.31,1.0,1.0,0.69,1.0,0.77,1.0,0.54,0.62,0.54,0.31,0.77,0.77,4.76,-8.22
469,Kruševica,25220,0.92,0.08,0.08,1.0,0.77,1.0,0.08,0.08,0.08,0.08,0.85,0.23,0.08,0.08,0.69,0.92,1.0,1.0,1.0,0.31,0.31,0.46,0.31,0.69,0.31,0.69,1.0,0.08,1.0,0.08,0.08,0.77,0.77,1.0,1.0,0.31,0.54,42.99,22.19
470,Ktunaxa,19394,0.62,0.15,0.46,0.54,0.54,0.54,0.31,0.08,0.08,0.77,0.46,0.23,0.23,0.08,0.38,0.46,0.77,0.62,0.08,0.77,0.77,0.08,1.0,0.69,0.77,1.0,1.0,0.38,0.54,0.77,0.08,0.77,0.08,0.08,0.31,0.31,0.77,49.51,-115.76
471,Kuikuru,19141,0.46,0.15,0.46,0.54,0.54,0.77,0.54,0.77,0.77,0.77,0.46,0.23,0.23,0.23,1.0,0.46,0.77,0.23,0.31,0.31,0.54,0.08,1.0,0.85,0.54,1.0,1.0,0.69,0.54,0.77,0.54,0.54,0.46,0.77,0.31,0.31,0.77,-12.68,-56.92
472,Kukuya Teke,19014,0.85,1.0,0.85,1.0,1.0,1.0,1.0,1.0,1.0,0.77,0.46,0.85,0.46,0.85,0.69,0.77,0.88,0.85,0.08,0.54,0.31,0.23,0.54,1.0,0.54,1.0,1.0,1.0,0.54,0.77,0.08,1.0,0.62,0.77,0.77,0.77,1.0,-2.3,14.37
473,Kulina,14224,0.46,0.08,0.08,1.0,0.77,0.77,0.08,0.08,0.08,0.77,0.85,0.38,0.08,0.08,0.69,0.69,0.77,1.0,0.08,0.77,0.54,0.62,1.0,0.77,0.54,0.38,1.0,0.38,0.08,0.77,1.0,0.77,0.62,0.42,0.77,0.42,0.77,-3.69,-61.46
474,Kullu,19196,0.15,0.08,0.08,0.54,0.08,0.08,0.88,0.08,0.08,0.31,0.46,0.23,0.46,0.08,0.69,0.46,0.77,1.0,0.31,0.54,0.31,0.08,0.31,0.69,0.77,0.08,0.08,0.38,0.08,0.31,0.54,0.54,0.46,0.31,0.54,0.31,0.31,32.55,76.12
